timestamp,mode,armed,roll_deg,pitch_deg,yaw_deg,rollspeed,pitchspeed,yawspeed,x,y,z,vx,vy,vz,speed_h,altitude_agl,battery_pct,battery_v,current_a0,current_a1,voltage_s1,voltage_s2,relay,distance_m
2026-03-26 17:54:49.218,PX4_0,False,0.097,-2.446,354.646,0.0006,-0.0002,-0.0005,0.0003,-0.0024,-0.0301,-0.0011,0.0003,-0.0001,0.001,0.03,63,15.006,0.0,0.0,0.0,0.03,ON,0.02
2026-03-26 17:54:50.221,PX4_0,False,0.096,-2.451,354.622,0.0049,0.0064,-0.0194,-0.0,-0.0022,-0.0297,0.0001,0.0006,0.0012,0.001,0.03,63,15.002,0.0,0.0,0.0,0.03,ON,0.02
2026-03-26 17:54:51.226,PX4_0,False,0.099,-2.454,354.47,0.0026,-0.0095,-0.0227,0.0007,-0.003,-0.0307,0.001,0.0028,-0.0031,0.003,0.031,62,14.984,0.0,0.0,0.0,0.03,ON,0.02
2026-03-26 17:54:52.230,POSCTL,True,0.104,-2.458,354.585,-0.0055,0.0004,0.0092,0.0006,-0.0034,-0.0314,-0.0007,0.0002,-0.0043,0.001,0.031,62,14.998,0.0,0.0,0.0,0.03,ON,0.02
2026-03-26 17:54:53.233,PX4_0,False,0.095,-2.455,354.646,-0.0089,0.0003,0.0021,0.0007,-0.0033,-0.0314,0.0009,0.0,-0.001,0.001,0.031,62,14.994,0.0,0.0,0.0,0.03,ON,0.02
2026-03-26 17:54:54.237,AUTO.SUB_0,True,0.165,-0.35,354.261,-0.008,0.4172,-0.0231,-0.0056,0.0033,-0.0788,-0.0801,0.0448,-0.5719,0.092,0.079,60,14.856,0.0,0.0,0.0,0.03,ON,0.02
2026-03-26 17:54:55.244,PX4_0,False,-0.654,-1.654,345.272,-0.0559,-0.013,-0.0328,0,0,0,0,0,0,0.0,0,53,14.435,0.0,0.0,0.0,0.03,ON,1.09
2026-03-26 17:54:56.247,PX4_0,False,-0.505,-1.73,339.668,-0.0183,0.0159,0.0099,-0.1496,0.109,-1.3896,0.0375,-0.0271,-0.1886,0.046,1.39,51,14.345,0.0,0.0,0.0,0.03,ON,1.38
2026-03-26 17:54:57.250,PX4_0,False,-0.234,-2.217,336.378,0.0254,-0.0362,-0.005,-0.1934,0.17,-1.519,0.0786,-0.096,-0.1108,0.124,1.519,50,14.304,0.0,0.0,0.0,0.03,ON,1.51
2026-03-26 17:54:58.251,PX4_0,False,-0.239,-1.574,350.183,0.0359,0.0095,-0.0116,-0.1649,0.1637,-1.5916,0.1195,-0.1806,-0.0602,0.217,1.592,50,14.269,0.0,0.0,0.0,0.03,ON,1.59
2026-03-26 17:54:59.253,PX4_0,False,0.755,-1.352,349.909,-0.02,-0.028,-0.0015,-0.1192,0.0697,-1.6355,0.0888,-0.1669,-0.0259,0.189,1.635,48,14.215,0.0,0.0,0.0,0.03,ON,1.63
2026-03-26 17:55:00.257,PX4_0,False,0.924,-1.151,349.823,0.005,-0.0101,-0.0136,-0.0852,0.0027,-1.6535,0.0739,-0.106,-0.0158,0.129,1.653,48,14.192,0.0,0.0,0.0,0.03,ON,1.65
2026-03-26 17:55:01.259,PX4_0,False,0.924,-1.151,349.823,0.005,-0.0101,-0.0136,-0.0559,-0.0271,-1.6591,0.0629,-0.0788,-0.017,0.101,1.659,48,14.181,0.0,0.0,0.0,0.03,ON,1.64
2026-03-26 17:55:02.264,PX4_0,False,1.097,-1.221,352.4,-0.029,-0.0286,-0.0149,-0.0319,-0.034,-1.5883,-0.0577,0.1152,0.016,0.129,1.588,47,14.139,0.0,0.0,0.0,0.03,ON,1.59
2026-03-26 17:55:03.266,PX4_0,False,0.957,-1.4,352.321,-0.0399,-0.0049,-0.0093,-0.0644,0.027,-1.5743,-0.0329,0.0839,0.003,0.09,1.574,46,14.116,0.0,0.0,0.0,0.03,ON,1.57
2026-03-26 17:55:04.269,PX4_0,False,0.713,-1.369,352.156,-0.0255,0.0028,0.0128,-0.0573,0.0744,-1.5677,-0.0116,0.0606,-0.0048,0.062,1.568,46,14.109,0.0,0.0,0.0,0.03,ON,1.56
2026-03-26 17:55:05.274,PX4_0,False,0.933,-1.291,352.384,-0.0067,-0.047,-0.0223,-0.0478,0.0923,-1.5703,-0.0209,0.0292,-0.0052,0.036,1.57,46,14.09,0.0,0.0,0.0,0.03,ON,0.0
2026-03-26 17:55:06.278,PX4_0,False,1.105,-1.431,352.112,-0.0413,-0.0255,0.0041,-0.048,0.1025,-1.5726,-0.03,0.0259,-0.0028,0.04,1.573,45,14.061,0.0,0.0,0.0,0.03,ON,1.57
2026-03-26 17:55:07.280,PX4_0,False,0.807,-1.651,352.08,0.0403,0.034,-0.0008,-0.0763,0.1318,-1.5737,-0.0268,0.0212,-0.0014,0.034,1.574,45,14.044,0.0,0.0,0.0,0.03,ON,1.57
2026-03-26 17:55:08.283,PX4_0,False,1.011,-1.843,352.122,-0.0172,0.0041,0.0089,-0.1166,0.1281,-1.5737,-0.0039,-0.0118,-0.0048,0.012,1.574,45,14.028,0.0,0.0,0.0,0.03,ON,1.57
2026-03-26 17:55:09.285,PX4_0,False,1.072,-1.845,352.351,-0.0194,0.0251,-0.0005,-0.1336,0.1416,-1.5793,0.0334,-0.0073,-0.0027,0.034,1.579,44,14.015,0.0,0.0,0.0,0.03,ON,1.57
2026-03-26 17:55:10.289,PX4_0,False,0.0,0.0,0.0,0,0,0,-0.0924,0.1332,-1.5749,0.0383,0.0055,-0.0072,0.039,1.575,44,14.009,0.0,0.0,0.0,0.03,ON,1.57
2026-03-26 17:55:11.292,PX4_0,False,1.108,-1.442,352.407,-0.0034,-0.0068,0.0046,-0.0844,0.1277,-1.5751,0.0322,-0.0025,-0.0016,0.032,1.575,44,14.001,0.0,0.0,0.0,0.03,ON,1.57
2026-03-26 17:55:12.295,PX4_0,False,1.226,-1.314,352.283,0.0221,0.0053,-0.0064,-0.0404,0.1048,-1.5796,-0.004,0.0101,-0.0049,0.011,1.58,44,13.975,0.0,0.0,0.0,0.03,ON,1.57
2026-03-26 17:55:13.297,PX4_0,False,1.159,-1.407,352.353,-0.0346,-0.0251,0.01,-0.0375,0.0967,-1.5776,-0.0215,0.0368,-0.0019,0.043,1.578,43,13.968,0.0,0.0,0.0,0.03,ON,1.57
2026-03-26 17:55:14.300,PX4_0,False,0.947,-1.355,352.22,0.0152,0.0034,-0.0085,-0.0236,0.1198,-1.5772,-0.0223,0.0355,-0.0039,0.042,1.577,43,13.957,0.0,0.0,0.0,0.03,ON,1.57
2026-03-26 17:55:15.302,PX4_0,False,0.595,-1.49,351.584,-0.0264,-0.0219,-0.0139,-0.0232,0.1541,-1.5763,-0.0342,0.041,-0.0011,0.053,1.576,43,13.945,0.0,0.0,0.0,0.03,ON,1.57
2026-03-26 17:55:16.305,PX4_0,False,0.838,-1.481,352.108,0.0202,0.008,0.0148,-0.0296,0.1554,-1.5778,-0.03,-0.0115,-0.0043,0.032,1.578,43,13.934,0.0,0.0,0.0,0.03,ON,1.57
2026-03-26 17:55:17.306,PX4_0,False,1.256,-1.456,351.864,-0.0036,0.0379,-0.0149,-0.0344,0.1095,-1.5806,-0.0311,0.0038,0.0005,0.031,1.581,42,13.921,0.0,0.0,0.0,0.03,ON,1.58
2026-03-26 17:55:18.309,PX4_0,False,0.664,-1.382,352.342,-0.0006,-0.0568,-0.0048,-0.0231,0.1445,-1.5808,-0.0261,0.0361,-0.0013,0.045,1.581,42,13.91,0.0,0.0,0.0,0.03,ON,1.57
2026-03-26 17:55:19.312,PX4_0,False,0.686,-1.406,352.927,-0.0125,0.081,-0.0051,-0.0175,0.1598,-1.5782,-0.0268,0.0181,-0.0011,0.032,1.578,42,13.898,0.0,0.0,0.0,0.03,ON,1.57
2026-03-26 17:55:20.315,PX4_0,False,1.027,-1.252,352.93,0.018,-0.022,-0.0286,-0.0093,0.1304,-1.5741,-0.0358,-0.0058,-0.0026,0.036,1.574,42,13.886,0.0,0.0,0.0,0.03,ON,1.57
2026-03-26 17:55:21.316,PX4_0,False,0.983,-1.452,352.657,-0.0052,0.0076,0.0139,-0.026,0.1184,-1.575,-0.0421,0.0205,-0.0001,0.047,1.575,41,13.876,0.0,0.0,0.0,0.03,ON,1.57
2026-03-26 17:55:22.318,PX4_0,False,0.812,-1.48,352.997,-0.0448,0.0027,0.003,-0.0432,0.1343,-1.5782,-0.0214,0.0044,-0.007,0.022,1.578,41,13.868,0.0,0.0,0.0,0.03,ON,1.57
2026-03-26 17:55:23.320,OFFBOARD,True,1.151,-1.447,352.662,0.0715,-0.0298,-0.027,-0.0488,0.1277,-1.5826,-0.0208,-0.01,-0.0001,0.023,1.583,41,13.867,0.0,0.0,0.0,0.03,ON,1.58
2026-03-26 17:55:24.323,PX4_0,False,1.224,-1.417,351.901,-0.0082,0.0218,0.0019,-0.0537,0.1224,-1.5841,-0.0107,0.0005,-0.0052,0.011,1.584,41,13.849,0.0,0.0,0.0,0.03,ON,1.58
2026-03-26 17:55:25.325,PX4_0,False,1.035,-1.277,351.408,-0.0163,0.0267,-0.0037,-0.0608,0.1001,-1.5857,-0.0021,0.044,0.001,0.044,1.586,41,13.846,0.0,0.0,0.0,0.03,ON,1.58
2026-03-26 17:55:26.334,PX4_0,False,0.995,-1.324,351.297,0.0108,0.0392,0.0103,-0.0589,0.1055,-1.5811,0.0074,0.0511,0.002,0.052,1.581,41,13.834,0.0,0.0,0.0,0.03,ON,1.57
2026-03-26 17:55:27.336,PX4_0,False,0.608,-1.236,351.357,-0.0623,-0.0045,-0.0135,-0.0516,0.1213,-1.5787,0.006,0.0567,0.0005,0.057,1.579,40,13.823,0.0,0.0,0.0,0.03,ON,1.56
2026-03-26 17:55:28.338,PX4_0,False,0.608,-1.236,351.357,-0.0623,-0.0045,-0.0135,-0.042,0.1373,-1.571,-0.0109,0.0093,-0.0059,0.014,1.571,40,13.814,0.0,0.0,0.0,0.03,ON,1.57
2026-03-26 17:55:29.340,PX4_0,False,1.032,-1.19,351.541,-0.0144,-0.0132,0.0196,-0.0305,0.1262,-1.5784,-0.0152,0.0043,-0.0035,0.016,1.578,40,13.802,0.0,0.0,0.0,0.03,ON,1.58
2026-03-26 17:55:30.343,PX4_0,False,1.094,-1.18,352.148,0.0364,-0.0113,-0.0015,-0.0349,0.1262,-1.5757,-0.0224,-0.0027,-0.0005,0.023,1.576,40,13.8,0.0,0.0,0.0,0.03,ON,1.57
2026-03-26 17:55:31.346,PX4_0,False,1.212,-1.639,352.378,0.0625,0.0234,0.0242,-0.0681,0.1277,-1.5785,-0.0293,0.0005,-0.01,0.029,1.579,40,13.784,0.0,0.0,0.0,0.03,ON,1.57
2026-03-26 17:55:32.348,PX4_0,False,1.032,-1.765,352.568,0.0389,-0.0066,-0.0072,-0.1013,0.1622,-1.5798,0.0026,0.0002,0.0022,0.003,1.58,39,13.768,0.0,0.0,0.0,0.03,ON,1.58
2026-03-26 17:55:33.350,PX4_0,False,0.855,-1.724,352.329,0.0063,-0.0318,-0.0272,-0.1203,0.194,-1.5789,0.0335,-0.0196,-0.0029,0.039,1.579,39,13.761,0.0,0.0,0.0,0.03,ON,1.57
2026-03-26 17:55:34.353,PX4_0,False,0.792,-1.544,352.618,-0.0077,0.0076,0.0236,-0.1198,0.1968,-1.5791,0.0368,-0.0308,-0.0034,0.048,1.579,39,13.76,0.0,0.0,0.0,0.03,ON,1.58
2026-03-26 17:55:35.357,PX4_0,False,1.031,-1.382,353.278,0.0225,0.0127,-0.0204,-0.0788,0.1843,-1.5858,0.0349,-0.0417,-0.0043,0.054,1.586,39,13.766,0.0,0.0,0.0,0.03,ON,1.58
2026-03-26 17:55:36.362,PX4_0,False,1.458,-1.416,353.167,-0.0391,0.0367,-0.0006,-0.0713,0.1368,-1.5873,0.018,-0.0113,0.0021,0.021,1.587,39,13.761,0.0,0.0,0.0,0.03,ON,1.58
2026-03-26 17:55:37.364,PX4_0,False,0.792,-1.562,351.971,-0.0186,-0.0258,-0.0199,-0.0749,0.1798,-1.5839,0.0083,0.0149,0.003,0.017,1.584,39,13.759,0.0,0.0,0.0,0.03,ON,1.58
2026-03-26 17:55:38.366,PX4_0,False,0.334,-1.7,352.034,0.0184,0.0015,-0.0104,-0.0889,0.2203,-1.5781,0.011,-0.0066,-0.0014,0.013,1.578,39,13.746,0.0,0.0,0.0,0.03,ON,1.57
2026-03-26 17:55:39.369,PX4_0,False,0.612,-1.585,351.876,-0.0126,0.0268,0.0048,-0.082,0.2102,-1.5812,0.0159,-0.0474,-0.008,0.05,1.581,39,13.744,0.0,0.0,0.0,0.03,ON,1.58
2026-03-26 17:55:40.373,PX4_0,False,1.115,-1.387,352.001,-0.0154,0.0413,0.01,-0.0628,0.175,-1.5846,0.0173,-0.0528,0.003,0.056,1.585,38,13.731,0.0,0.0,0.0,0.03,ON,1.58
2026-03-26 17:55:41.375,PX4_0,False,1.101,-1.611,352.26,-0.0038,-0.0334,-0.0087,-0.0657,0.1436,-1.5795,-0.0003,-0.0147,0.0078,0.015,1.579,38,13.726,0.0,0.0,0.0,0.03,ON,1.58
2026-03-26 17:55:42.378,PX4_0,False,0.825,-1.698,352.0,0.0357,0.0164,0.0024,-0.0846,0.1427,-1.5768,-0.0038,0.0204,0.0012,0.021,1.577,38,13.717,0.0,0.0,0.0,0.03,ON,1.57
2026-03-26 17:55:43.383,PX4_0,False,0.639,-2.03,351.836,-0.0149,-0.0442,-0.0175,-0.118,0.1543,-1.5805,0.0296,0.0109,-0.0057,0.032,1.581,38,13.703,0.0,0.0,0.0,0.03,ON,1.58
2026-03-26 17:55:44.387,PX4_0,False,0.805,-1.474,352.698,-0.0136,0.015,0.011,-0.1069,0.153,-1.5808,0.0508,-0.0081,0.0023,0.051,1.581,38,13.705,0.0,0.0,0.0,0.03,ON,1.58
2026-03-26 17:55:45.391,PX4_0,False,1.054,-1.497,352.892,0.035,0.0318,0.0079,-0.1005,0.1442,-1.579,0.0435,-0.017,0.0069,0.047,1.579,38,13.704,0.0,0.0,0.0,0.03,ON,1.57
2026-03-26 17:55:46.393,PX4_0,False,1.099,-1.328,352.595,-0.0598,0.0185,-0.0107,-0.0651,0.1237,-1.5785,0.0321,0.0288,-0.0022,0.043,1.579,37,13.681,0.0,0.0,0.0,0.03,ON,1.57
2026-03-26 17:55:47.396,PX4_0,False,0.489,-1.581,352.241,0.0019,-0.0028,-0.0079,-0.0563,0.1592,-1.5802,-0.0071,0.0207,-0.014,0.022,1.58,37,13.679,0.0,0.0,0.0,0.03,ON,1.57
2026-03-26 17:55:48.399,PX4_0,False,0.764,-1.295,351.414,0.0095,0.0251,0.0005,-0.0521,0.1499,-1.576,0.0025,0.0104,-0.0009,0.011,1.576,37,13.669,0.0,0.0,0.0,0.03,ON,1.57
2026-03-26 17:55:49.403,PX4_0,False,0.774,-1.272,351.804,0.008,0.0165,-0.004,-0.0133,0.143,-1.5823,-0.0003,0.0047,0.0005,0.005,1.582,37,13.667,0.0,0.0,0.0,0.03,ON,1.58
2026-03-26 17:55:50.407,PX4_0,False,0.826,-1.791,351.593,-0.0089,-0.0247,0.0025,0.0166,0.1346,-1.5857,-0.0335,0.0225,0.0001,0.04,1.586,37,13.662,0.0,0.0,0.0,0.03,ON,1.58
2026-03-26 17:55:51.409,PX4_0,False,0.836,-1.504,352.119,0.0063,-0.0008,0.0049,0.0378,0.1298,-1.5845,-0.0026,0.0201,-0.0047,0.02,1.585,37,13.646,0.0,0.0,0.0,0.03,ON,1.58
2026-03-26 17:55:52.412,PX4_0,False,0.829,-1.058,352.281,0.0054,-0.0263,-0.0086,0.0847,0.1265,-1.5851,0.0051,0.0225,-0.0029,0.023,1.585,37,13.644,0.0,0.0,0.0,0.03,ON,1.58
2026-03-26 17:55:53.415,PX4_0,False,0.843,-1.47,351.947,0.0048,-0.0088,0.0277,0.0754,0.1295,-1.5856,-0.0278,0.0061,-0.0016,0.028,1.586,37,13.64,0.0,0.0,0.0,0.03,ON,1.59
2026-03-26 17:55:54.418,PX4_0,False,0.495,-1.525,352.752,-0.0134,-0.0484,-0.0006,0.0469,0.1762,-1.5851,-0.0205,0.0186,0.0108,0.028,1.585,37,13.644,0.0,0.0,0.0,0.03,ON,1.58
2026-03-26 17:55:55.421,PX4_0,False,0.782,-1.63,353.106,0.0067,-0.0019,-0.0205,-0.0022,0.1929,-1.5767,0.0071,-0.0389,-0.0035,0.04,1.577,37,13.636,0.0,0.0,0.0,0.03,ON,1.57
2026-03-26 17:55:56.425,PX4_0,False,0.364,-1.624,352.983,-0.0192,-0.035,-0.0136,-0.0148,0.2127,-1.5714,0.0336,-0.017,-0.0052,0.038,1.571,36,13.621,0.0,0.0,0.0,0.03,ON,1.57
2026-03-26 17:55:57.429,PX4_0,False,0.631,-1.548,352.966,0.0391,0.0049,-0.0133,-0.0155,0.1843,-1.5799,0.0433,-0.0481,-0.0105,0.065,1.58,36,13.612,0.0,0.0,0.0,0.03,ON,1.58
2026-03-26 17:55:58.433,PX4_0,False,0.94,-1.753,352.328,-0.004,0.0355,-0.0035,0.0191,0.1442,-1.5838,0.1092,-0.0128,0.0025,0.11,1.584,36,13.614,0.0,0.0,0.0,0.03,ON,1.58
2026-03-26 17:55:59.435,PX4_0,False,0.74,-1.121,352.07,0.0085,-0.0154,-0.0067,0.0856,0.1232,-1.584,0.0978,0.0086,0.0017,0.098,1.584,36,13.605,0.0,0.0,0.0,0.03,ON,1.58
2026-03-26 17:56:00.436,PX4_0,False,-1.683,-1.593,352.298,-0.0651,-0.0004,0.0213,0.1558,0.0793,-1.5805,0.0349,-0.162,-0.0028,0.166,1.581,35,13.587,0.0,0.0,0.0,0.03,ON,1.57
2026-03-26 17:56:01.439,PX4_0,False,0.658,-1.53,353.446,0.0209,0.0197,0.0493,0.1969,-0.1676,-1.5774,0.0435,-0.3728,-0.011,0.375,1.577,35,13.583,0.0,0.0,0.0,0.03,ON,1.56
2026-03-26 17:56:02.442,PX4_0,False,1.391,-1.239,353.704,-0.0076,-0.0112,0.0233,0.2437,-0.302,-1.5756,0.0288,-0.1445,-0.0084,0.147,1.576,35,13.584,0.0,0.0,0.0,0.03,ON,1.58
2026-03-26 17:56:03.446,PX4_0,False,2.239,-1.663,355.484,-0.0083,-0.0274,0.0023,0.2611,-0.3875,-1.5826,0.0339,-0.0116,0.0018,0.036,1.583,35,13.584,0.0,0.0,0.0,0.03,ON,1.6
2026-03-26 17:56:04.450,PX4_0,False,1.76,-1.594,356.068,-0.0312,-0.0399,-0.0085,0.3247,-0.3891,-1.5905,0.0545,0.1729,0.0128,0.181,1.591,35,13.57,0.0,0.0,0.0,0.03,ON,1.58
2026-03-26 17:56:05.452,PX4_0,False,0.701,-1.943,355.884,0.0061,-0.0146,-0.0116,0.3504,-0.3013,-1.572,0.053,0.1723,-0.0101,0.18,1.572,35,13.559,0.0,0.0,0.0,0.03,ON,1.55
2026-03-26 17:56:06.454,PX4_0,False,-0.315,-1.689,356.553,0.0004,-0.0331,0.0216,0.4068,-0.1752,-1.5815,0.057,0.0212,-0.014,0.061,1.581,35,13.558,0.0,0.0,0.0,0.03,ON,1.58
2026-03-26 17:56:07.459,PX4_0,False,0.499,-1.313,358.483,-0.0237,0.0189,0.0171,0.478,-0.1884,-1.587,0.0332,-0.1135,0.0074,0.118,1.587,35,13.548,0.0,0.0,0.0,0.03,ON,0.0
2026-03-26 17:56:08.464,PX4_0,False,0.641,-1.427,358.588,0.024,0.0134,-0.0142,0.5018,-0.2041,-1.5815,-0.0096,-0.1026,0.0004,0.103,1.581,35,13.548,0.0,0.0,0.0,0.03,ON,1.57
2026-03-26 17:56:09.468,PX4_0,False,0.612,-1.47,358.593,0.0248,-0.0171,-0.035,0.5127,-0.2232,-1.5794,-0.0216,-0.1123,-0.003,0.114,1.579,35,13.545,0.0,0.0,0.0,0.03,ON,1.61
2026-03-26 17:56:10.479,PX4_0,False,1.756,-1.284,358.141,0.0368,0.018,-0.0125,0.5328,-0.3852,-3.1436,-0.0143,-0.043,-0.4839,0.045,3.144,34,13.52,0.0,0.0,0.0,0.03,ON,3.16
2026-03-26 17:56:11.485,PX4_0,False,0.985,-1.66,358.333,-0.0486,0.0142,0.0536,0.5301,-0.3527,-3.4081,-0.048,0.0503,-0.1126,0.07,3.408,34,13.537,0.0,0.0,0.0,0.03,ON,3.41
2026-03-26 17:56:12.488,PX4_0,False,0.099,-1.671,1.551,0.0175,0.0454,0.0396,0.544,-0.2587,-3.4654,-0.0071,-0.0104,-0.0298,0.013,3.465,34,13.523,0.0,0.0,0.0,0.03,ON,3.47
2026-03-26 17:56:13.494,PX4_0,False,0.338,-1.215,2.972,-0.0014,0.007,0.0322,0.5968,-0.2503,-3.4934,-0.0178,-0.0988,-0.0135,0.1,3.493,34,13.529,0.0,0.0,0.0,0.03,ON,3.5
2026-03-26 17:56:14.499,PX4_0,False,1.397,-1.078,4.063,0.0343,0.0051,0.0211,0.6159,-0.3574,-3.5032,-0.0833,-0.0764,0.0085,0.113,3.503,34,13.532,0.0,0.0,0.0,0.03,ON,3.5
2026-03-26 17:56:15.501,PX4_0,False,1.577,-1.311,4.429,0.0206,0.0293,0.0003,0.6421,-0.4071,-3.4924,-0.0985,0.0147,-0.001,0.1,3.492,34,13.519,0.0,0.0,0.0,0.03,ON,3.47
2026-03-26 17:56:16.504,PX4_0,False,1.183,-1.432,4.515,-0.0305,-0.0443,-0.0103,0.6282,-0.3805,-3.4807,-0.0914,0.0664,-0.0057,0.113,3.481,34,13.507,0.0,0.0,0.0,0.03,ON,3.47
2026-03-26 17:56:17.509,PX4_0,False,1.485,-1.167,5.106,-0.0154,0.0253,0.0272,0.6433,-0.3841,-3.4833,-0.0857,0.0306,-0.0077,0.091,3.483,33,13.485,0.0,0.0,0.0,0.03,ON,3.49
2026-03-26 17:56:18.513,PX4_0,False,1.31,-1.318,5.515,0.044,0.0289,0.0061,0.6443,-0.3634,-3.4959,-0.0968,0.037,-0.0052,0.104,3.496,33,13.487,0.0,0.0,0.0,0.03,ON,3.48
2026-03-26 17:56:19.518,PX4_0,False,0.908,-1.505,5.504,-0.0514,0.0123,0.0129,0.6295,-0.3387,-3.4932,-0.0841,0.0575,-0.0019,0.102,3.493,33,13.487,0.0,0.0,0.0,0.03,ON,3.49
2026-03-26 17:56:20.521,PX4_0,False,1.119,-1.342,5.714,-0.0243,0.0011,-0.0001,0.6194,-0.3292,-3.4951,-0.0659,-0.003,-0.002,0.066,3.495,33,13.483,0.0,0.0,0.0,0.03,ON,3.5
2026-03-26 17:56:21.526,PX4_0,False,0.775,-1.573,5.56,0.0227,0.0416,-0.0048,0.5949,-0.3225,-3.4954,-0.0476,0.0209,0.003,0.052,3.495,33,13.476,0.0,0.0,0.0,0.03,ON,3.49
2026-03-26 17:56:22.530,PX4_0,False,1.142,-1.356,6.083,0.03,-0.0138,-0.0266,0.6041,-0.3388,-3.4948,-0.017,-0.0175,-0.0088,0.024,3.495,33,13.464,0.0,0.0,0.0,0.03,ON,3.49
2026-03-26 17:56:23.533,PX4_0,False,1.054,-1.366,5.916,-0.0037,-0.0227,-0.0151,0.6098,-0.3387,-3.4974,-0.0063,-0.0161,-0.0003,0.017,3.497,33,13.463,0.0,0.0,0.0,0.03,ON,3.5
2026-03-26 17:56:24.537,PX4_0,False,1.603,-1.206,5.614,0.0661,0.0218,-0.0043,0.6351,-0.3643,-3.5043,0.023,-0.0423,0.0002,0.048,3.504,33,13.458,0.0,0.0,0.0,0.03,ON,3.5
2026-03-26 17:56:25.541,PX4_0,False,1.975,-0.918,4.96,0.0359,-0.0077,0.0262,0.665,-0.4032,-3.5003,-0.0226,0.0012,0.0105,0.023,3.5,33,13.452,0.0,0.0,0.0,0.03,ON,3.49
2026-03-26 17:56:26.546,PX4_0,False,1.911,-1.581,4.569,-0.0416,0.0405,-0.0048,0.6246,-0.4044,-3.4936,-0.013,0.02,-0.0062,0.024,3.494,33,13.449,0.0,0.0,0.0,0.03,ON,3.48
2026-03-26 17:56:27.550,PX4_0,False,1.389,-1.244,5.298,-0.0392,-0.0094,0.0108,0.6332,-0.3545,-3.4927,0.0144,0.0208,-0.0105,0.025,3.493,33,13.444,0.0,0.0,0.0,0.03,ON,3.49
2026-03-26 17:56:28.558,PX4_0,False,0.81,-0.849,6.136,-0.0138,-0.0042,0.0161,0.6776,-0.2566,-3.4973,-0.0157,-0.0517,-0.0,0.054,3.497,33,13.446,0.0,0.0,0.0,0.03,ON,3.49
2026-03-26 17:56:29.561,PX4_0,False,1.327,-0.743,5.896,-0.0237,0.0197,-0.0013,0.6969,-0.289,-3.4963,-0.0421,-0.0971,-0.0022,0.106,3.496,32,13.435,0.0,0.0,0.0,0.03,ON,3.48
2026-03-26 17:56:30.566,PX4_0,False,2.083,-1.159,6.44,0.0384,0.0046,-0.0372,0.6954,-0.4046,-3.4865,-0.0578,-0.042,-0.0091,0.071,3.486,32,13.43,0.0,0.0,0.0,0.03,ON,3.47
2026-03-26 17:56:31.571,PX4_0,False,2.057,-1.155,6.014,-0.0228,-0.035,-0.0265,0.6954,-0.4046,-3.4865,-0.0578,-0.042,-0.0091,0.071,3.486,32,13.423,0.0,0.0,0.0,0.03,ON,3.48
2026-03-26 17:56:32.575,PX4_0,False,1.465,-0.889,6.591,-0.0088,0.0116,-0.0033,0.6954,-0.4046,-3.4865,-0.0578,-0.042,-0.0091,0.071,3.486,32,13.423,0.0,0.0,0.0,0.03,ON,3.49
2026-03-26 17:56:33.577,OFFBOARD,True,1.465,-0.889,6.591,-0.0088,0.0116,-0.0033,0.6954,-0.4046,-3.4865,-0.0578,-0.042,-0.0091,0.071,3.486,32,13.423,0.0,0.0,0.0,0.03,ON,3.49
2026-03-26 17:56:34.595,OFFBOARD,True,2.077,-0.812,6.643,0.0058,-0.0026,-0.0088,0.6954,-0.4046,-3.4865,-0.0578,-0.042,-0.0091,0.071,3.486,32,13.414,0.0,0.0,0.0,0.03,ON,3.49
2026-03-26 17:56:35.613,OFFBOARD,True,1.788,-0.87,6.806,-0.0072,-0.0344,-0.0203,0.7638,-0.4183,-3.4966,-0.065,0.0302,0.0023,0.072,3.497,32,13.412,0.0,0.0,0.0,0.03,ON,3.49
2026-03-26 17:56:36.628,OFFBOARD,True,1.985,-0.938,6.812,-0.012,0.0165,0.0388,0.7449,-0.4194,-3.4912,-0.0586,0.0143,-0.0017,0.06,3.491,32,13.405,0.0,0.0,0.0,0.03,ON,3.49
2026-03-26 17:56:37.630,OFFBOARD,True,2.094,-0.924,6.391,0.0274,-0.0075,-0.0103,0.7544,-0.4396,-3.4908,-0.0555,0.0546,-0.0118,0.078,3.491,32,13.404,0.0,0.0,0.0,0.03,ON,3.49
2026-03-26 17:56:38.633,OFFBOARD,True,1.687,-0.836,6.347,0.0213,-0.0024,0.0,0.7715,-0.4344,-3.4955,-0.0661,0.0678,-0.0027,0.095,3.495,31,13.392,0.0,0.0,0.0,0.03,ON,3.5
2026-03-26 17:56:39.640,OFFBOARD,True,1.139,-1.003,6.021,-0.0187,-0.0023,0.0159,0.7621,-0.3713,-3.4977,-0.0656,0.0261,-0.0075,0.071,3.498,32,13.396,0.0,0.0,0.0,0.03,ON,0.0
2026-03-26 17:56:40.647,OFFBOARD,True,1.514,-1.001,6.585,0.0284,-0.0141,-0.0004,0,0,0,0,0,0,0.0,0,31,13.388,0.0,0.0,0.0,0.03,ON,3.49
2026-03-26 17:56:41.650,PX4_0,False,1.771,-1.038,6.557,0.0121,0.0549,0.013,0.7664,-0.4131,-3.4957,-0.0535,-0.0094,0.0022,0.054,3.496,31,13.388,0.0,0.0,0.0,0.03,ON,3.49
2026-03-26 17:56:42.657,OFFBOARD,True,1.811,-1.363,6.306,0.0458,0.0231,-0.0088,0.7268,-0.4388,-3.4905,-0.0259,0.0045,-0.0054,0.026,3.49,31,13.388,0.0,0.0,0.0,0.03,ON,3.49
2026-03-26 17:56:43.661,OFFBOARD,True,1.778,-1.376,6.278,0.0476,0.0031,-0.0115,0.7268,-0.4388,-3.4905,-0.0259,0.0045,-0.0054,0.026,3.49,31,13.367,0.0,0.0,0.0,0.03,ON,3.49
2026-03-26 17:56:44.664,OFFBOARD,True,1.399,-1.078,6.229,0.0073,0.0008,-0.0059,0.7268,-0.4388,-3.4905,-0.0259,0.0045,-0.0054,0.026,3.49,31,13.367,0.0,0.0,0.0,0.03,ON,3.49
2026-03-26 17:56:45.668,OFFBOARD,True,1.599,-0.756,6.111,-0.0126,-0.0036,-0.0047,0.8036,-0.4453,-3.5046,-0.0128,0.0005,0.003,0.013,3.505,31,13.35,0.0,0.0,0.0,0.03,ON,3.5
2026-03-26 17:56:46.672,OFFBOARD,True,1.863,-0.402,6.471,-0.0162,-0.0268,0.0048,0.8447,-0.4551,-3.5036,-0.066,0.0381,0.0061,0.076,3.504,30,13.345,0.0,0.0,0.0,0.03,ON,3.49
2026-03-26 17:56:47.677,OFFBOARD,True,1.308,-1.429,6.091,0.0294,0.0045,0.001,0.7767,-0.438,-3.4871,-0.0671,0.0277,-0.0052,0.073,3.487,30,13.343,0.0,0.0,0.0,0.03,ON,3.46
2026-03-26 17:56:48.682,OFFBOARD,True,1.458,-0.783,6.009,0.0339,0.0269,-0.0066,0.7928,-0.4376,-3.4845,-0.0123,-0.0098,-0.014,0.016,3.485,31,13.348,0.0,0.0,0.0,0.03,ON,3.49
2026-03-26 17:56:49.686,OFFBOARD,True,1.967,-0.472,5.731,-0.0128,0.0454,0.0269,0.833,-0.4793,-3.5006,-0.0485,0.0026,-0.0047,0.049,3.501,31,13.352,0.0,0.0,0.0,0.03,ON,3.5
2026-03-26 17:56:50.690,OFFBOARD,True,1.627,-0.863,5.676,-0.0391,-0.001,0.0021,0.8013,-0.4645,-3.5012,-0.0829,0.0496,0.0053,0.097,3.501,30,13.338,0.0,0.0,0.0,0.03,ON,3.49
2026-03-26 17:56:51.694,OFFBOARD,True,1.425,-1.167,4.959,0.0562,0.0301,0.0008,0.7596,-0.4424,-3.4954,-0.0353,-0.0345,-0.0056,0.049,3.495,30,13.34,0.0,0.0,0.0,0.03,ON,3.49
2026-03-26 17:56:52.698,OFFBOARD,True,1.873,-0.789,5.31,-0.0202,-0.0417,0.0034,0.7703,-0.4653,-3.4982,-0.0117,-0.0291,-0.0048,0.031,3.498,30,13.34,0.0,0.0,0.0,0.03,ON,3.5
2026-03-26 17:56:53.701,OFFBOARD,True,1.35,-0.721,4.709,0.0313,-0.0085,0.0092,0.786,-0.4346,-3.5034,-0.0305,-0.0164,0.0071,0.035,3.503,30,13.335,0.0,0.0,0.0,0.03,ON,3.51
2026-03-26 17:56:54.705,OFFBOARD,True,1.305,-1.052,5.307,0.0211,0.0092,-0.0016,0.7745,-0.4408,-3.4973,-0.0324,-0.0275,0.0001,0.042,3.497,30,13.333,0.0,0.0,0.0,0.03,ON,3.49
2026-03-26 17:56:55.708,PX4_0,False,1.607,-1.113,5.231,-0.024,0.0129,-0.0028,0.7621,-0.4728,-3.4937,-0.0218,-0.023,-0.0046,0.032,3.494,30,13.317,0.0,0.0,0.0,0.03,ON,3.49
2026-03-26 17:56:56.712,OFFBOARD,True,0.0,0.0,0.0,0,0,0,0.7421,-0.5122,-3.4992,0.0133,0.0202,-0.0022,0.024,3.499,30,13.3,0.0,0.0,0.0,0.03,ON,3.5
2026-03-26 17:56:57.714,OFFBOARD,True,1.175,-1.008,5.3,0.0019,-0.0104,-0.0187,0.7353,-0.487,-3.5022,0.0289,0.0087,0.007,0.03,3.502,29,13.287,0.0,0.0,0.0,0.03,ON,3.5
2026-03-26 17:56:58.720,OFFBOARD,True,1.57,-0.947,4.985,-0.0089,-0.0149,-0.0134,0.7516,-0.5023,-3.4916,0.045,-0.0432,0.0046,0.062,3.492,29,13.288,0.0,0.0,0.0,0.03,ON,3.49
2026-03-26 17:56:59.723,OFFBOARD,True,1.503,-0.919,5.187,-0.0242,0.0061,-0.0046,0.7705,-0.5335,-3.4929,0.0288,0.0149,-0.0064,0.032,3.493,29,13.295,0.0,0.0,0.0,0.03,ON,3.49
2026-03-26 17:57:00.731,OFFBOARD,True,1.43,-1.017,4.911,0.0049,-0.0083,0.0027,0.7648,-0.513,-3.4955,0.025,-0.01,-0.0088,0.027,3.495,29,13.297,0.0,0.0,0.0,0.03,ON,3.49
2026-03-26 17:57:01.735,OFFBOARD,True,1.358,-0.89,4.711,0.0321,0.0265,0.0031,0.7782,-0.5055,-3.4969,0.0298,-0.016,-0.0051,0.034,3.497,29,13.295,0.0,0.0,0.0,0.03,ON,3.49
2026-03-26 17:57:02.739,OFFBOARD,True,1.613,-0.608,4.578,0.0577,-0.0461,-0.0148,0.8146,-0.5337,-3.5075,0.0009,-0.031,-0.0054,0.031,3.507,30,13.303,0.0,0.0,0.0,0.03,ON,3.5
2026-03-26 17:57:03.743,OFFBOARD,True,1.713,-0.875,4.655,-0.0182,-0.0182,0.0079,0.8065,-0.5558,-3.4994,-0.0295,-0.0293,0.004,0.042,3.499,29,13.29,0.0,0.0,0.0,0.03,ON,3.49
2026-03-26 17:57:04.747,OFFBOARD,True,1.685,-0.905,4.706,-0.0423,-0.0395,-0.0259,0.8113,-0.5626,-3.4877,-0.0234,0.005,-0.0065,0.024,3.488,29,13.287,0.0,0.0,0.0,0.03,ON,3.48
2026-03-26 17:57:05.750,OFFBOARD,True,1.549,-0.72,4.467,-0.0097,0.033,0.009,0.8168,-0.5576,-3.4871,-0.0201,0.0017,-0.0061,0.02,3.487,29,13.285,0.0,0.0,0.0,0.03,ON,3.48
2026-03-26 17:57:06.752,OFFBOARD,True,1.15,-0.654,4.602,0.0271,0.0179,-0.0016,0.8294,-0.4999,-3.492,-0.0345,-0.0318,-0.0012,0.047,3.492,29,13.261,0.0,0.0,0.0,0.03,ON,3.48
2026-03-26 17:57:07.755,OFFBOARD,True,1.158,-0.637,4.667,0.0172,0.0075,-0.0131,0.8568,-0.5408,-3.4882,-0.0503,-0.0643,-0.0042,0.082,3.488,29,13.261,0.0,0.0,0.0,0.03,ON,3.48
2026-03-26 17:57:08.758,OFFBOARD,True,1.868,-0.745,5.225,-0.0347,-0.0421,-0.0169,0.8568,-0.5408,-3.4882,-0.0503,-0.0643,-0.0042,0.082,3.488,29,13.261,0.0,0.0,0.0,0.03,ON,3.48
2026-03-26 17:57:09.760,OFFBOARD,True,1.217,-1.123,5.12,-0.0105,-0.0282,-0.0055,0.795,-0.559,-3.4861,-0.0585,0.0231,-0.0157,0.063,3.486,29,13.261,0.0,0.0,0.0,0.03,ON,3.47
2026-03-26 17:57:10.763,PX4_0,False,1.313,-1.056,5.1,-0.0187,0.0112,0.0079,0.7792,-0.5466,-3.4854,-0.0091,-0.0538,-0.0122,0.055,3.485,28,13.244,0.0,0.0,0.0,0.03,ON,3.49
2026-03-26 17:57:11.766,OFFBOARD,True,2.121,-0.619,4.815,0.0011,0.0039,0.0072,0.8158,-0.6012,-3.5004,-0.0114,-0.065,-0.0038,0.066,3.5,29,13.251,0.0,0.0,0.0,0.03,ON,3.51
2026-03-26 17:57:12.768,OFFBOARD,True,1.272,-0.611,5.172,0.0246,0.0361,0.0115,0.8329,-0.5682,-3.5052,-0.0466,-0.0093,0.0111,0.048,3.505,28,13.246,0.0,0.0,0.0,0.03,ON,3.5
2026-03-26 17:57:13.770,PX4_0,False,1.195,-0.62,4.797,0.0033,0.0493,-0.0062,0.8342,-0.5579,-3.5021,-0.0473,-0.0286,0.0124,0.055,3.502,28,13.24,0.0,0.0,0.0,0.03,ON,3.49
2026-03-26 17:57:14.772,PX4_0,False,1.579,-0.45,4.492,0.0254,-0.0018,0.0039,0.8342,-0.5579,-3.5021,-0.0473,-0.0286,0.0124,0.055,3.502,28,13.227,0.0,0.0,0.0,0.03,ON,3.48
2026-03-26 17:57:15.779,PX4_0,False,1.579,-0.45,4.492,0.0254,-0.0018,0.0039,0.8342,-0.5579,-3.5021,-0.0473,-0.0286,0.0124,0.055,3.502,28,13.227,0.0,0.0,0.0,0.03,ON,3.49
2026-03-26 17:57:16.781,OFFBOARD,True,1.671,-0.844,5.036,0.0195,0.0323,-0.0055,0.8334,-0.6536,-3.4959,-0.0792,0.014,-0.0017,0.08,3.496,28,13.217,0.0,0.0,0.0,0.03,ON,3.48
2026-03-26 17:57:17.785,OFFBOARD,True,1.431,-0.85,4.673,0.0203,-0.0072,-0.0116,0.8048,-0.6336,-3.4934,-0.0326,0.0112,-0.0077,0.034,3.493,28,13.219,0.0,0.0,0.0,0.03,ON,3.49
2026-03-26 17:57:18.788,OFFBOARD,True,1.558,-0.462,4.746,-0.0114,-0.0265,-0.0128,0.8366,-0.6393,-3.5022,-0.0173,0.0047,0.0011,0.018,3.502,28,13.209,0.0,0.0,0.0,0.03,ON,3.5
2026-03-26 17:57:19.792,OFFBOARD,True,1.317,-0.391,4.565,0.004,-0.0289,0.0061,0.8665,-0.6154,-3.5065,-0.046,-0.0004,0.001,0.046,3.506,28,13.209,0.0,0.0,0.0,0.03,ON,3.5
2026-03-26 17:57:20.795,OFFBOARD,True,1.083,-0.825,4.404,-0.0304,-0.0203,0.0064,0.8255,-0.6038,-3.5013,-0.0622,-0.0189,0.0094,0.065,3.501,28,13.209,0.0,0.0,0.0,0.03,ON,3.49
2026-03-26 17:57:21.799,OFFBOARD,True,1.469,-0.916,4.756,-0.0437,0.0431,-0.0064,0.7978,-0.6403,-3.4897,-0.0045,-0.0315,-0.0068,0.032,3.49,28,13.204,0.0,0.0,0.0,0.03,ON,3.48
2026-03-26 17:57:22.803,OFFBOARD,True,1.354,-0.895,4.498,-0.0041,0.0541,0.0068,0.8079,-0.65,-3.493,0.0153,-0.0016,-0.0061,0.015,3.493,28,13.201,0.0,0.0,0.0,0.03,ON,3.49
2026-03-26 17:57:23.808,PX4_0,False,1.398,-0.468,4.304,0.0164,0.0035,-0.0268,0.8182,-0.6526,-3.4973,0.0282,-0.0109,-0.0098,0.03,3.497,27,13.198,0.0,0.0,0.0,0.03,ON,3.5
2026-03-26 17:57:24.811,OFFBOARD,True,1.182,-0.549,4.89,0.0293,0.0194,0.0031,0.8567,-0.6343,-3.5027,-0.0321,-0.0236,0.0084,0.04,3.503,27,13.191,0.0,0.0,0.0,0.03,ON,3.5
2026-03-26 17:57:25.813,OFFBOARD,True,1.417,-0.798,4.968,-0.0269,-0.0523,-0.0079,0.8256,-0.6813,-3.4931,-0.0331,-0.027,-0.0073,0.043,3.493,27,13.178,0.0,0.0,0.0,0.03,ON,3.49
2026-03-26 17:57:26.815,OFFBOARD,True,1.202,-1.228,4.185,0.0423,0.0642,0.0043,0.7835,-0.6826,-3.4903,0.0053,-0.0021,-0.0095,0.006,3.49,27,13.174,0.0,0.0,0.0,0.03,ON,3.48
2026-03-26 17:57:27.818,OFFBOARD,True,1.099,-0.795,3.939,0.0462,0.0345,0.0164,0.7972,-0.6758,-3.4942,0.0515,-0.0055,-0.0083,0.052,3.494,27,13.168,0.0,0.0,0.0,0.03,ON,3.5
2026-03-26 17:57:28.820,OFFBOARD,True,1.247,-0.411,4.011,0.0094,-0.026,0.0064,0.8582,-0.6736,-3.5077,0.0395,-0.0372,-0.0032,0.054,3.508,27,13.173,0.0,0.0,0.0,0.03,ON,3.51
2026-03-26 17:57:29.823,OFFBOARD,True,1.358,-0.404,3.885,-0.0101,-0.043,-0.0232,0.9076,-0.7004,-3.5085,-0.0156,-0.0003,0.0087,0.016,3.509,27,13.171,0.0,0.0,0.0,0.03,ON,3.5
2026-03-26 17:57:30.826,OFFBOARD,True,1.544,-0.836,3.875,0.0443,-0.0365,0.0154,0.8981,-0.7288,-3.4976,-0.0388,0.0069,-0.0059,0.039,3.498,27,13.167,0.0,0.0,0.0,0.03,ON,3.49
2026-03-26 17:57:31.829,OFFBOARD,True,1.464,-1.147,4.311,-0.0161,0.0115,-0.0007,0.859,-0.7314,-3.4925,-0.0302,0.0178,0.0008,0.035,3.493,27,13.166,0.0,0.0,0.0,0.03,ON,3.49
2026-03-26 17:57:32.832,OFFBOARD,True,1.264,-1.033,4.294,-0.0163,-0.0408,-0.0134,0.8473,-0.7059,-3.4944,0.0399,0.0005,-0.0037,0.04,3.494,27,13.161,0.0,0.0,0.0,0.03,ON,3.5
2026-03-26 17:57:33.839,OFFBOARD,True,0.842,-0.344,3.869,0.0215,0.0253,-0.0167,0.9034,-0.6726,-3.5033,0.0305,-0.042,-0.0032,0.052,3.503,27,13.155,0.0,0.0,0.0,0.03,ON,3.51
2026-03-26 17:57:34.848,PX4_0,False,1.036,-0.187,3.725,0.0166,-0.0735,0.003,0.956,-0.6844,-3.5115,-0.0282,-0.0838,0.0034,0.088,3.511,26,13.153,0.0,0.0,0.0,0.03,ON,3.5
2026-03-26 17:57:35.856,OFFBOARD,True,0.0,0.0,0.0,0,0,0,0.96,-0.7354,-3.4977,-0.0688,-0.0257,0.0055,0.073,3.498,26,13.145,0.0,0.0,0.0,0.03,ON,3.48
2026-03-26 17:57:36.859,OFFBOARD,True,1.259,-0.455,4.664,0.0182,0.0094,-0.0193,0.9398,-0.719,-3.4872,-0.0729,-0.0236,-0.004,0.077,3.487,26,13.141,0.0,0.0,0.0,0.03,ON,3.47
2026-03-26 17:57:37.862,OFFBOARD,True,1.259,-0.455,4.664,0.0182,0.0094,-0.0193,0.9398,-0.719,-3.4872,-0.0729,-0.0236,-0.004,0.077,3.487,26,13.141,0.0,0.0,0.0,0.03,ON,3.47
2026-03-26 17:57:38.902,OFFBOARD,True,1.677,-1.016,3.922,0.0254,0.0151,0.0238,0.8873,-0.7908,-3.4865,0.0275,-0.0474,-0.0121,0.055,3.486,26,13.133,0.0,0.0,0.0,0.03,ON,3.49
2026-03-26 17:59:03.843,OFFBOARD,True,1.677,-1.016,3.922,0.0254,0.0151,0.0238,0.8873,-0.7908,-3.4865,0.0275,-0.0474,-0.0121,0.055,3.486,26,13.133,0.0,0.0,0.0,0.03,ON,3.49
2026-03-26 17:59:04.889,PX4_0,False,0.0,0.0,0.0,0,0,0,0.8873,-0.7908,-3.4865,0.0275,-0.0474,-0.0121,0.055,3.486,18,12.76,0.0,0.0,0.0,0.03,ON,3.49
2026-03-26 17:59:05.898,PX4_0,False,1.668,-0.473,3.596,0.0002,-0.0061,0.0152,1.0903,-1.4131,-3.4961,0.0219,-0.0145,0.0001,0.026,3.496,18,12.754,0.0,0.0,0.0,0.03,ON,3.49
2026-03-26 17:59:06.905,PX4_0,False,1.369,-0.588,3.793,-0.0262,-0.0469,-0.0145,1.0825,-1.4067,-3.4933,0.0351,-0.0032,-0.0027,0.035,3.493,18,12.747,0.0,0.0,0.0,0.03,ON,3.49
2026-03-26 17:59:07.944,PX4_0,False,1.346,-0.66,3.687,-0.0327,-0.0218,-0.0034,1.0814,-1.4071,-3.4941,0.0396,-0.0021,-0.01,0.04,3.494,18,12.741,0.0,0.0,0.0,0.03,ON,3.48
2026-03-26 17:59:08.951,PX4_0,False,1.273,-0.423,3.59,0.0048,0.0098,0.0197,1.0933,-1.4023,-3.494,0.0369,-0.0084,-0.0039,0.038,3.494,0,0.0,0.0,0.0,0.0,0.03,ON,3.49
2026-03-26 17:59:09.973,OFFBOARD,True,1.396,-0.453,3.935,-0.0207,-0.0222,-0.0025,1.1274,-1.4213,-3.4979,0.0252,-0.0277,0.0027,0.037,3.498,18,12.722,0.0,0.0,0.0,0.03,ON,3.5
2026-03-26 17:59:11.016,PX4_0,False,1.427,-0.303,4.052,-0.0006,-0.0303,-0.014,1.147,-1.4299,-3.4996,0.016,-0.0261,-0.0012,0.031,3.5,18,12.721,0.0,0.0,0.0,0.03,ON,3.49
2026-03-26 17:59:12.019,PX4_0,False,1.541,-0.467,3.946,0.0298,0.0461,-0.0009,1.1294,-1.4433,-3.5001,0.001,-0.0376,-0.0065,0.038,3.5,18,12.721,0.0,0.0,0.0,0.03,ON,3.49
2026-03-26 17:59:13.316,OFFBOARD,True,1.267,-0.656,3.775,-0.0339,0.0277,-0.0108,0,0,0,0,0,0,0.0,0,18,12.725,0.0,0.0,0.0,0.03,ON,3.49
2026-03-26 17:59:14.362,PX4_0,False,1.264,-0.199,3.136,-0.0213,0.0212,0.0173,1.1588,-1.4511,-3.5041,0.015,-0.0322,-0.0014,0.036,3.504,18,12.72,0.0,0.0,0.0,0.03,ON,3.5
2026-03-26 17:59:15.432,OFFBOARD,True,0.871,-0.406,3.564,0.0342,-0.0189,-0.0096,1.1614,-1.4322,-3.4968,-0.0024,-0.0448,0.0077,0.045,3.497,17,12.703,0.0,0.0,0.0,0.03,ON,3.49
2026-03-26 17:59:16.444,PX4_0,False,1.278,-0.367,3.721,0.0084,0.0315,0.014,1.1918,-1.5047,-3.4935,-0.0104,-0.0557,-0.0075,0.057,3.494,17,12.702,0.0,0.0,0.0,0.03,ON,3.49
2026-03-26 17:59:17.461,OFFBOARD,True,2.404,-0.091,3.775,-0.0479,0.0184,-0.0036,0,0,0,0,0,0,0.0,0,17,12.701,0.0,0.0,0.0,0.03,ON,3.49
2026-03-26 17:59:18.466,PX4_0,False,1.406,-0.15,3.74,-0.0421,-0.059,0.0044,1.2054,-1.5701,-3.491,-0.067,0.1113,-0.0041,0.13,3.491,17,12.692,0.0,0.0,0.0,0.03,ON,3.49
2026-03-26 17:59:19.475,PX4_0,False,1.158,-0.318,4.228,-0.012,0.0106,0.0034,1.1723,-1.51,-3.4952,-0.0604,0.0397,-0.0081,0.072,3.495,17,12.687,0.0,0.0,0.0,0.03,ON,3.48
2026-03-26 17:59:20.477,OFFBOARD,True,1.621,-0.623,4.082,-0.0176,-0.0605,-0.0385,1.1472,-1.5242,-3.4912,-0.0204,-0.0628,-0.0105,0.066,3.491,17,12.679,0.0,0.0,0.0,0.03,ON,3.48
2026-03-26 17:59:21.480,OFFBOARD,True,1.918,-0.407,3.982,-0.0121,-0.0056,-0.02,1.1411,-1.5685,-3.4939,-0.0063,0.0041,-0.0073,0.008,3.494,17,12.671,0.0,0.0,0.0,0.03,ON,3.5
2026-03-26 17:59:22.482,OFFBOARD,True,0.878,-0.512,3.317,-0.0202,-0.0098,-0.0059,1.1505,-1.528,-3.499,-0.0103,0.0211,0.0022,0.023,3.499,16,12.659,0.0,0.0,0.0,0.03,ON,3.49
2026-03-26 17:59:23.484,OFFBOARD,True,1.076,-0.381,2.987,0.0056,0.0155,0.0007,1.1617,-1.5184,-3.4982,-0.0085,-0.0431,0.0015,0.044,3.498,16,12.655,0.0,0.0,0.0,0.03,ON,3.5
2026-03-26 17:59:24.489,OFFBOARD,True,1.976,-0.335,3.341,0.0157,-0.0095,0.0313,0,0,0,0,0,0,0.0,0,16,12.649,0.0,0.0,0.0,0.03,ON,3.49
2026-03-26 17:59:25.511,OFFBOARD,True,2.138,-0.449,4.447,-0.0363,0.0592,0.0263,1.1792,-1.6695,-3.4914,-0.0204,0.1178,-0.0007,0.12,3.491,0,0.0,0.0,0.0,0.0,0.03,ON,3.49
2026-03-26 17:59:26.514,OFFBOARD,True,1.112,-0.207,3.952,-0.0503,-0.0203,-0.032,1.195,-1.5739,-3.4961,-0.0307,0.101,-0.003,0.106,3.496,0,0.0,0.0,0.0,0.0,0.03,ON,3.49
2026-03-26 17:59:27.516,OFFBOARD,True,0.767,-0.1,3.749,0.0041,-0.0105,-0.0019,1.2023,-1.5159,-3.4963,-0.0559,-0.0141,-0.0022,0.058,3.496,16,12.647,0.0,0.0,0.0,0.03,ON,3.49
2026-03-26 17:59:28.518,OFFBOARD,True,1.701,-0.221,3.742,0.0183,-0.032,-0.0006,1.2081,-1.5707,-3.4941,-0.063,-0.0825,-0.0053,0.104,3.494,16,12.64,0.0,0.0,0.0,0.03,ON,3.49
2026-03-26 17:59:29.525,OFFBOARD,True,2.098,-0.137,4.456,-0.02,0.0448,0.0081,1.2193,-1.643,-3.494,-0.0644,-0.0071,-0.0002,0.065,3.494,16,12.632,0.0,0.0,0.0,0.03,ON,3.49
2026-03-26 17:59:30.532,OFFBOARD,True,0.965,-0.267,3.576,-0.0093,0.038,-0.0152,1.2024,-1.5793,-3.4914,-0.0681,0.0317,-0.0018,0.075,3.491,16,12.632,0.0,0.0,0.0,0.03,ON,3.48
2026-03-26 17:59:31.555,OFFBOARD,True,1.045,-0.209,4.306,-0.014,-0.0371,-0.0089,1.1777,-1.5503,-3.4924,-0.0564,-0.0422,-0.0112,0.07,3.492,15,12.615,0.0,0.0,0.0,0.03,ON,3.48
2026-03-26 17:59:32.565,OFFBOARD,True,1.458,-0.179,4.137,-0.0198,0.0035,-0.0039,1.1722,-1.597,-3.4942,-0.0445,-0.0745,-0.011,0.087,3.494,16,12.622,0.0,0.0,0.0,0.03,ON,3.49
2026-03-26 17:59:33.575,OFFBOARD,True,2.048,-0.545,3.671,0.0104,0.0172,0.0135,1.1548,-1.6677,-3.4931,-0.0363,-0.0505,-0.0081,0.062,3.493,16,12.62,0.0,0.0,0.0,0.03,ON,3.49
2026-03-26 17:59:34.586,OFFBOARD,True,1.449,-0.511,3.53,-0.0199,0.0543,0.0022,1.1333,-1.6636,-3.4933,-0.0093,0.0253,-0.008,0.027,3.493,15,12.613,0.0,0.0,0.0,0.03,ON,3.49
2026-03-26 17:59:35.594,OFFBOARD,True,0.481,-0.271,3.834,-0.0012,-0.0096,0.0154,1.1371,-1.6136,-3.4939,-0.002,0.0404,-0.0116,0.04,3.494,15,12.61,0.0,0.0,0.0,0.03,ON,3.49
2026-03-26 17:59:36.600,OFFBOARD,True,1.879,-0.168,4.264,0.0423,-0.001,-0.011,1.1586,-1.6993,-3.4994,-0.0055,-0.0835,0.0051,0.084,3.499,15,12.604,0.0,0.0,0.0,0.03,ON,3.49
2026-03-26 17:59:37.611,OFFBOARD,True,2.246,-0.37,4.228,-0.0167,-0.0311,-0.0221,1.1651,-1.7465,-3.4953,-0.0131,-0.0149,0.0007,0.02,3.495,15,12.589,0.0,0.0,0.0,0.03,ON,3.49
2026-03-26 17:59:38.613,PX4_0,False,1.552,-0.489,4.456,-0.0336,0.0112,-0.006,1.1651,-1.7465,-3.4953,-0.0131,-0.0149,0.0007,0.02,3.495,15,12.589,0.0,0.0,0.0,0.03,ON,3.48
2026-03-26 17:59:39.616,PX4_0,False,1.115,-0.67,4.162,-0.0505,-0.0126,0.0022,1.1254,-1.6661,-3.4926,0.0283,0.0112,-0.0093,0.03,3.493,15,12.578,0.0,0.0,0.0,0.03,ON,3.48
2026-03-26 17:59:40.624,PX4_0,False,1.347,-0.439,3.565,-0.0206,0.0448,0.0068,1.1478,-1.6794,-3.4951,0.024,0.0108,0.0002,0.026,3.495,15,12.583,0.0,0.0,0.0,0.03,ON,3.49
2026-03-26 17:59:41.629,OFFBOARD,True,1.219,-0.643,4.003,0.0108,0.0098,0.0085,1.1428,-1.6739,-3.4958,0.0211,-0.0089,0.0026,0.023,3.496,15,12.574,0.0,0.0,0.0,0.03,ON,3.49
2026-03-26 17:59:42.633,PX4_0,False,1.592,-0.358,3.522,0.008,0.0061,-0.0164,1.1589,-1.7041,-3.4895,0.0199,-0.0122,-0.0032,0.023,3.49,14,12.561,0.0,0.0,0.0,0.03,ON,3.49
2026-03-26 17:59:43.637,PX4_0,False,1.442,-0.437,3.798,0.0411,-0.0573,-0.0136,1.1788,-1.7226,-3.4953,0.0212,0.0011,-0.0009,0.021,3.495,14,12.556,0.0,0.0,0.0,0.03,ON,3.49
2026-03-26 17:59:44.643,PX4_0,False,1.62,-0.467,4.206,-0.0039,0.0057,-0.0241,1.1842,-1.7333,-3.4944,0.0132,0.0147,-0.0021,0.02,3.494,0,0.0,0.0,0.0,0.0,0.03,ON,3.48
2026-03-26 17:59:45.646,PX4_0,False,1.586,-0.528,3.422,-0.0074,-0.03,-0.0179,1.178,-1.7109,-3.4941,0.019,-0.0029,-0.0064,0.019,3.494,14,12.55,0.0,0.0,0.0,0.03,ON,3.49
2026-03-26 17:59:46.651,PX4_0,False,1.259,-0.939,3.896,0.0316,-0.0194,0.0199,1.1314,-1.6958,-3.4926,0.0463,-0.0227,-0.0064,0.052,3.493,14,12.545,0.0,0.0,0.0,0.03,ON,3.48
2026-03-26 17:59:47.658,PX4_0,False,1.791,-0.565,4.058,0.011,-0.0131,-0.0038,1.1505,-1.7166,-3.4943,0.0791,-0.049,-0.0077,0.093,3.494,14,12.549,0.0,0.0,0.0,0.03,ON,3.49
2026-03-26 17:59:48.665,PX4_0,False,1.408,-0.435,3.18,-0.0376,0.0006,-0.025,1.1765,-1.7103,-3.4984,0.0557,-0.0289,0.0007,0.063,3.498,14,12.55,0.0,0.0,0.0,0.03,ON,3.5
2026-03-26 17:59:49.667,PX4_0,False,1.042,-0.597,3.691,-0.0348,-0.0049,0.0249,1.1864,-1.693,-3.4941,0.0417,-0.0503,0.0031,0.065,3.494,14,12.542,0.0,0.0,0.0,0.03,ON,3.49
2026-03-26 17:59:50.671,PX4_0,False,1.406,-0.129,4.078,-0.0167,-0.0078,-0.0113,1.2261,-1.7297,-3.4891,0.0477,-0.0821,-0.0038,0.095,3.489,14,12.537,0.0,0.0,0.0,0.03,ON,3.5
2026-03-26 17:59:51.675,PX4_0,False,1.643,-0.181,3.948,-0.0349,-0.0205,-0.0025,1.2723,-1.7642,-3.4981,-0.0123,-0.057,0.0064,0.058,3.498,14,12.54,0.0,0.0,0.0,0.03,ON,3.49
2026-03-26 17:59:52.682,PX4_0,False,1.513,-0.398,3.682,0.0092,0.0075,0.016,1.2616,-1.7881,-3.4942,-0.0314,-0.0194,-0.001,0.037,3.494,13,12.518,0.0,0.0,0.0,0.03,ON,3.49
2026-03-26 17:59:53.684,OFFBOARD,True,2.084,-0.409,3.279,0.0091,-0.0283,-0.0171,1.2584,-1.8181,-3.4911,-0.0243,-0.016,-0.0051,0.029,3.491,13,12.517,0.0,0.0,0.0,0.03,ON,3.48
2026-03-26 17:59:54.690,PX4_0,False,1.691,-0.273,3.974,-0.0294,-0.0254,-0.0013,1.2791,-1.8464,-3.4965,-0.0307,0.0402,-0.0006,0.051,3.497,13,12.501,0.0,0.0,0.0,0.03,ON,3.49
2026-03-26 17:59:55.693,PX4_0,False,1.148,-0.168,3.76,0.0517,0.0051,-0.0116,1.2828,-1.7855,-3.5022,-0.0429,-0.0042,-0.0007,0.043,3.502,13,12.508,0.0,0.0,0.0,0.03,ON,3.5
2026-03-26 17:59:56.696,PX4_0,False,1.58,-0.3,3.648,0.0043,0.0449,0.0087,1.2861,-1.7999,-3.4966,-0.0437,-0.03,0.0099,0.053,3.497,13,12.503,0.0,0.0,0.0,0.03,ON,3.49
2026-03-26 17:59:57.700,PX4_0,False,1.495,-0.444,3.477,-0.0046,-0.0332,-0.0145,1.2646,-1.827,-3.4898,-0.0476,-0.0009,-0.007,0.048,3.49,13,12.505,0.0,0.0,0.0,0.03,ON,3.48
2026-03-26 17:59:58.702,PX4_0,False,1.384,-0.902,3.761,-0.0019,-0.0089,0.0104,1.2191,-1.8391,-3.4905,-0.0119,-0.014,-0.0063,0.018,3.49,13,12.499,0.0,0.0,0.0,0.03,ON,3.49
2026-03-26 17:59:59.708,PX4_0,False,1.333,-0.609,4.335,0.011,0.0165,0.0173,1.2179,-1.8302,-3.5006,0.0373,-0.021,-0.0047,0.043,3.501,13,12.488,0.0,0.0,0.0,0.03,ON,3.5
2026-03-26 18:00:00.712,PX4_0,False,1.423,-0.398,4.357,0.0215,0.0681,0.022,1.2569,-1.8459,-3.4996,0.0211,-0.024,0.006,0.032,3.5,13,12.487,0.0,0.0,0.0,0.03,ON,3.5
2026-03-26 18:00:01.723,PX4_0,False,1.566,-0.447,4.38,0.0453,0.0423,-0.0136,1.2631,-1.8769,-3.4957,-0.001,-0.013,-0.0048,0.013,3.496,13,12.481,0.0,0.0,0.0,0.03,ON,3.49
2026-03-26 18:00:02.729,PX4_0,False,1.867,-0.544,3.478,-0.028,-0.0434,0.0103,1.263,-1.9319,-3.4926,-0.0033,0.0502,-0.0051,0.05,3.493,13,12.477,0.0,0.0,0.0,0.03,ON,3.49
2026-03-26 18:00:03.733,PX4_0,False,1.385,-0.903,3.854,-0.0223,-0.0284,-0.0181,1.2359,-1.889,-3.4911,0.0244,0.0743,-0.0043,0.078,3.491,12,12.472,0.0,0.0,0.0,0.03,ON,3.48
2026-03-26 18:00:04.742,PX4_0,False,0.478,-0.586,3.814,0.0438,-0.0497,-0.03,1.233,-1.7994,-3.4922,0.052,0.0105,-0.0068,0.053,3.492,12,12.465,0.0,0.0,0.0,0.03,ON,3.49
2026-03-26 18:00:05.746,PX4_0,False,1.203,-0.544,3.247,0.0045,-0.0128,-0.0073,1.2451,-1.8169,-3.4997,0.0506,-0.0751,0.0002,0.091,3.5,12,12.453,0.0,0.0,0.0,0.03,ON,3.5
2026-03-26 18:00:06.751,PX4_0,False,0.0,0.0,0.0,0,0,0,1.2549,-1.9066,-3.4963,0.0401,-0.0364,0.0033,0.054,3.496,12,12.449,0.0,0.0,0.0,0.03,ON,3.5
2026-03-26 18:00:07.755,PX4_0,False,1.476,-0.703,3.824,0.0482,0.0347,-0.0001,1.2509,-1.9166,-3.4994,0.0496,0.0158,-0.003,0.052,3.499,12,12.44,0.0,0.0,0.0,0.03,ON,3.49
2026-03-26 18:00:08.761,PX4_0,False,1.366,-0.589,3.37,0.0238,0.0091,0.016,1.2444,-1.8797,-3.5006,0.0666,0.0012,0.0001,0.067,3.501,12,12.435,0.0,0.0,0.0,0.03,ON,3.49
2026-03-26 18:00:09.764,OFFBOARD,True,1.148,-0.264,3.944,-0.0149,0.0381,0.0054,1.2609,-1.8763,-3.4995,0.0708,-0.0084,-0.0021,0.071,3.499,12,12.443,0.0,0.0,0.0,0.03,ON,3.5
2026-03-26 18:00:10.767,PX4_0,False,1.203,-0.297,2.977,0.0093,0.0398,-0.0089,1.2782,-1.8717,-3.502,0.0483,-0.0151,-0.0031,0.051,3.502,12,12.432,0.0,0.0,0.0,0.03,ON,3.49
2026-03-26 18:00:11.770,PX4_0,False,0.949,-0.158,2.754,-0.0214,0.009,-0.012,1.3058,-1.8801,-3.5008,0.0113,-0.0089,0.0026,0.014,3.501,12,12.427,0.0,0.0,0.0,0.03,ON,3.49
2026-03-26 18:00:12.773,PX4_0,False,1.746,-0.681,3.269,-0.0115,-0.0172,-0.0054,1.2956,-1.9355,-3.4949,0.0034,-0.0385,-0.0003,0.039,3.495,12,12.425,0.0,0.0,0.0,0.03,ON,3.48
2026-03-26 18:00:13.779,PX4_0,False,1.763,-0.212,3.509,-0.0368,0.0127,0.0284,1.3449,-1.9849,-3.4882,0.0014,0.0452,-0.0025,0.045,3.488,11,12.416,0.0,0.0,0.0,0.03,ON,3.5
2026-03-26 18:00:14.787,PX4_0,False,0.858,0.068,4.897,0.0201,0.014,-0.0066,1.3837,-1.9094,-3.4972,-0.0384,0.0516,0.0038,0.064,3.497,11,12.411,0.0,0.0,0.0,0.03,ON,3.5
2026-03-26 18:00:15.809,PX4_0,False,1.341,-0.011,3.539,0.0028,0.0142,0.0081,0,0,0,0,0,0,0.0,0,11,12.405,0.0,0.0,0.0,0.03,ON,3.49
2026-03-26 18:00:16.814,PX4_0,False,1.612,-0.133,4.273,0.0133,-0.0269,-0.005,1.3684,-1.9667,-3.4992,-0.0774,0.004,-0.0158,0.078,3.499,11,12.402,0.0,0.0,0.0,0.03,ON,3.49
2026-03-26 18:00:17.818,PX4_0,False,0.876,-0.551,3.884,-0.0017,0.0285,0.0265,1.3442,-1.9481,-3.5,-0.0673,0.0268,-0.0012,0.072,3.5,11,12.389,0.0,0.0,0.0,0.03,ON,3.5
2026-03-26 18:00:18.820,PX4_0,False,0.805,-0.346,3.204,-0.0294,-0.0241,-0.0048,1.3422,-1.9227,-3.5034,-0.0434,-0.0063,-0.0039,0.044,3.503,11,12.382,0.0,0.0,0.0,0.03,ON,3.51
2026-03-26 18:00:19.827,PX4_0,False,1.475,0.11,3.727,-0.005,0.0442,0.0189,1.3986,-1.9928,-3.5028,-0.0653,-0.0199,0.0043,0.068,3.503,11,12.381,0.0,0.0,0.0,0.03,ON,3.51
2026-03-26 18:00:20.830,PX4_0,False,1.697,0.113,5.455,-0.0027,-0.0222,-0.0377,1.4167,-2.014,-3.5024,-0.1084,0.0293,0.0076,0.112,3.502,11,12.383,0.0,0.0,0.0,0.03,ON,3.5
2026-03-26 18:00:21.832,PX4_0,False,1.647,-0.332,4.192,-0.0079,0.02,0.0233,1.3729,-2.015,-3.4966,-0.1011,0.0031,0.0031,0.101,3.497,11,12.383,0.0,0.0,0.0,0.03,ON,3.48
2026-03-26 18:00:22.834,PX4_0,False,1.857,0.094,4.068,-0.0169,-0.0517,-0.015,1.3686,-2.0193,-3.4933,-0.0582,0.0024,-0.0169,0.058,3.493,11,12.377,0.0,0.0,0.0,0.03,ON,3.49
2026-03-26 18:00:23.837,PX4_0,False,1.971,-0.334,3.958,-0.0137,0.0007,0.0051,1.3385,-2.0063,-3.4994,-0.0588,-0.0078,0.001,0.059,3.499,10,12.364,0.0,0.0,0.0,0.03,ON,3.49
2026-03-26 18:00:24.840,PX4_0,False,1.168,-0.709,4.166,-0.0094,-0.0247,-0.0033,1.2911,-1.9349,-3.4916,-0.0153,-0.0303,-0.0037,0.034,3.492,10,12.365,0.0,0.0,0.0,0.03,ON,3.48
2026-03-26 18:00:25.845,PX4_0,False,1.31,-0.664,3.914,0.0382,0.0202,0.0061,1.2878,-1.9484,-3.4906,0.0377,-0.0989,-0.0133,0.106,3.491,10,12.361,0.0,0.0,0.0,0.03,ON,3.49
2026-03-26 18:00:26.848,PX4_0,False,1.789,-0.444,3.742,-0.0355,0.023,-0.001,1.3352,-2.0096,-3.4946,0.0407,-0.0391,0.0022,0.056,3.495,10,12.361,0.0,0.0,0.0,0.03,ON,3.49
2026-03-26 18:00:27.851,PX4_0,False,2.245,-0.551,3.543,0.0192,-0.0153,0.0087,1.3391,-2.0826,-3.4938,0.0187,-0.0091,-0.004,0.021,3.494,10,12.346,0.0,0.0,0.0,0.03,ON,3.49
2026-03-26 18:00:28.855,PX4_0,False,1.538,-0.582,3.608,-0.0429,0.0191,-0.0019,1.3582,-2.0487,-3.4933,0.0155,0.0619,-0.0053,0.064,3.493,10,12.351,0.0,0.0,0.0,0.03,ON,3.49
2026-03-26 18:00:29.859,PX4_0,False,1.08,-0.519,4.006,0.0101,0.0379,0.0086,1.3731,-2.0223,-3.492,0.0218,0.023,-0.0056,0.032,3.492,10,12.347,0.0,0.0,0.0,0.03,ON,3.49
2026-03-26 18:00:30.861,PX4_0,False,1.832,-0.372,4.326,0.0242,-0.0068,-0.0151,1.3974,-2.0826,-3.4935,0.018,-0.0088,-0.007,0.02,3.494,10,12.341,0.0,0.0,0.0,0.03,ON,3.49
2026-03-26 18:00:31.863,PX4_0,False,2.106,-0.292,3.557,0.0014,-0.0491,0.0137,1.4222,-2.1261,-3.4967,-0.0021,0.0416,-0.0076,0.042,3.497,10,12.333,0.0,0.0,0.0,0.03,ON,3.5
2026-03-26 18:00:32.866,PX4_0,False,1.26,-0.678,4.125,-0.0157,-0.0304,-0.0114,1.3919,-2.092,-3.4948,-0.0135,0.0839,-0.0041,0.085,3.495,9,12.328,0.0,0.0,0.0,0.03,ON,3.49
2026-03-26 18:00:33.869,PX4_0,False,1.305,-0.961,3.95,-0.0103,-0.0044,-0.0005,1.3525,-2.0688,-3.4946,0.029,0.0124,-0.0093,0.032,3.495,10,12.33,0.0,0.0,0.0,0.03,ON,3.48
2026-03-26 18:00:34.872,PX4_0,False,1.779,-0.513,3.023,0.001,-0.0081,-0.0291,1.3767,-2.1002,-3.4954,0.0684,0.0025,-0.0035,0.068,3.495,9,12.323,0.0,0.0,0.0,0.03,ON,3.5
2026-03-26 18:00:35.879,PX4_0,False,1.982,-0.359,3.233,-0.014,-0.0161,-0.0153,1.408,-2.1084,-3.4963,0.0504,0.004,0.0035,0.051,3.496,9,12.319,0.0,0.0,0.0,0.03,ON,3.5
2026-03-26 18:00:36.882,PX4_0,False,1.258,-0.702,3.7,-0.0201,-0.0287,0.0006,1.4046,-2.0826,-3.4914,0.0273,0.0364,0.0027,0.045,3.491,9,12.31,0.0,0.0,0.0,0.03,ON,3.48
2026-03-26 18:00:37.887,PX4_0,False,1.499,-0.829,3.964,-0.0186,0.005,-0.0248,1.3876,-2.0626,-3.4857,0.0501,-0.0367,-0.0081,0.062,3.486,9,12.304,0.0,0.0,0.0,0.03,ON,3.47
2026-03-26 18:00:38.889,PX4_0,False,2.101,-0.835,3.827,0.0222,0.04,0.0121,1.3904,-2.1233,-3.4867,0.0856,-0.0403,-0.0079,0.095,3.487,9,12.298,0.0,0.0,0.0,0.03,ON,3.49
2026-03-26 18:00:39.891,PX4_0,False,1.653,-0.581,3.611,0.0092,-0.0265,-0.0223,1.4161,-2.1081,-3.494,0.086,0.0049,-0.0049,0.086,3.494,9,12.29,0.0,0.0,0.0,0.03,ON,3.5
2026-03-26 18:00:40.894,PX4_0,False,0.811,-0.367,3.291,-0.0165,0.022,-0.0108,1.451,-2.0428,-3.4987,0.0663,-0.0218,0.0031,0.07,3.499,9,12.286,0.0,0.0,0.0,0.03,ON,3.49
2026-03-26 18:00:41.905,PX4_0,False,1.817,-0.271,3.197,0.0136,-0.0462,0.0127,1.4918,-2.1039,-3.4922,0.0236,-0.0911,0.0027,0.094,3.492,9,12.29,0.0,0.0,0.0,0.03,ON,3.48
2026-03-26 18:00:42.909,PX4_0,False,1.772,-0.27,3.426,-0.0058,-0.0015,0.0089,1.5104,-2.1488,-3.4874,-0.0048,-0.0268,-0.0043,0.027,3.487,9,12.278,0.0,0.0,0.0,0.03,ON,3.48
2026-03-26 18:00:43.911,OFFBOARD,True,1.772,-0.27,3.426,-0.0058,-0.0015,0.0089,1.5086,-2.1537,-3.4849,-0.0174,0.008,-0.0133,0.019,3.485,8,12.269,0.0,0.0,0.0,0.03,ON,3.48
2026-03-26 18:00:44.913,OFFBOARD,True,1.772,-0.27,3.426,-0.0058,-0.0015,0.0089,1.5086,-2.1537,-3.4849,-0.0174,0.008,-0.0133,0.019,3.485,8,12.262,0.0,0.0,0.0,0.03,ON,3.5
2026-03-26 18:00:45.917,PX4_0,False,1.31,-0.144,3.097,0.0099,-0.0292,-0.0049,1.5475,-2.1268,-3.4947,-0.0248,-0.0028,-0.0009,0.025,3.495,8,12.258,0.0,0.0,0.0,0.03,ON,3.49
