timestamp,mode,armed,roll_deg,pitch_deg,yaw_deg,rollspeed,pitchspeed,yawspeed,x,y,z,vx,vy,vz,speed_h,altitude_agl,battery_pct,battery_v,current_a0,current_a1,voltage_s1,voltage_s2,relay,distance_m
2026-03-23 15:07:54.176,POSCTL,True,0.538,-2.099,335.933,0.0057,0.0032,0.0045,-0.0109,-0.0222,-0.0293,0.0001,-0.0007,0.001,0.001,0.029,65,15.138,0.0,0.12,0.0,0.0,ON,0.0
2026-03-23 15:07:55.179,POSCTL,True,0.531,-2.095,335.997,0.0053,-0.0049,0.0106,-0.0107,-0.0225,-0.0295,0.002,0.0029,0.0003,0.004,0.029,65,15.138,0.0,0.12,0.0,0.0,ON,0.0
2026-03-23 15:07:56.181,PX4_0,False,0.536,-2.087,335.916,0.0066,-0.0188,-0.0207,-0.0113,-0.0224,-0.0298,-0.0038,-0.0022,0.0006,0.004,0.03,65,15.131,0.0,0.12,0.0,0.0,ON,0.0
2026-03-23 15:07:57.188,PX4_0,False,0.528,-2.082,336.084,0.0189,0.0296,0.0147,-0.011,-0.0225,-0.0302,-0.0034,-0.0025,-0.0002,0.004,0.03,65,15.142,0.0,0.12,0.0,0.0,ON,0.0
2026-03-23 15:07:58.192,PX4_0,False,-0.529,-1.293,331.327,0.0032,-0.0973,-0.1238,-0.028,0.0084,-0.3121,-0.0878,0.1045,-1.2772,0.136,0.312,55,14.532,0.0,0.12,0.0,0.0,ON,0.28
2026-03-23 15:07:59.199,AUTO.SUB_0,True,-0.268,-1.303,326.756,-0.0214,0.0045,-0.0514,-0.0709,0.0525,-1.0222,-0.019,0.0404,-0.3725,0.045,1.022,50,14.303,0.0,0.12,0.0,0.0,ON,1.01
2026-03-23 15:08:00.212,PX4_0,False,0.0,0.0,0.0,0,0,0,-0.0752,0.1215,-1.3271,0.0177,0.021,-0.2173,0.027,1.327,47,14.151,0.0,0.12,0.0,0.0,ON,1.31
2026-03-23 15:08:01.218,PX4_0,False,-0.867,-1.806,323.574,-0.0857,-0.0173,-0.0023,-0.0667,0.1396,-1.4736,0.0096,-0.0423,-0.127,0.043,1.474,45,14.058,0.0,0.12,0.0,0.0,ON,1.47
2026-03-23 15:08:02.233,PX4_0,False,0.209,-1.438,328.103,0.0174,0.0162,0.0422,-0.0681,0.0793,-1.5678,-0.0163,-0.1002,-0.0676,0.102,1.568,44,14.008,0.0,0.12,0.0,0.0,ON,1.57
2026-03-23 15:08:03.250,PX4_0,False,0.733,-1.501,328.629,-0.0103,-0.0394,-0.0118,-0.0942,-0.0265,-1.6186,0.0125,-0.0496,-0.0358,0.051,1.619,43,13.974,0.0,0.12,0.0,0.0,ON,1.6
2026-03-23 15:08:04.254,PX4_0,False,-0.689,-1.556,328.234,-0.0505,-0.0554,-0.0323,-0.0528,0.0311,-1.6496,0.0374,0.0499,-0.0346,0.062,1.65,43,13.947,0.0,0.12,0.0,0.0,ON,1.65
2026-03-23 15:08:05.257,PX4_0,False,-0.842,-1.632,329.055,0.0296,-0.0855,0.1064,-0.031,0.076,-1.6654,0.031,0.0154,0.0107,0.035,1.665,42,13.925,0.0,0.12,0.0,0.0,ON,1.66
2026-03-23 15:08:06.262,PX4_0,False,-0.993,-1.326,334.135,0.0135,0.0529,0.0453,0.0235,0.0689,-1.5994,0.0443,-0.0444,0.0363,0.063,1.599,42,13.892,0.0,0.12,0.0,0.0,ON,1.59
2026-03-23 15:08:07.265,PX4_0,False,0.37,-1.025,336.079,0.0115,-0.0358,-0.0157,0.0324,-0.0743,-1.5779,-0.0389,-0.0231,0.0006,0.045,1.578,41,13.861,0.0,0.12,0.0,0.0,ON,1.57
2026-03-23 15:08:08.270,PX4_0,False,-0.255,-1.747,336.81,0.0093,-0.0572,-0.0119,0.014,-0.0559,-2.5232,-0.0408,0.0722,-1.3021,0.083,2.523,39,13.738,0.0,0.12,0.0,0.0,ON,2.52
2026-03-23 15:08:09.273,OFFBOARD,True,0.102,-1.971,337.648,0.0082,0.0188,-0.0143,-0.06,0.002,-3.3059,-0.0174,0.064,-0.2483,0.066,3.306,40,13.827,0.0,0.12,0.0,0.0,ON,3.31
2026-03-23 15:08:10.276,OFFBOARD,True,-0.673,-2.459,339.264,0.0003,-0.0023,-0.0088,-0.019,0.0678,-3.4419,0.0938,-0.0185,-0.0572,0.096,3.442,40,13.807,0.0,0.12,0.0,0.0,ON,3.44
2026-03-23 15:08:11.280,PX4_0,False,-0.676,-0.652,340.933,-0.0027,-0.0156,0.0102,0.1665,0.0226,-3.4794,0.0395,-0.094,-0.0279,0.102,3.479,40,13.803,0.0,0.12,0.0,0.0,ON,3.48
2026-03-23 15:08:12.292,PX4_0,False,-0.066,-0.43,342.293,0.0152,-0.0036,0.0277,0.2689,-0.0575,-3.4957,-0.1265,-0.0667,0.005,0.143,3.496,40,13.792,0.0,0.12,0.0,0.0,ON,3.49
2026-03-23 15:08:13.296,PX4_0,False,0.444,-1.064,343.342,0.039,-0.033,-0.0029,0.2321,-0.1576,-3.4881,-0.1778,0.0054,0.0025,0.178,3.488,39,13.777,0.0,0.12,0.0,0.0,ON,3.47
2026-03-23 15:08:14.300,PX4_0,False,0.328,-2.263,343.668,0.0214,-0.0153,-0.0041,0.1083,-0.1344,-3.4694,-0.14,0.0505,-0.0135,0.149,3.469,39,13.77,0.0,0.12,0.0,0.0,ON,3.45
2026-03-23 15:08:15.302,PX4_0,False,-0.002,-1.679,345.008,0.0143,0.0098,0.0165,0.132,-0.1,-3.4681,-0.0114,0.0241,-0.0306,0.027,3.468,39,13.739,0.0,0.12,0.0,0.0,ON,3.47
2026-03-23 15:08:16.306,PX4_0,False,-0.845,-0.944,345.985,-0.031,-0.0653,0.0198,0.2544,-0.0507,-3.4988,-0.0604,-0.0187,0.004,0.063,3.499,38,13.733,0.0,0.12,0.0,0.0,ON,3.51
2026-03-23 15:08:17.310,PX4_0,False,0.389,-1.108,347.392,0.0123,-0.0314,-0.0389,0.2426,-0.1631,-3.4942,-0.1251,-0.0451,0.0062,0.133,3.494,38,13.723,0.0,0.12,0.0,0.0,ON,3.48
2026-03-23 15:08:18.325,PX4_0,False,1.507,-1.753,346.294,0.0103,-0.0953,-0.0506,0.134,-0.2903,-3.4827,-0.1093,0.0659,-0.0195,0.128,3.483,38,13.707,0.0,0.12,0.0,0.0,ON,3.46
2026-03-23 15:08:19.329,PX4_0,False,0.184,-2.872,345.939,-0.0757,-0.0209,-0.0098,0.0253,-0.1835,-3.4809,0.0499,0.1686,-0.013,0.176,3.481,38,13.691,0.0,0.12,0.0,0.0,ON,3.48
2026-03-23 15:08:20.333,PX4_0,False,-1.095,-2.212,346.706,0.0364,0.0473,0.0253,0.1039,-0.0326,-3.4879,0.1342,0.012,-0.0207,0.135,3.488,38,13.691,0.0,0.12,0.0,0.0,ON,3.5
2026-03-23 15:08:21.335,PX4_0,False,-0.594,-0.557,347.127,0.0932,0.0164,-0.0321,0.2791,-0.0794,-3.5048,0.0489,-0.122,0.0026,0.131,3.505,37,13.683,0.0,0.12,0.0,0.0,ON,3.51
2026-03-23 15:08:22.339,PX4_0,False,0.577,-0.993,347.177,0.0514,0.0274,0.0263,0.2968,-0.2073,-3.5013,-0.1004,-0.0654,0.0097,0.12,3.501,37,13.667,0.0,0.12,0.0,0.0,ON,3.5
2026-03-23 15:08:23.341,PX4_0,False,0.631,-2.271,347.517,-0.0048,0.0201,0.0112,0.1771,-0.2413,-3.4853,-0.0791,0.0201,-0.0087,0.082,3.485,37,13.657,0.0,0.12,0.0,0.0,ON,3.46
2026-03-23 15:08:24.345,PX4_0,False,-0.167,-2.024,347.746,-0.0304,-0.0362,0.0046,0.1509,-0.1896,-3.4838,0.0223,0.0232,-0.0205,0.032,3.484,37,13.646,0.0,0.12,0.0,0.0,ON,3.48
2026-03-23 15:08:25.349,PX4_0,False,-0.188,-1.423,348.018,0.0522,0.0709,0.0249,0.2161,-0.164,-3.4955,0.0367,-0.059,0.0016,0.069,3.495,37,13.644,0.0,0.12,0.0,0.0,ON,3.5
2026-03-23 15:08:26.352,PX4_0,False,0.58,-1.365,348.504,0.0019,-0.0259,0.0144,0.2503,-0.247,-3.4963,-0.0237,-0.057,0.0071,0.062,3.496,36,13.635,0.0,0.12,0.0,0.0,ON,3.5
2026-03-23 15:08:27.356,PX4_0,False,0.19,-2.103,348.692,-0.0202,0.0284,0.0036,0.2128,-0.2942,-3.4886,-0.0198,-0.0075,-0.0012,0.021,3.489,36,13.625,0.0,0.12,0.0,0.0,ON,3.48
2026-03-23 15:08:28.366,PX4_0,False,0.053,-1.453,348.686,-0.0435,0.0366,-0.0008,0.2357,-0.2938,-3.481,0.0432,-0.0192,-0.0104,0.047,3.481,36,13.613,0.0,0.12,0.0,0.0,ON,3.48
2026-03-23 15:08:29.370,PX4_0,False,-0.059,-1.161,347.728,-0.0332,0.0469,-0.0026,0.3195,-0.3042,-3.493,-0.0131,-0.0296,-0.0069,0.032,3.493,36,13.606,0.0,0.12,0.0,0.0,ON,3.49
2026-03-23 15:08:30.383,PX4_0,False,0.168,-1.463,346.977,0.0385,0.0203,0.0232,0.3015,-0.3288,-3.4882,-0.0737,-0.0148,-0.0034,0.075,3.488,36,13.594,0.0,0.12,0.0,0.0,ON,3.48
2026-03-23 15:08:31.387,PX4_0,False,0.0,0.0,0.0,0,0,0,0.2823,-0.3592,-3.4909,-0.035,0.0215,-0.0114,0.041,3.491,35,13.577,0.0,0.12,0.0,0.0,ON,3.48
2026-03-23 15:08:32.391,PX4_0,False,0.0,0.0,0.0,0,0,0,0.2888,-0.415,-3.4911,-0.0427,0.0176,-0.0018,0.046,3.491,35,13.567,0.0,0.12,0.0,0.0,ON,3.49
2026-03-23 15:08:33.393,PX4_0,False,0.473,-1.807,349.138,0.0046,-0.0031,0.0123,0.2444,-0.4352,-3.493,-0.0521,0.0339,-0.008,0.062,3.493,35,13.557,0.0,0.12,0.0,0.0,ON,3.48
2026-03-23 15:08:34.400,PX4_0,False,-0.239,-1.985,348.004,0.0222,-0.0334,-0.0254,0.2168,-0.3584,-3.4858,0.0039,0.0509,-0.0075,0.051,3.486,35,13.545,0.0,0.12,0.0,0.0,ON,3.48
2026-03-23 15:08:35.406,PX4_0,False,-0.599,-1.854,347.214,-0.0114,-0.0126,-0.0124,0.2241,-0.3257,-3.4908,0.0309,-0.016,-0.0053,0.035,3.491,34,13.537,0.0,0.12,0.0,0.0,ON,3.49
2026-03-23 15:08:36.413,PX4_0,False,0.265,-1.153,348.731,-0.022,0.0057,0.0208,0.2665,-0.3986,-3.4974,-0.0028,-0.0492,0.0085,0.049,3.497,34,13.527,0.0,0.12,0.0,0.0,ON,3.5
2026-03-23 15:08:37.424,PX4_0,False,0.0,0.0,0.0,0,0,0,0.2317,-0.4469,-3.4889,-0.0238,-0.0026,-0.0056,0.024,3.489,34,13.514,0.0,0.12,0.0,0.0,ON,3.46
2026-03-23 15:08:38.427,PX4_0,False,-0.101,-2.323,347.936,-0.0312,-0.033,0.0171,0.1728,-0.3717,-3.4896,0.0441,0.0218,-0.0217,0.049,3.49,34,13.503,0.0,0.12,0.0,0.0,ON,3.48
2026-03-23 15:08:39.431,PX4_0,False,-0.759,-2.031,347.827,0.0477,0.0445,0.0207,0.2062,-0.3075,-3.4945,0.0826,-0.0417,-0.0115,0.093,3.494,34,13.507,0.0,0.12,0.0,0.0,ON,3.48
2026-03-23 15:08:40.433,PX4_0,False,-0.139,-0.962,347.958,0.0041,0.0381,0.0215,0.2966,-0.3703,-3.5092,0.0568,-0.1184,0.0018,0.131,3.509,34,13.503,0.0,0.12,0.0,0.0,ON,3.52
2026-03-23 15:08:41.440,PX4_0,False,0.297,-1.259,348.709,0.0074,0.0208,0.022,0.3176,-0.4544,-3.5021,-0.0589,-0.0576,0.0145,0.082,3.502,33,13.492,0.0,0.12,0.0,0.0,ON,3.49
2026-03-23 15:08:42.444,PX4_0,False,0.307,-2.127,349.388,-0.0357,-0.0768,-0.0047,0.2341,-0.4951,-3.4786,-0.0175,0.0225,0.0057,0.029,3.479,33,13.472,0.0,0.12,0.0,0.0,ON,3.46
2026-03-23 15:08:43.446,PX4_0,False,-0.742,-1.635,349.352,-0.0802,-0.0574,-0.0095,0.2613,-0.4193,-3.4779,0.0509,0.0136,-0.0213,0.053,3.478,33,13.46,0.0,0.12,0.0,0.0,ON,3.47
2026-03-23 15:08:44.454,PX4_0,False,-0.517,-0.797,348.226,0.0336,-0.0413,-0.0079,0.33,-0.4231,-3.487,0.0235,-0.052,-0.0145,0.057,3.487,33,13.457,0.0,0.12,0.0,0.0,ON,3.49
2026-03-23 15:08:45.458,PX4_0,False,0.472,-1.348,348.35,-0.014,0.0236,0.0305,0.3156,-0.5359,-3.4905,-0.1042,0.0232,0.005,0.107,3.49,32,13.441,0.0,0.12,0.0,0.0,ON,3.49
2026-03-23 15:08:46.462,PX4_0,False,-0.127,-2.644,348.865,0.0148,0.0658,0.0016,0.1991,-0.5148,-3.4866,0.003,0.0191,-0.0113,0.019,3.487,32,13.428,0.0,0.12,0.0,0.0,ON,3.48
2026-03-23 15:08:47.467,PX4_0,False,-1.345,-1.623,348.411,-0.0264,0.0089,0.0258,0.271,-0.4208,-3.4931,0.0583,-0.0283,-0.0006,0.065,3.493,32,13.416,0.0,0.12,0.0,0.0,ON,3.5
2026-03-23 15:08:48.471,PX4_0,False,0.104,-0.837,348.549,0.0662,0.0389,-0.0186,0.3394,-0.4918,-3.4881,0.0105,-0.1149,0.0021,0.115,3.488,32,13.412,0.0,0.12,0.0,0.0,ON,3.48
2026-03-23 15:08:49.475,PX4_0,False,0.346,-1.835,349.035,0.0562,-0.0569,-0.0253,0.2855,-0.6027,-3.4857,-0.0761,-0.0059,-0.0013,0.076,3.486,32,13.403,0.0,0.12,0.0,0.0,ON,3.46
2026-03-23 15:08:50.479,PX4_0,False,-0.329,-2.275,348.677,-0.0389,-0.0268,-0.0098,0.2077,-0.5697,-3.4796,0.0428,0.0328,-0.0155,0.054,3.48,31,13.394,0.0,0.12,0.0,0.0,ON,3.47
2026-03-23 15:08:51.482,PX4_0,False,-0.865,-1.062,349.08,-0.0264,-0.0141,-0.0222,0.2923,-0.502,-3.5006,0.0745,-0.0342,-0.0081,0.082,3.501,31,13.39,0.0,0.12,0.0,0.0,ON,3.5
2026-03-23 15:08:52.485,PX4_0,False,-0.515,-1.036,348.793,-0.0344,-0.0324,-0.0134,0.3333,-0.5213,-3.5074,0.0092,-0.0813,0.0054,0.082,3.507,31,13.39,0.0,0.12,0.0,0.0,ON,3.5
2026-03-23 15:08:53.488,PX4_0,False,-0.262,-1.411,349.208,-0.0141,-0.0512,-0.0279,0.3113,-0.5706,-3.4907,-0.0323,-0.0572,0.0009,0.066,3.491,31,13.381,0.0,0.12,0.0,0.0,ON,3.48
2026-03-23 15:08:54.493,PX4_0,False,-0.525,-1.311,348.473,-0.0428,-0.0318,0.0063,0.283,-0.6058,-3.493,-0.0132,-0.016,-0.018,0.021,3.493,0,0.0,0.0,0.12,0.0,0.0,ON,3.49
2026-03-23 15:08:55.498,PX4_0,False,0.352,-1.502,348.846,0.056,0.0537,-0.0009,0.2646,-0.6593,-3.4917,0.0064,-0.0429,0.0007,0.043,3.492,31,13.367,0.0,0.12,0.0,0.0,ON,3.48
2026-03-23 15:08:56.500,PX4_0,False,-0.821,-1.267,348.857,-0.0294,-0.051,0.0063,0.2809,-0.6358,-3.4863,0.0388,0.0626,-0.0176,0.074,3.486,31,13.361,0.0,0.12,0.0,0.0,ON,3.49
2026-03-23 15:08:57.503,PX4_0,False,-0.937,-1.568,349.168,0.0262,0.0559,0.0463,0.2928,-0.621,-3.5056,0.0101,-0.0413,0.004,0.043,3.506,31,13.372,0.0,0.12,0.0,0.0,ON,3.5
2026-03-23 15:08:58.506,PX4_0,False,-0.549,-1.502,348.444,-0.0357,-0.0681,-0.0135,0.2729,-0.6605,-3.4954,-0.0118,-0.0273,-0.003,0.03,3.495,31,13.355,0.0,0.12,0.0,0.0,ON,3.49
2026-03-23 15:08:59.509,PX4_0,False,-0.239,-2.26,349.695,0.0004,-0.0453,-0.0033,0.2332,-0.6891,-3.4895,0.0152,0.0101,-0.0092,0.018,3.49,30,13.345,0.0,0.12,0.0,0.0,ON,3.49
2026-03-23 15:09:00.513,PX4_0,False,-1.291,-1.827,349.292,-0.0625,-0.0011,-0.0103,0.2458,-0.6392,-3.4976,0.0532,-0.0191,0.0003,0.057,3.498,31,13.349,0.0,0.12,0.0,0.0,ON,3.48
2026-03-23 15:09:01.520,PX4_0,False,0.691,-1.164,350.043,0.0625,0.0057,0.0377,0.303,-0.7389,-3.4972,0.0119,-0.0955,-0.0103,0.096,3.497,30,13.342,0.0,0.12,0.0,0.0,ON,3.5
2026-03-23 15:09:02.537,PX4_0,False,0.0,0.0,0.0,0,0,0,0.2882,-0.8393,-3.515,-0.0299,0.1029,-0.0035,0.107,3.515,31,13.354,0.0,0.12,0.0,0.0,ON,3.51
2026-03-23 15:09:03.543,PX4_0,False,-0.348,-1.798,349.314,0.0207,0.038,0.0411,0.2661,-0.7487,-3.509,-0.0163,0.0737,0.0104,0.075,3.509,30,13.344,0.0,0.12,0.0,0.0,ON,3.5
2026-03-23 15:09:04.547,PX4_0,False,-0.059,-2.038,350.469,0.0489,-0.0224,-0.0255,0.2356,-0.7305,-3.502,-0.0067,-0.011,-0.0027,0.013,3.502,30,13.335,0.0,0.12,0.0,0.0,ON,3.49
2026-03-23 15:09:05.551,PX4_0,False,-0.344,-1.586,348.535,-0.0135,0.0434,0.036,0.2332,-0.7221,-3.4958,0.0434,0.0025,0.008,0.043,3.496,30,13.315,0.0,0.12,0.0,0.0,ON,3.49
2026-03-23 15:09:06.555,PX4_0,False,0.154,-1.967,349.235,0.0113,-0.0482,0.0006,0.2398,-0.713,-3.4855,0.0296,-0.0876,0.0041,0.092,3.486,30,13.306,0.0,0.12,0.0,0.0,ON,3.47
2026-03-23 15:09:07.573,PX4_0,False,-0.383,-1.77,349.964,-0.0358,-0.0861,-0.0014,0.2526,-0.7026,-3.4811,0.0425,-0.0715,-0.0082,0.083,3.481,29,13.3,0.0,0.12,0.0,0.0,ON,3.46
2026-03-23 15:09:08.576,PX4_0,False,-0.647,-1.922,349.386,0.0404,0.0019,-0.063,0.2472,-0.6612,-3.4808,0.0409,-0.1592,-0.0262,0.164,3.481,29,13.298,0.0,0.12,0.0,0.0,ON,3.46
2026-03-23 15:09:09.581,PX4_0,False,0.048,-1.731,348.784,-0.0284,-0.0358,-0.0206,0.2557,-0.7823,-3.4952,0.0699,-0.0509,-0.015,0.086,3.495,30,13.301,0.0,0.12,0.0,0.0,ON,3.49
2026-03-23 15:09:10.587,PX4_0,False,-0.053,-1.794,348.953,-0.0053,-0.0611,-0.0119,0.2322,-0.7852,-3.4534,0.0134,-0.0199,0.0725,0.024,3.453,29,13.293,0.0,0.12,0.0,0.0,ON,3.44
2026-03-23 15:09:11.589,PX4_0,False,-0.302,-2.661,349.974,-0.0006,-0.0587,-0.0094,0.1172,-0.7661,-3.3764,0.0349,-0.0038,0.0559,0.035,3.376,29,13.287,0.0,0.12,0.0,0.0,ON,3.36
2026-03-23 15:09:12.593,PX4_0,False,-0.179,-2.364,349.022,-0.0346,-0.0208,-0.0255,0.0844,-0.722,-3.3126,0.1242,-0.0513,0.0501,0.134,3.313,29,13.279,0.0,0.12,0.0,0.0,ON,3.32
2026-03-23 15:09:13.594,PX4_0,False,-0.567,-1.593,348.469,-0.062,-0.051,0.0041,0.1902,-0.7191,-3.2751,0.1149,-0.0476,0.0517,0.124,3.275,29,13.272,0.0,0.12,0.0,0.0,ON,3.29
2026-03-23 15:09:14.596,PX4_0,False,0.634,-1.479,349.957,0.0679,-0.1,-0.0046,0.1917,-0.7679,-3.2348,0.042,-0.0693,0.0545,0.081,3.235,29,13.266,0.0,0.12,0.0,0.0,ON,3.23
2026-03-23 15:09:15.599,PX4_0,False,0.519,-1.9,348.648,0.0368,0.021,-0.0421,0.1488,-0.8179,-3.1719,0.0385,0.0304,0.0532,0.049,3.172,29,13.261,0.0,0.12,0.0,0.0,ON,3.16
2026-03-23 15:09:16.600,PX4_0,False,-1.128,-2.242,348.455,-0.0322,-0.0536,-0.0152,0.127,-0.6883,-3.1002,0.0771,0.0308,0.0435,0.083,3.1,29,13.254,0.0,0.12,0.0,0.0,ON,3.1
2026-03-23 15:09:17.602,PX4_0,False,-0.778,-1.607,349.847,0.0671,0.0097,-0.0077,0.1598,-0.6723,-3.0767,0.1043,-0.1185,0.0023,0.158,3.077,29,13.252,0.0,0.12,0.0,0.0,ON,3.08
2026-03-23 15:09:18.604,PX4_0,False,0.531,-1.254,349.747,0.1182,-0.068,0.0001,0.2453,-0.7907,-3.0735,0.0266,-0.1308,0.0023,0.133,3.074,29,13.258,0.0,0.12,0.0,0.0,ON,3.07
2026-03-23 15:09:19.606,PX4_0,False,0.259,-2.171,349.669,0.0026,-0.0428,0.0203,0.1991,-0.8611,-3.0191,0.0029,0.0235,0.0538,0.024,3.019,28,13.235,0.0,0.12,0.0,0.0,ON,3.01
2026-03-23 15:09:20.609,PX4_0,False,-0.618,-2.128,350.26,-0.0314,0.0014,-0.0016,0.1719,-0.7574,-2.9649,0.0595,0.038,0.0526,0.071,2.965,28,13.231,0.0,0.12,0.0,0.0,ON,2.96
2026-03-23 15:09:21.610,PX4_0,False,-0.761,-0.637,349.881,0.0462,0.0502,0.0421,0.2937,-0.7551,-2.917,0.0319,-0.0735,0.0146,0.08,2.917,28,13.229,0.0,0.12,0.0,0.0,ON,2.91
2026-03-23 15:09:22.615,PX4_0,False,1.034,-1.785,351.395,0.0398,0.0485,-0.0174,0.322,-0.9065,-2.8832,-0.0242,-0.0385,0.0505,0.045,2.883,28,13.223,0.0,0.12,0.0,0.0,ON,2.87
2026-03-23 15:09:23.620,PX4_0,False,0.0,0.0,0.0,0,0,0,0.275,-0.8711,-2.8233,0.0056,0.0609,0.0547,0.061,2.823,28,13.226,0.0,0.12,0.0,0.0,ON,2.82
2026-03-23 15:09:24.623,PX4_0,False,-0.951,-1.513,350.48,-0.0169,-0.0015,0.008,0.2984,-0.769,-2.7607,0.0324,-0.0164,0.0377,0.036,2.761,28,13.223,0.0,0.12,0.0,0.0,ON,2.75
2026-03-23 15:09:25.637,PX4_0,False,0.0,0.0,0.0,0,0,0,0.3358,-0.8085,-2.7407,-0.0287,-0.1055,0.0104,0.109,2.741,28,13.221,0.0,0.12,0.0,0.0,ON,2.73
2026-03-23 15:09:26.643,PX4_0,False,1.192,-1.035,350.735,0.0057,-0.0572,-0.0148,0.3378,-0.9706,-2.7286,-0.0783,-0.0613,0.0107,0.099,2.729,28,13.219,0.0,0.12,0.0,0.0,ON,2.72
2026-03-23 15:09:27.646,PX4_0,False,0.144,-2.519,352.664,-0.0118,0.0429,0.0254,0.2474,-0.9529,-2.6945,-0.0329,0.0004,0.0529,0.033,2.695,28,13.208,0.0,0.12,0.0,0.0,ON,2.68
2026-03-23 15:09:28.654,PX4_0,False,-0.177,-1.403,352.422,-0.0776,-0.0138,-0.0048,0.287,-0.9115,-2.6171,0.0163,-0.0295,0.0589,0.034,2.617,27,13.188,0.0,0.12,0.0,0.0,ON,2.62
2026-03-23 15:09:29.658,PX4_0,False,0.674,-1.367,351.649,-0.0118,-0.0063,-0.0302,0.3143,-0.9282,-2.5792,0.0056,-0.0906,0.0513,0.091,2.579,27,13.18,0.0,0.12,0.0,0.0,ON,2.57
2026-03-23 15:09:30.661,PX4_0,False,0.116,-1.171,352.148,-0.0367,0.0529,0.0273,0.2963,-0.9702,-2.5227,-0.0463,-0.0107,0.0019,0.048,2.523,27,13.189,0.0,0.12,0.0,0.0,ON,2.51
2026-03-23 15:09:31.666,OFFBOARD,True,-0.112,-1.868,352.234,0.0007,0.0795,0.0314,0.2441,-0.9323,-2.4692,0.0071,-0.0061,0.0635,0.009,2.469,27,13.166,0.0,0.12,0.0,0.0,ON,2.46
2026-03-23 15:09:32.683,PX4_0,False,-0.501,-1.428,353.201,0.0119,0.0691,0.0159,0.3017,-0.8872,-2.4046,0.0399,-0.023,0.0547,0.046,2.405,27,13.163,0.0,0.12,0.0,0.0,ON,2.4
2026-03-23 15:09:33.686,PX4_0,False,-1.229,-0.855,353.613,0.0967,-0.0173,0.0132,0.3212,-0.8947,-2.3738,-0.068,-0.0994,0.0138,0.12,2.374,27,13.169,0.0,0.12,0.0,0.0,ON,2.36
2026-03-23 15:09:34.690,OFFBOARD,True,0.726,-1.523,354.048,0.0585,-0.0468,0.0104,0.2559,-1.0571,-2.3598,-0.0971,-0.0457,0.0065,0.107,2.36,27,13.169,0.0,0.12,0.0,0.0,ON,2.35
2026-03-23 15:09:35.701,PX4_0,False,0.599,-1.864,353.619,0.0497,0.0086,-0.0439,0.1919,-1.1167,-2.3194,-0.0296,0.061,0.0297,0.068,2.319,27,13.169,0.0,0.12,0.0,0.0,ON,2.31
2026-03-23 15:09:36.707,OFFBOARD,True,-0.32,-1.394,353.81,-0.0437,-0.0476,-0.0002,0.1569,-1.0597,-2.2744,0.0162,-0.0155,0.0581,0.022,2.274,27,13.158,0.0,0.12,0.0,0.0,ON,2.27
2026-03-23 15:09:37.714,OFFBOARD,True,0.155,-1.571,354.797,0.0646,0.0455,0.0049,0.1395,-1.0752,-2.2202,0.0151,-0.0314,0.0494,0.035,2.22,26,13.154,0.0,0.12,0.0,0.0,ON,2.22
2026-03-23 15:09:38.718,OFFBOARD,True,-0.473,-1.769,355.359,-0.1025,-0.0394,-0.0087,0.1052,-1.0536,-2.1674,0.024,0.0251,0.0623,0.035,2.167,26,13.142,0.0,0.12,0.0,0.0,ON,2.16
2026-03-23 15:09:39.721,OFFBOARD,True,-0.986,-1.86,355.193,-0.0507,-0.0337,-0.0166,0.0855,-0.9958,-2.1039,0.0571,-0.0102,0.0662,0.058,2.104,26,13.145,0.0,0.12,0.0,0.0,ON,2.1
2026-03-23 15:09:40.727,OFFBOARD,True,-0.158,-1.373,355.575,0.018,0.0344,-0.0097,0.1389,-1.0465,-2.0279,0.0713,-0.0889,0.068,0.114,2.028,26,13.122,0.0,0.12,0.0,0.0,ON,2.03
2026-03-23 15:09:41.730,OFFBOARD,True,-0.019,-1.162,355.883,0.0275,-0.0612,-0.048,0.1867,-1.0967,-1.9769,0.0232,-0.0179,0.0471,0.029,1.977,26,13.123,0.0,0.12,0.0,0.0,ON,1.97
2026-03-23 15:09:42.734,OFFBOARD,True,-0.009,-2.036,356.299,-0.03,0.016,0.008,0.113,-1.1027,-1.9227,0.0078,-0.0031,0.0537,0.008,1.923,26,13.123,0.0,0.12,0.0,0.0,ON,1.9
2026-03-23 15:09:43.737,OFFBOARD,True,-0.888,-2.084,357.046,-0.0486,-0.0745,-0.016,0.0471,-1.0409,-1.856,0.0666,0.0353,0.0508,0.075,1.856,26,13.12,0.0,0.12,0.0,0.0,ON,1.84
2026-03-23 15:09:44.742,OFFBOARD,True,-0.363,-2.337,356.347,0.0081,0.0332,-0.0136,0.0151,-1.0257,-1.7914,0.0847,-0.0635,0.0633,0.106,1.791,26,13.11,0.0,0.12,0.0,0.0,ON,1.78
2026-03-23 15:09:45.745,OFFBOARD,True,-1.248,-1.876,357.485,-0.0699,-0.0182,0.0035,0.0621,-1.0139,-1.7232,0.1145,-0.0018,0.0652,0.115,1.723,25,13.099,0.0,0.12,0.0,0.0,ON,1.72
2026-03-23 15:09:46.749,OFFBOARD,True,-0.159,-1.152,357.769,-0.0055,-0.0047,-0.0014,0.1767,-1.064,-1.6661,0.0675,-0.0582,0.0571,0.089,1.666,25,13.083,0.0,0.12,0.0,0.0,ON,1.67
2026-03-23 15:09:47.753,OFFBOARD,True,-0.023,-1.651,359.653,0.0044,0.0355,0.0269,0.202,-1.1246,-1.6236,-0.0186,-0.0031,0.0479,0.019,1.624,25,13.088,0.0,0.12,0.0,0.0,ON,1.62
2026-03-23 15:09:48.756,OFFBOARD,True,-0.248,-1.953,1.005,0.0301,-0.0896,-0.0481,0.1684,-1.1354,-1.5654,-0.0197,0.0147,0.0527,0.025,1.565,25,13.085,0.0,0.12,0.0,0.0,ON,1.58
2026-03-23 15:09:49.758,OFFBOARD,True,-0.387,-1.749,1.226,0.0147,-0.064,-0.0049,0.1758,-1.0968,-1.4992,-0.0015,0.0023,0.0654,0.003,1.499,25,13.083,0.0,0.12,0.0,0.0,ON,1.49
2026-03-23 15:09:50.761,OFFBOARD,True,-0.816,-1.549,2.295,-0.001,-0.0643,-0.013,0.1891,-1.0301,-1.4273,0.0067,-0.0106,0.0563,0.013,1.427,25,13.065,0.0,0.12,0.0,0.0,ON,1.42
2026-03-23 15:09:51.764,OFFBOARD,True,-0.275,-0.871,3.983,0.0613,0.0392,0.0182,0.2669,-1.0694,-1.378,0.0013,-0.0492,0.0495,0.049,1.378,25,13.076,0.0,0.12,0.0,0.0,ON,1.39
2026-03-23 15:09:52.771,OFFBOARD,True,-0.142,-1.09,3.999,-0.0408,-0.0566,-0.03,0.2863,-1.1194,-1.3276,-0.0839,-0.0034,0.0597,0.084,1.328,25,13.075,0.0,0.12,0.0,0.0,ON,1.32
2026-03-23 15:09:53.773,OFFBOARD,True,0.864,-2.306,3.413,-0.0508,-0.0032,-0.0132,0.2613,-1.1295,-1.2661,-0.0245,0.0705,0.0234,0.075,1.266,25,13.069,0.0,0.12,0.0,0.0,ON,1.26
2026-03-23 15:09:54.777,OFFBOARD,True,-1.003,-1.129,5.548,0.0068,-0.0163,0.0222,0.3289,-1.0337,-1.2031,-0.0179,-0.0057,0.0591,0.019,1.203,25,13.06,0.0,0.12,0.0,0.0,ON,1.19
2026-03-23 15:09:55.786,OFFBOARD,True,-0.197,-1.039,6.732,0.026,-0.0143,-0.0004,0.3726,-1.0728,-1.1384,-0.0494,-0.0833,0.0569,0.097,1.138,24,13.051,0.0,0.12,0.0,0.0,ON,1.14
2026-03-23 15:09:56.789,OFFBOARD,True,-0.114,-2.109,8.037,0.0021,-0.0306,-0.0162,0.3697,-1.1418,-1.0906,-0.0687,0.0206,0.0331,0.072,1.091,24,13.046,0.0,0.12,0.0,0.0,ON,1.09
2026-03-23 15:09:57.792,OFFBOARD,True,-0.259,-1.415,8.666,0.0026,-0.0798,0.0161,0.4055,-1.1175,-1.0916,0.0474,0.0564,-0.0086,0.074,1.092,24,13.052,0.0,0.12,0.0,0.0,ON,1.08
2026-03-23 15:09:58.795,OFFBOARD,True,0.128,-1.388,9.442,0.1061,-0.0627,-0.0049,0.4569,-1.1032,-1.0446,0.0027,-0.0102,0.0288,0.011,1.045,24,13.042,0.0,0.12,0.0,0.0,ON,1.04
2026-03-23 15:09:59.798,OFFBOARD,True,0.73,-1.333,9.472,-0.0221,0.047,-0.0171,0.4876,-1.1161,-1.0362,-0.0009,0.0776,0.0063,0.078,1.036,24,13.034,0.0,0.12,0.0,0.0,ON,1.04
2026-03-23 15:10:00.812,OFFBOARD,True,-0.596,-1.362,9.806,-0.0155,0.0092,-0.0353,0.4984,-1.0518,-0.9905,-0.0025,0.0206,0.0632,0.021,0.991,24,13.018,0.0,0.12,0.0,0.0,ON,0.99
2026-03-23 15:10:01.814,OFFBOARD,True,1.006,-1.256,8.999,-0.0388,-0.0056,0.0013,0.5417,-1.1259,-0.8938,-0.0211,-0.04,0.1019,0.045,0.894,23,13.0,0.0,0.12,0.0,0.0,ON,0.9
2026-03-23 15:10:02.818,OFFBOARD,True,0.417,-1.485,10.705,-0.0485,0.0518,0.0101,0.5319,-1.1479,-0.8482,-0.034,0.0799,0.0265,0.087,0.848,24,13.016,0.0,0.12,0.0,0.0,ON,0.84
2026-03-23 15:10:03.821,OFFBOARD,True,-0.207,-1.08,9.97,-0.0272,0.0078,-0.0242,0.5244,-1.0924,-0.8253,-0.019,0.0873,0.0037,0.089,0.825,24,13.023,0.0,0.12,0.0,0.0,ON,0.81
2026-03-23 15:10:04.826,OFFBOARD,True,-0.495,-1.49,9.543,0.0092,-0.0425,-0.0237,0.5078,-1.0597,-0.7472,0.0002,0.0078,0.1444,0.008,0.747,24,13.035,0.0,0.12,0.0,0.0,ON,0.77
2026-03-23 15:10:05.828,OFFBOARD,True,0.443,-1.308,9.01,0.0549,-0.0393,-0.0284,0.5007,-1.0646,-0.6036,0.0053,-0.0256,0.2128,0.026,0.604,24,13.03,0.0,0.12,0.0,0.0,ON,0.61
2026-03-23 15:10:06.835,OFFBOARD,True,-0.338,-1.458,9.881,-0.0018,0.0383,0.0289,0.465,-1.0666,-0.5736,-0.0028,0.0066,0.0167,0.007,0.574,23,13.01,0.0,0.12,0.0,0.0,ON,0.56
2026-03-23 15:10:07.838,OFFBOARD,True,-0.514,-1.31,10.546,0.0226,-0.0036,0.011,0.4786,-1.0152,-0.4109,0.0122,-0.0269,0.187,0.03,0.411,24,13.022,0.0,0.12,0.0,0.0,ON,0.41
2026-03-23 15:10:08.846,OFFBOARD,True,0.178,-1.324,10.779,-0.053,0.0031,-0.0104,0.5045,-1.0328,-0.3356,-0.0055,0.0125,-0.0246,0.014,0.336,23,13.009,0.0,0.12,0.0,0.0,ON,0.32
2026-03-23 15:10:09.850,OFFBOARD,True,0.418,-1.553,9.565,0.0184,-0.0107,-0.0171,0.51,-1.0617,-0.34,-0.0088,-0.0139,-0.0158,0.016,0.34,24,13.02,0.0,0.12,0.0,0.0,ON,0.33
2026-03-23 15:10:10.852,OFFBOARD,True,0.38,-1.88,9.068,0.0043,-0.0301,0.014,0.4968,-1.0869,-0.3402,-0.017,0.0214,-0.0016,0.027,0.34,24,13.021,0.0,0.12,0.0,0.0,ON,0.34
2026-03-23 15:10:11.858,OFFBOARD,True,0.42,-1.667,10.891,-0.0134,-0.0254,0.0272,0.4725,-1.0757,-0.34,-0.0086,0.0314,0.0008,0.033,0.34,24,13.025,0.0,0.12,0.0,0.0,ON,0.33
2026-03-23 15:10:12.864,OFFBOARD,True,-0.137,-1.511,10.674,0.0825,-0.1377,-0.0545,0.4383,-1.0299,-0.1654,-0.0212,0.0417,0.5362,0.047,0.165,25,13.097,0.0,0.12,0.0,0.0,ON,0.0
2026-03-23 15:10:13.867,OFFBOARD,True,-0.336,-1.771,10.868,-0.0636,-0.02,0.0406,0.4037,-1.0001,-0.2154,-0.0091,0.0094,-0.024,0.013,0.215,24,13.065,0.0,0.12,0.0,0.0,ON,0.2
2026-03-23 15:10:14.869,OFFBOARD,True,-0.674,-1.002,9.095,-0.0026,0.1836,0.065,0.4077,-0.9816,-0.2132,0.0031,-0.0458,-0.0175,0.046,0.213,24,13.065,0.0,0.12,0.0,0.0,ON,0.2
2026-03-23 15:10:15.874,OFFBOARD,True,-0.382,-2.312,9.788,-0.0382,-0.0293,-0.0693,0.3996,-0.9811,-0.211,0.0113,0.0073,0.0029,0.013,0.211,24,13.06,0.0,0.12,0.0,0.0,ON,0.2
2026-03-23 15:10:16.876,OFFBOARD,True,0.061,-1.748,9.849,-0.0116,0.043,0.0001,0.4087,-1.0118,-0.212,0.0095,-0.0432,-0.003,0.044,0.212,24,13.056,0.0,0.12,0.0,0.0,ON,0.2
2026-03-23 15:10:17.879,OFFBOARD,True,-0.124,-1.787,11.627,-0.0845,-0.0043,0.0276,0.4379,-1.0314,-0.211,0.0113,0.0079,-0.0082,0.014,0.211,24,13.052,0.0,0.12,0.0,0.0,ON,0.21
2026-03-23 15:10:18.882,OFFBOARD,True,0.042,-1.394,9.99,0.0574,0.033,-0.006,0.4617,-1.0714,-0.219,0.0039,-0.0205,0.0177,0.021,0.219,24,13.052,0.0,0.12,0.0,0.0,ON,0.21
2026-03-23 15:10:19.886,OFFBOARD,True,0.598,-1.582,11.318,-0.0049,-0.0158,0.0823,0.4675,-1.1165,-0.216,-0.037,0.0092,0.0045,0.038,0.216,24,13.057,0.0,0.12,0.0,0.0,ON,0.21
2026-03-23 15:10:20.890,OFFBOARD,True,0.435,-1.876,12.302,-0.0422,0.0874,-0.0113,0.4468,-1.1195,-0.2108,-0.0213,0.0327,-0.0048,0.039,0.211,24,13.053,0.0,0.12,0.0,0.0,ON,0.2
2026-03-23 15:10:21.894,OFFBOARD,True,0.075,-1.75,11.182,0.0124,-0.0638,-0.0187,0.4187,-1.0692,-0.2043,-0.017,0.062,0.0044,0.064,0.204,0,0.0,0.0,0.12,0.0,0.0,ON,0.19
2026-03-23 15:10:22.898,OFFBOARD,True,0.166,-1.813,11.207,0.0446,0.013,0.0146,0.4105,-1.0353,-0.198,0.022,-0.0029,-0.0007,0.022,0.198,24,13.03,0.0,0.12,0.0,0.0,ON,0.19
2026-03-23 15:10:23.901,OFFBOARD,True,-0.386,-1.234,10.666,0.0823,0.0226,0.0214,0.4284,-0.9721,-0.2,0.0239,0.0166,0.013,0.029,0.2,24,13.026,0.0,0.12,0.0,0.0,ON,0.2
2026-03-23 15:10:24.907,OFFBOARD,True,-0.678,-1.129,11.923,-0.039,-0.0139,0.0031,0.4533,-0.927,-0.2144,0.0329,-0.0377,-0.0278,0.05,0.214,24,13.019,0.0,0.12,0.0,0.0,ON,0.22
2026-03-23 15:10:25.912,OFFBOARD,True,0.0,0.0,0.0,0,0,0,0.4981,-0.937,-0.2314,-0.0044,-0.074,-0.0101,0.074,0.231,24,13.037,0.0,0.12,0.0,0.0,ON,0.21
2026-03-23 15:10:26.915,OFFBOARD,True,0.354,-1.607,9.999,0.0648,0.021,-0.0227,0.4941,-1.0198,-0.2099,-0.0535,-0.0871,-0.0064,0.102,0.21,24,13.029,0.0,0.12,0.0,0.0,ON,0.2
2026-03-23 15:10:27.919,OFFBOARD,True,0.879,-1.908,10.341,0.0221,0.0248,0.009,0.4556,-1.1074,-0.2195,-0.0356,-0.0517,-0.0254,0.063,0.22,24,13.029,0.0,0.12,0.0,0.0,ON,0.21
2026-03-23 15:10:28.924,OFFBOARD,True,0.724,-2.509,11.261,-0.0151,-0.0024,-0.0099,0.39,-1.1525,-0.2145,-0.0239,0.0617,0.0137,0.066,0.214,24,13.022,0.0,0.12,0.0,0.0,ON,0.22
2026-03-23 15:10:29.928,POSCTL,True,4.855,-1.907,11.712,0.0177,0.028,0.0476,0.3387,-1.1373,-0.2055,-0.0424,0.1647,0.0082,0.17,0.205,23,13.003,0.0,0.12,0.0,0.0,ON,0.2
2026-03-23 15:10:30.931,POSCTL,True,-5.781,-1.673,12.682,-0.1935,-0.0375,-0.0169,0.3256,-1.0408,-0.2105,0.0394,-0.19,0.0055,0.194,0.21,23,12.998,0.0,0.12,0.0,0.0,ON,0.21
2026-03-23 15:10:31.935,POSCTL,True,1.54,-3.206,13.389,-0.1683,-0.0343,0.0295,0.3456,-1.2124,-0.2122,-0.3209,-0.2005,0.0086,0.378,0.212,23,12.993,0.0,0.12,0.0,0.0,ON,0.19
2026-03-23 15:10:32.937,POSCTL,True,-0.072,-2.784,21.588,-0.2484,-0.0186,-0.0015,0.5039,-1.1054,-0.2062,-0.2253,0.275,-0.0124,0.356,0.206,23,13.007,0.0,0.12,0.0,0.0,ON,0.19
2026-03-23 15:10:33.940,AUTO.SUB_0,True,0.36,-2.906,22.37,0.1006,0.1192,0.0226,0.3573,-1.2599,-0.125,-0.0667,-0.0688,0.6155,0.096,0.125,25,13.113,0.0,0.12,0.0,0.0,ON,0.12
2026-03-23 15:10:34.942,POSCTL,False,0.85,-0.929,18.701,-0.0005,-0.0038,-0.0027,0.1786,-1.2444,-0.0387,-0.0007,-0.018,-0.038,0.018,0.039,34,13.626,0.0,0.12,0.0,0.0,ON,0.01
2026-03-23 15:10:35.945,POSCTL,False,0.928,-1.074,18.88,-0.0014,-0.0035,0.0006,0.1518,-1.2387,-0.0546,-0.0234,-0.0074,-0.0326,0.025,0.055,40,13.933,0.0,0.12,0.0,0.0,ON,0.01
2026-03-23 15:10:36.947,POSCTL,False,0.973,-1.187,19.228,-0.0045,-0.0009,-0.0003,0.1684,-1.2326,-0.0397,-0.0072,0.0012,-0.016,0.007,0.04,43,14.069,0.0,0.12,0.0,0.0,ON,0.01
2026-03-23 15:10:37.951,POSCTL,False,1.006,-1.261,19.733,0.0016,-0.0,-0.003,0.1859,-1.23,-0.0347,-0.0051,0.0048,-0.0084,0.007,0.035,44,14.132,0.0,0.12,0.0,0.0,ON,0.01
2026-03-23 15:10:38.954,POSCTL,False,1.029,-1.33,20.432,0.0002,0.0045,-0.0011,0.2031,-1.2295,-0.0327,0.0008,0.0035,-0.01,0.004,0.033,45,14.174,0.0,0.12,0.0,0.0,ON,0.01
2026-03-23 15:10:39.958,POSCTL,False,1.037,-1.36,21.17,-0.0024,-0.0008,-0.0023,0.2205,-1.2296,-0.037,0.0014,0.0031,-0.0141,0.003,0.037,46,14.197,0.0,0.12,0.0,0.0,ON,0.01
2026-03-23 15:10:40.962,POSCTL,False,1.045,-1.411,21.883,0.0018,0.0004,-0.0023,0.237,-1.2304,-0.0382,0.0034,0.0022,-0.0156,0.004,0.038,46,14.219,0.0,0.12,0.0,0.0,ON,0.01
2026-03-23 15:10:41.982,POSCTL,False,1.095,-1.463,22.783,0.0004,0.0021,-0.0015,0.2536,-1.2308,-0.0385,0.004,0.0022,-0.015,0.005,0.038,46,14.231,0.0,0.12,0.0,0.0,ON,0.01
2026-03-23 15:10:42.986,STABILIZED,False,1.114,-1.51,23.611,0.0017,-0.0006,0.003,0.2674,-1.2293,-0.0382,0.0004,0.0057,-0.0141,0.006,0.038,47,14.248,0.0,0.12,0.0,0.0,ON,0.01
2026-03-23 15:10:43.991,STABILIZED,False,1.123,-1.572,24.445,0.0005,-0.0033,-0.0018,0.2821,-1.2302,-0.0365,0.0024,0.0039,-0.0127,0.005,0.036,47,14.262,0.0,0.12,0.0,0.0,ON,0.01
2026-03-23 15:10:45.001,POSCTL,False,1.143,-1.603,25.284,0.0058,-0.0024,0.001,0.2968,-1.2315,-0.0382,0.0051,0.0045,-0.0167,0.007,0.038,47,14.264,0.0,0.12,0.0,0.0,ON,0.01
2026-03-23 15:10:46.041,POSCTL,False,1.146,-1.62,26.081,0.0003,0.0024,-0.0014,0.3083,-1.2327,-0.0412,0.0028,0.0025,-0.0217,0.004,0.041,48,14.285,0.0,0.12,0.0,0.0,ON,0.01
2026-03-23 15:10:47.049,POSCTL,False,1.143,-1.633,26.851,0.0006,0.001,0.0,0.3176,-1.2344,-0.0412,-0.0016,0.0019,-0.0151,0.002,0.041,48,14.291,0.0,0.12,0.0,0.0,ON,0.01
2026-03-23 15:10:48.054,POSCTL,False,1.166,-1.692,27.6,0.0019,-0.0006,-0.0029,0.3278,-1.2351,-0.0356,0.0002,0.0018,-0.0125,0.002,0.036,48,14.294,0.0,0.12,0.0,0.0,ON,0.01
2026-03-23 15:10:49.060,POSCTL,False,1.183,-1.712,28.365,0.0024,0.0017,-0.0031,0.3406,-1.2356,-0.0411,0.0028,0.0033,-0.0208,0.004,0.041,48,14.305,0.0,0.12,0.0,0.0,ON,0.01
2026-03-23 15:10:50.064,POSCTL,False,1.162,-1.711,29.024,0.0013,0.0033,0.0001,0.3454,-1.2359,-0.0376,-0.0019,0.004,-0.0109,0.004,0.038,48,14.317,0.0,0.12,0.0,0.0,ON,0.01
2026-03-23 15:10:51.070,POSCTL,False,1.162,-1.742,29.673,-0.002,0.0008,0.0014,0.3528,-1.238,-0.0356,-0.0034,0.0024,-0.011,0.004,0.036,48,14.322,0.0,0.12,0.0,0.0,ON,0.01
2026-03-23 15:10:52.086,POSCTL,False,1.134,-1.771,30.248,0.0022,-0.0002,0.0001,0.36,-1.2391,-0.0351,0.0007,0.0011,-0.0105,0.001,0.035,49,14.338,0.0,0.12,0.0,0.0,ON,0.01
2026-03-23 15:10:53.093,POSCTL,False,1.124,-1.778,30.812,-0.0019,0.0024,0.0004,0.3658,-1.2407,-0.0367,0.0035,-0.0012,-0.0144,0.004,0.037,49,14.347,0.0,0.12,0.0,0.0,ON,0.01
2026-03-23 15:10:54.099,POSCTL,False,1.138,-1.787,31.326,0.0009,0.0011,-0.0011,0.3702,-1.241,-0.0396,0.0022,0.001,-0.0175,0.002,0.04,49,14.349,0.0,0.12,0.0,0.0,ON,0.01
2026-03-23 15:10:55.106,POSCTL,False,1.133,-1.8,31.795,0.0008,-0.0023,-0.0033,0.3749,-1.2413,-0.0412,0.001,0.0024,-0.0178,0.003,0.041,49,14.35,0.0,0.12,0.0,0.0,ON,0.01
2026-03-23 15:10:56.121,POSCTL,False,1.131,-1.802,32.257,0.0017,-0.001,0.0011,0.3767,-1.2421,-0.0366,0.0004,0.001,-0.0128,0.001,0.037,49,14.352,0.0,0.12,0.0,0.0,ON,0.01
2026-03-23 15:10:57.129,POSCTL,False,1.131,-1.813,32.682,0.0001,-0.0025,0.0018,0.3792,-1.2429,-0.0365,-0.0017,-0.0004,-0.0139,0.002,0.036,49,14.361,0.0,0.12,0.0,0.0,ON,0.01
2026-03-23 15:10:58.145,POSCTL,False,1.121,-1.828,33.079,-0.0002,-0.0001,0.0001,0.3836,-1.2435,-0.0381,0.0007,0.0028,-0.0138,0.003,0.038,49,14.367,0.0,0.12,0.0,0.0,ON,0.01
2026-03-23 15:10:59.150,POSCTL,False,1.122,-1.837,33.447,-0.0001,0.0019,0.0001,0.3857,-1.2444,-0.0367,0.0001,0.0017,-0.0127,0.002,0.037,50,14.383,0.0,0.12,0.0,0.0,ON,0.01
2026-03-23 15:11:00.156,PX4_0,False,1.126,-1.866,33.817,0.0009,-0.0011,0.0015,0.3863,-1.245,-0.0356,-0.0002,0.0019,-0.0119,0.002,0.036,50,14.381,0.0,0.12,0.0,0.0,ON,0.01
2026-03-23 15:11:01.163,PX4_0,False,1.093,-1.857,34.151,-0.0008,-0.0018,0.0015,0.3906,-1.2459,-0.0394,0.0054,-0.0001,-0.0203,0.005,0.039,50,14.391,0.0,0.12,0.0,0.0,ON,0.01
2026-03-23 15:11:02.172,POSCTL,False,1.081,-1.835,34.446,0.0036,-0.0009,0.001,0.3915,-1.2472,-0.0412,0.0027,-0.0021,-0.018,0.003,0.041,50,14.397,0.0,0.12,0.0,0.0,ON,0.01
2026-03-23 15:11:03.176,PX4_0,False,1.09,-1.834,34.762,0.0014,0.0002,0.0014,0.391,-1.2472,-0.0378,-0.0011,0.001,-0.0123,0.001,0.038,50,14.393,0.0,0.12,0.0,0.0,ON,0.01
2026-03-23 15:11:04.180,PX4_0,False,1.098,-1.846,35.047,-0.0,0.0031,0.0028,0.3923,-1.2482,-0.0367,0.0016,-0.0011,-0.0153,0.002,0.037,50,14.397,0.0,0.12,0.0,0.0,ON,0.01
2026-03-23 15:11:05.185,PX4_0,False,1.12,-1.85,35.305,0.0052,-0.0017,-0.0019,0.3924,-1.2481,-0.0386,-0.0018,0.0015,-0.014,0.002,0.039,50,14.393,0.0,0.12,0.0,0.0,ON,0.01
2026-03-23 15:11:06.190,PX4_0,False,1.095,-1.855,35.586,-0.0045,0.0002,0.0019,0.3931,-1.2476,-0.0351,0.0,0.0044,-0.0083,0.004,0.035,50,14.408,0.0,0.12,0.0,0.0,ON,0.01
2026-03-23 15:11:07.194,PX4_0,False,1.086,-1.869,35.841,0.0003,0.0003,-0.0021,0.3925,-1.2495,-0.0318,-0.0045,0.0007,-0.0034,0.005,0.032,50,14.409,0.0,0.12,0.0,0.0,ON,0.01
2026-03-23 15:11:08.199,PX4_0,False,1.079,-1.867,36.052,0.0009,0.0026,0.0005,0.3964,-1.2498,-0.0355,0.0033,0.0015,-0.0139,0.004,0.035,50,14.42,0.0,0.12,0.0,0.0,ON,0.01
2026-03-23 15:11:09.205,PX4_0,False,1.074,-1.877,36.283,0.0059,0.0016,0.0023,0.3937,-1.2504,-0.0371,-0.0043,0.001,-0.0091,0.004,0.037,51,14.427,0.0,0.12,0.0,0.0,ON,0.01
2026-03-23 15:11:10.218,PX4_0,False,1.056,-1.897,36.495,-0.0008,0.0032,0.0028,0.3959,-1.2509,-0.0344,0.0039,0.0004,-0.0127,0.004,0.034,50,14.422,0.0,0.12,0.0,0.0,ON,0.01
2026-03-23 15:11:11.222,PX4_0,False,1.053,-1.895,36.693,0.0006,-0.0035,0.0009,0.3968,-1.2517,-0.0385,0.0026,0.0005,-0.0155,0.003,0.038,51,14.426,0.0,0.12,0.0,0.0,ON,0.01
