timestamp,mode,armed,roll_deg,pitch_deg,yaw_deg,rollspeed,pitchspeed,yawspeed,x,y,z,vx,vy,vz,speed_h,altitude_agl,battery_pct,battery_v,current_a0,current_a1,voltage_s1,voltage_s2,relay,distance_m
2026-03-26 18:08:27.061,POSCTL,False,0.061,-2.604,348.503,-0.0003,-0.0002,0.0004,0.0,-0.0022,-0.0293,-0.0007,0.0006,0.0018,0.001,0.029,95,16.558,0.0,0.0,0.0,0.03,ON,0.01
2026-03-26 18:08:28.064,POSCTL,True,0.065,-2.601,348.509,0.0148,-0.0117,-0.0078,0.0001,-0.0023,-0.0291,0.0008,0.0002,0.0021,0.001,0.029,95,16.543,0.0,0.0,0.0,0.03,ON,0.01
2026-03-26 18:08:29.068,POSCTL,True,0.063,-2.598,348.547,-0.0067,0.0048,0.0008,-0.0001,-0.0029,-0.0289,-0.0004,0.0007,0.0024,0.001,0.029,94,16.535,0.0,0.0,0.0,0.03,ON,0.01
2026-03-26 18:08:30.072,POSCTL,True,0.066,-2.591,348.617,0.0009,0.0159,0.0076,-0.0001,-0.0025,-0.0293,-0.0018,0.0001,0.0013,0.002,0.029,95,16.544,0.0,0.0,0.0,0.03,ON,0.01
2026-03-26 18:08:31.074,POSCTL,True,0.071,-2.601,348.595,0.0065,-0.0002,-0.0048,-0.0001,-0.003,-0.0297,-0.0003,-0.0016,0.0005,0.002,0.03,95,16.556,0.0,0.0,0.0,0.03,ON,0.01
2026-03-26 18:08:32.078,AUTO.SUB_0,True,-0.709,-1.23,341.39,0.0133,0.0506,-0.0415,-0.0356,0.0271,-0.72,-0.0843,0.0563,-1.3407,0.101,0.72,81,15.795,0.0,0.0,0.0,0.03,ON,0.69
2026-03-26 18:08:33.081,PX4_0,False,-0.82,-1.255,336.229,0.0308,-0.0379,-0.0081,-0.0491,0.0595,-1.2467,-0.0337,0.0732,-0.3513,0.081,1.247,78,15.654,0.0,0.0,0.0,0.03,ON,1.26
2026-03-26 18:08:34.084,AUTO.SUB_0,True,-0.76,-2.146,329.125,0.0434,0.0291,0.0003,-0.1118,0.1377,-1.5007,-0.0018,0.0127,-0.1588,0.013,1.501,74,15.43,0.0,0.0,0.0,0.03,ON,1.5
2026-03-26 18:08:35.085,AUTO.SUB_0,True,-0.702,-2.211,346.041,-0.052,0.0029,-0.0071,-0.1845,0.1657,-1.6139,0.0312,-0.0917,-0.0731,0.097,1.614,72,15.347,0.0,0.0,0.0,0.03,ON,1.6
2026-03-26 18:08:36.088,AUTO.SUB_0,True,-0.499,-2.569,346.078,0.0004,0.0555,-0.0178,-0.261,0.146,-1.6612,0.1167,-0.1102,-0.0316,0.161,1.661,71,15.305,0.0,0.0,0.0,0.03,ON,1.65
2026-03-26 18:08:37.090,PX4_0,False,-0.418,-2.122,345.943,-0.0941,-0.0756,-0.0223,-0.2489,0.1142,-1.6701,0.1597,-0.1174,-0.0134,0.198,1.67,70,15.278,0.0,0.0,0.0,0.03,ON,1.66
2026-03-26 18:08:38.094,AUTO.SUB_0,True,-0.261,-0.952,345.645,0.0611,0.0206,-0.0092,-0.0906,0.0607,-1.6754,0.1246,-0.0822,-0.0091,0.149,1.675,69,15.226,0.0,0.0,0.0,0.03,ON,1.66
2026-03-26 18:08:39.097,OFFBOARD,True,0.285,0.581,347.649,-0.053,-0.0446,0.1134,0.0024,0.0145,-1.6618,0.0105,0.0039,0.0143,0.011,1.662,69,15.206,0.0,0.0,0.0,0.03,ON,1.66
2026-03-26 18:08:40.099,OFFBOARD,True,0.515,-1.145,351.96,0.0975,-0.0186,0.0447,-0.0024,0.0047,-1.6531,-0.1131,0.0648,0.0042,0.13,1.653,68,15.178,0.0,0.0,0.0,0.03,ON,1.65
2026-03-26 18:08:41.101,PX4_0,False,-0.142,-1.629,353.5,-0.0733,-0.0176,0.0067,-0.012,0.0396,-1.6555,-0.0064,0.0884,0.0038,0.089,1.655,68,15.16,0.0,0.0,0.0,0.03,ON,1.65
2026-03-26 18:08:42.106,OFFBOARD,True,0.042,-1.587,354.03,-0.0582,-0.0669,-0.0082,0.0449,0.0647,-1.657,0.0563,-0.01,-0.0012,0.057,1.657,68,15.14,0.0,0.0,0.0,0.03,ON,1.65
2026-03-26 18:08:43.109,OFFBOARD,True,-0.147,-0.644,353.722,0.0113,0.0267,0.0335,0.1524,0.0605,-1.6483,0.044,-0.0319,0.0039,0.054,1.648,67,15.112,0.0,0.0,0.0,0.03,ON,1.63
2026-03-26 18:08:44.118,OFFBOARD,True,0.33,-1.224,353.823,0.0224,-0.0926,-0.0036,0.193,0.0245,-1.6528,-0.0254,-0.0298,-0.0158,0.039,1.653,66,15.083,0.0,0.0,0.0,0.03,ON,1.65
2026-03-26 18:08:45.123,OFFBOARD,True,0.213,-1.625,354.042,-0.0189,0.0023,-0.026,0.1854,-0.0064,-1.6594,0.0114,0.0009,0.0037,0.011,1.659,66,15.086,0.0,0.0,0.0,0.03,ON,1.66
2026-03-26 18:08:46.127,OFFBOARD,True,-0.428,-1.824,353.866,0.0213,-0.0505,0.0063,0.1951,0.0145,-1.6603,0.0552,0.0264,0.0034,0.061,1.66,66,15.081,0.0,0.0,0.0,0.03,ON,1.66
2026-03-26 18:08:47.132,OFFBOARD,True,-0.249,-1.218,354.135,-0.0105,0.0448,0.0167,0.2692,-0.01,-1.6636,0.0713,-0.0293,0.0028,0.077,1.664,66,15.068,0.0,0.0,0.0,0.03,ON,1.66
2026-03-26 18:08:48.141,OFFBOARD,True,0.033,-0.937,354.536,-0.0679,-0.0451,-0.0081,0.3207,-0.0248,-1.6571,0.0221,-0.0436,0.0028,0.049,1.657,66,15.057,0.0,0.0,0.0,0.03,ON,1.65
2026-03-26 18:08:49.145,OFFBOARD,True,0.435,-1.581,354.702,0.1361,-0.1201,-0.0016,0.3244,-0.0579,-2.3657,-0.0259,-0.0397,-1.4462,0.047,2.366,62,14.857,0.0,0.0,0.0,0.03,ON,2.05
2026-03-26 18:08:50.148,OFFBOARD,True,0.654,-1.486,355.14,-0.0257,0.0375,-0.0242,0.275,-0.1239,-3.2842,-0.0058,0.0278,-0.2938,0.028,3.284,65,15.031,0.0,0.0,0.0,0.03,ON,3.22
2026-03-26 18:08:51.154,PX4_0,False,-0.121,-1.616,354.946,-0.0116,0.0101,0.0133,0.2714,-0.0967,-3.3721,0.0082,0.065,-0.1568,0.066,3.372,66,15.051,0.0,0.0,0.0,0.03,ON,3.41
2026-03-26 18:08:52.158,PX4_0,False,-0.951,-1.485,355.447,0.0511,-0.0001,-0.0073,0.3416,0.0065,-3.4716,0.0762,-0.0864,-0.0262,0.115,3.472,65,15.037,0.0,0.0,0.0,0.03,ON,3.48
2026-03-26 18:08:53.161,PX4_0,False,-0.951,-1.485,355.447,0.0511,-0.0001,-0.0073,0.3416,0.0065,-3.4716,0.0762,-0.0864,-0.0262,0.115,3.472,65,15.02,0.0,0.0,0.0,0.03,ON,3.49
2026-03-26 18:08:54.163,OFFBOARD,True,0.207,-0.927,356.589,-0.0428,-0.0428,0.0,0.4899,-0.1429,-3.4992,-0.0558,-0.0343,0.0077,0.065,3.499,65,15.011,0.0,0.0,0.0,0.03,ON,3.5
2026-03-26 18:08:55.166,OFFBOARD,True,0.13,-0.816,357.714,0.0535,0.0634,0.0371,0.5175,-0.1548,-3.4936,-0.1061,-0.0185,-0.0016,0.108,3.494,65,15.0,0.0,0.0,0.0,0.03,ON,3.48
2026-03-26 18:08:56.168,OFFBOARD,True,0.13,-0.816,357.714,0.0535,0.0634,0.0371,0.5064,-0.1551,-3.4919,-0.1222,-0.0178,-0.0024,0.123,3.492,65,14.996,0.0,0.0,0.0,0.03,ON,3.47
2026-03-26 18:08:57.172,OFFBOARD,True,0.084,-1.475,358.899,0.0208,-0.025,-0.0064,0.4413,-0.1609,-3.4839,-0.0843,-0.0343,-0.0135,0.091,3.484,64,14.972,0.0,0.0,0.0,0.03,ON,3.47
2026-03-26 18:08:58.175,OFFBOARD,True,-0.087,-1.208,359.049,0.032,0.0862,0.0251,0.4392,-0.1628,-3.4849,-0.0688,-0.0392,-0.0132,0.079,3.485,64,14.97,0.0,0.0,0.0,0.03,ON,3.5
2026-03-26 18:08:59.179,PX4_0,False,-0.087,-0.707,358.957,0.0163,0.0658,-0.0006,0.5207,-0.146,-3.5059,-0.0687,-0.0608,0.0077,0.092,3.506,64,14.973,0.0,0.0,0.0,0.03,ON,3.51
2026-03-26 18:09:00.182,OFFBOARD,True,0.302,-0.748,359.197,0.0013,-0.06,-0.0239,0.5348,-0.1872,-3.5085,-0.0975,-0.0353,0.0079,0.104,3.509,64,14.967,0.0,0.0,0.0,0.03,ON,3.51
2026-03-26 18:09:01.185,OFFBOARD,True,0.408,-1.629,359.74,0.0066,0.0622,0.0309,0.4769,-0.2237,-3.4991,-0.0926,0.0051,0.0082,0.093,3.499,64,14.97,0.0,0.0,0.0,0.03,ON,3.48
2026-03-26 18:09:02.187,OFFBOARD,True,-0.014,-2.025,359.927,-0.0287,0.1076,0.0168,0.3887,-0.1947,-3.4898,0.0238,0.0235,-0.0036,0.033,3.49,64,14.968,0.0,0.0,0.0,0.03,ON,3.49
2026-03-26 18:09:03.188,PX4_0,False,0.018,-1.796,0.194,-0.0158,0.0944,0.0377,0.4036,-0.1987,-3.4987,0.0869,-0.0086,-0.0006,0.087,3.499,64,14.957,0.0,0.0,0.0,0.03,ON,3.51
2026-03-26 18:09:04.191,OFFBOARD,True,0.01,-1.331,0.216,0.0273,-0.0126,0.0068,0.4593,-0.1935,-3.5086,0.0805,0.0023,0.0097,0.081,3.509,64,14.946,0.0,0.0,0.0,0.03,ON,3.52
2026-03-26 18:09:05.194,OFFBOARD,True,0.038,-0.87,359.968,-0.0032,-0.0782,-0.0345,0.5174,-0.2019,-3.5117,0.0558,-0.0168,0.0081,0.058,3.512,63,14.941,0.0,0.0,0.0,0.03,ON,3.52
2026-03-26 18:09:06.198,PX4_0,False,-0.113,-1.023,0.139,0.0764,-0.0474,0.0229,0.5283,-0.2,-3.5118,0.0393,0.0014,0.0073,0.039,3.512,63,14.933,0.0,0.0,0.0,0.03,ON,3.5
2026-03-26 18:09:07.204,OFFBOARD,True,0.555,-2.069,0.495,-0.0457,-0.1108,-0.0299,0.4457,-0.2743,-3.4918,0.0192,0.0238,0.0036,0.031,3.492,63,14.915,0.0,0.0,0.0,0.03,ON,3.47
2026-03-26 18:09:08.205,OFFBOARD,True,-0.386,-2.085,0.267,-0.0695,0.1063,0.0158,0.4045,-0.1776,-3.4775,0.1269,0.0015,-0.01,0.127,3.478,63,14.911,0.0,0.0,0.0,0.03,ON,3.48
2026-03-26 18:09:09.207,OFFBOARD,True,-0.321,-1.792,0.477,0.0559,-0.1227,-0.0083,0.4446,-0.1546,-3.4896,0.1598,-0.0928,-0.0004,0.185,3.49,63,14.914,0.0,0.0,0.0,0.03,ON,3.49
2026-03-26 18:09:10.212,PX4_0,False,-0.195,-1.507,0.606,-0.0204,-0.0032,-0.0009,0.4654,-0.1593,-3.4915,0.16,-0.0909,0.0009,0.184,3.491,63,14.914,0.0,0.0,0.0,0.03,ON,3.51
2026-03-26 18:09:11.214,PX4_0,False,-0.195,-1.507,0.606,-0.0204,-0.0032,-0.0009,0.4654,-0.1593,-3.4915,0.16,-0.0909,0.0009,0.184,3.491,63,14.914,0.0,0.0,0.0,0.03,ON,3.51
2026-03-26 18:09:12.218,PX4_0,False,0.255,-1.012,1.221,0.0405,-0.1148,0.014,0.6194,-0.2492,-3.506,-0.013,0.0103,0.0082,0.017,3.506,63,14.914,0.0,0.0,0.0,0.03,ON,3.49
2026-03-26 18:09:13.220,OFFBOARD,True,0.298,-0.951,1.647,-0.0282,-0.0938,-0.0338,0.6318,-0.2694,-3.4942,-0.0323,0.0077,-0.009,0.033,3.494,63,14.902,0.0,0.0,0.0,0.03,ON,3.49
2026-03-26 18:09:14.222,OFFBOARD,True,0.451,-0.838,0.806,-0.0372,-0.0122,-0.0321,0.6477,-0.2688,-3.4976,-0.0466,-0.0011,-0.0121,0.047,3.498,63,14.906,0.0,0.0,0.0,0.03,ON,3.5
2026-03-26 18:09:15.225,OFFBOARD,True,0.313,-0.819,1.085,0.0414,-0.0772,0.0079,0.6763,-0.2616,-3.4998,-0.078,0.0089,0.0069,0.079,3.5,63,14.902,0.0,0.0,0.0,0.03,ON,3.49
2026-03-26 18:09:16.230,OFFBOARD,True,0.067,-0.451,1.207,-0.0133,0.0164,-0.0267,0.7122,-0.2551,-3.4983,-0.1248,0.0077,0.0061,0.125,3.498,62,14.892,0.0,0.0,0.0,0.03,ON,3.49
2026-03-26 18:09:17.233,PX4_0,False,0.305,-0.534,1.227,-0.0624,0.0254,-0.0028,0.6859,-0.2812,-3.5001,-0.1567,-0.0121,-0.0064,0.157,3.5,62,14.873,0.0,0.0,0.0,0.03,ON,3.51
2026-03-26 18:09:18.234,OFFBOARD,True,0.392,-1.005,2.119,-0.0544,-0.0615,-0.0158,0.6445,-0.2751,-3.5013,-0.1323,0.0287,0.0053,0.135,3.501,62,14.893,0.0,0.0,0.0,0.03,ON,3.49
2026-03-26 18:09:19.236,OFFBOARD,True,-0.229,-0.827,1.768,-0.0129,0.0032,0.0071,0.638,-0.2481,-3.501,-0.1324,0.0132,0.0095,0.133,3.501,62,14.885,0.0,0.0,0.0,0.03,ON,3.5
2026-03-26 18:09:20.238,OFFBOARD,True,0.354,-0.49,1.263,0.0075,-0.0468,0.0022,0.643,-0.2862,-3.4962,-0.1219,-0.0127,0.0066,0.123,3.496,62,14.882,0.0,0.0,0.0,0.03,ON,3.49
2026-03-26 18:09:21.240,OFFBOARD,True,0.395,-0.456,1.402,0.001,-0.062,-0.0149,0.658,-0.3146,-3.4997,-0.1379,0.0292,-0.0059,0.141,3.5,62,14.873,0.0,0.0,0.0,0.03,ON,3.5
2026-03-26 18:09:22.244,OFFBOARD,True,0.421,-0.37,1.463,-0.0164,-0.0426,-0.0206,0.658,-0.3146,-3.4997,-0.1379,0.0292,-0.0059,0.141,3.5,62,14.875,0.0,0.0,0.0,0.03,ON,3.5
2026-03-26 18:09:23.245,OFFBOARD,True,0.421,-0.37,1.463,-0.0164,-0.0426,-0.0206,0.6282,-0.3021,-3.5061,-0.1316,0.0331,0.0117,0.136,3.506,62,14.875,0.0,0.0,0.0,0.03,ON,3.5
2026-03-26 18:09:24.249,OFFBOARD,True,0.421,-0.37,1.463,-0.0164,-0.0426,-0.0206,0.6282,-0.3021,-3.5061,-0.1316,0.0331,0.0117,0.136,3.506,62,14.859,0.0,0.0,0.0,0.03,ON,3.5
2026-03-26 18:09:25.252,OFFBOARD,True,0.235,-1.18,1.504,0.0546,0.0141,-0.0175,0.5225,-0.2973,-3.4953,-0.061,-0.022,-0.0047,0.065,3.495,62,14.865,0.0,0.0,0.0,0.03,ON,3.5
2026-03-26 18:09:26.256,OFFBOARD,True,0.121,-1.039,1.34,-0.0027,0.0595,0.031,0.5157,-0.2891,-3.4983,-0.0355,-0.0206,0.0054,0.041,3.498,62,14.863,0.0,0.0,0.0,0.03,ON,3.5
2026-03-26 18:09:27.259,OFFBOARD,True,0.326,-0.719,1.36,0.0481,-0.063,-0.0168,0.542,-0.3102,-3.4989,-0.005,-0.0443,0.0029,0.045,3.499,61,14.844,0.0,0.0,0.0,0.03,ON,3.5
2026-03-26 18:09:28.264,OFFBOARD,True,0.345,-0.583,1.926,0.0725,0.0359,-0.013,0.5745,-0.3367,-3.5039,-0.0312,-0.03,0.0092,0.043,3.504,61,14.844,0.0,0.0,0.0,0.03,ON,3.51
2026-03-26 18:09:29.269,OFFBOARD,True,0.966,-0.381,2.429,-0.0567,-0.032,-0.0117,0.6217,-0.3918,-3.5122,-0.0694,-0.0256,0.0034,0.074,3.512,61,14.84,0.0,0.0,0.0,0.03,ON,3.51
2026-03-26 18:09:30.271,OFFBOARD,True,0.864,-0.895,2.535,0.0654,-0.11,-0.0057,0.6185,-0.3992,-3.5041,-0.1097,0.0264,0.0057,0.113,3.504,61,14.836,0.0,0.0,0.0,0.03,ON,3.49
2026-03-26 18:09:31.273,OFFBOARD,True,0.659,-1.651,2.566,-0.0266,0.0578,0.0188,0.5318,-0.3887,-3.4945,-0.0783,0.0256,-0.0082,0.082,3.494,61,14.837,0.0,0.0,0.0,0.03,ON,3.48
2026-03-26 18:09:32.275,OFFBOARD,True,0.17,-1.385,2.333,0.0278,0.0799,-0.0071,0.5181,-0.3463,-3.4993,-0.0016,0.0185,-0.014,0.019,3.499,61,14.841,0.0,0.0,0.0,0.03,ON,3.51
2026-03-26 18:09:33.282,OFFBOARD,True,0.11,-0.867,1.588,-0.0285,-0.05,-0.0052,0.5548,-0.3358,-3.5126,-0.0007,-0.0256,0.0118,0.026,3.513,61,14.846,0.0,0.0,0.0,0.03,ON,3.52
2026-03-26 18:09:34.286,OFFBOARD,True,-0.149,-0.884,2.109,-0.0297,0.0532,-0.0438,0.5882,-0.3327,-3.5075,-0.0321,-0.0499,0.0205,0.059,3.507,61,14.843,0.0,0.0,0.0,0.03,ON,3.51
2026-03-26 18:09:35.288,OFFBOARD,True,0.234,-0.788,1.532,-0.0345,-0.1011,-0.0426,0.5996,-0.3834,-3.503,-0.0495,-0.0405,0.0126,0.064,3.503,62,14.847,0.0,0.0,0.0,0.03,ON,3.48
2026-03-26 18:09:36.289,OFFBOARD,True,0.9,-0.793,1.0,0.0007,0.0783,-0.0023,0.6105,-0.5009,-3.4959,-0.0409,0.0523,-0.01,0.066,3.496,61,14.84,0.0,0.0,0.0,0.03,ON,3.5
2026-03-26 18:09:37.296,PX4_0,False,1.036,-0.335,2.142,0.0203,0.0854,0.0206,0.6555,-0.4966,-3.5167,-0.0534,0.055,0.0071,0.077,3.517,62,14.852,0.0,0.0,0.0,0.03,ON,3.53
2026-03-26 18:09:38.302,OFFBOARD,True,0.403,-0.34,1.541,0.0511,0.0399,0.0075,0.6521,-0.4316,-3.5211,-0.1089,0.0334,0.0135,0.114,3.521,61,14.847,0.0,0.0,0.0,0.03,ON,3.51
2026-03-26 18:09:39.305,OFFBOARD,True,0.365,-1.586,1.077,0.025,0.052,0.0196,0.5403,-0.4143,-3.5072,-0.0969,0.0061,0.0073,0.097,3.507,61,14.838,0.0,0.0,0.0,0.03,ON,3.48
2026-03-26 18:09:40.308,PX4_0,False,0.141,-1.574,1.053,0.0339,0.0737,0.0031,0.486,-0.4004,-3.487,0.0341,0.0008,-0.0036,0.034,3.487,61,14.835,0.0,0.0,0.0,0.03,ON,3.47
2026-03-26 18:09:41.315,OFFBOARD,True,-0.176,-0.536,0.678,0.022,0.0018,0.0323,0.5927,-0.3724,-3.4943,0.058,-0.0594,-0.0069,0.083,3.494,61,14.816,0.0,0.0,0.0,0.03,ON,3.5
2026-03-26 18:09:42.318,OFFBOARD,True,0.075,-0.564,1.625,0.0121,0.1121,0.0051,0.6447,-0.3867,-3.5118,-0.0287,-0.1095,0.0063,0.113,3.512,61,14.821,0.0,0.0,0.0,0.03,ON,3.51
2026-03-26 18:09:43.322,OFFBOARD,True,0.918,-1.045,1.605,0.0433,-0.0005,0.0237,0.6105,-0.4835,-3.5032,-0.0369,-0.094,0.0082,0.101,3.503,61,14.815,0.0,0.0,0.0,0.03,ON,3.49
2026-03-26 18:09:44.325,OFFBOARD,True,0.606,-1.755,1.492,0.062,0.0629,0.0193,0.5626,-0.5329,-3.4876,0.0128,0.0118,-0.0049,0.017,3.488,61,14.815,0.0,0.0,0.0,0.03,ON,3.49
2026-03-26 18:09:45.332,OFFBOARD,True,0.263,-1.131,1.571,-0.0122,0.1028,0.0134,0.5663,-0.5034,-3.4946,0.0683,-0.0112,-0.0067,0.069,3.495,61,14.809,0.0,0.0,0.0,0.03,ON,3.49
2026-03-26 18:09:46.338,OFFBOARD,True,0.372,-0.906,1.318,0.0783,0.018,-0.0135,0.6044,-0.5004,-3.5085,0.0664,-0.0373,0.003,0.076,3.509,61,14.816,0.0,0.0,0.0,0.03,ON,3.51
2026-03-26 18:09:47.342,OFFBOARD,True,0.113,-1.319,0.638,-0.0308,-0.0591,-0.0393,0.6082,-0.5045,-3.5079,0.0227,-0.0389,0.0098,0.045,3.508,61,14.813,0.0,0.0,0.0,0.03,ON,3.5
2026-03-26 18:09:48.347,OFFBOARD,True,0.213,-1.447,1.075,0.0744,0.0416,0.0094,0.5907,-0.5264,-3.5003,0.0432,-0.0418,0.0021,0.06,3.5,61,14.811,0.0,0.0,0.0,0.03,ON,3.49
2026-03-26 18:09:49.353,OFFBOARD,True,0.491,-1.387,1.034,0.0619,-0.0132,-0.0201,0.5822,-0.5632,-3.4943,0.072,-0.0339,-0.0009,0.08,3.494,61,14.808,0.0,0.0,0.0,0.03,ON,3.49
2026-03-26 18:09:50.357,OFFBOARD,True,0.58,-1.441,1.433,-0.1199,-0.0298,-0.0201,0.5844,-0.609,-3.498,0.0914,0.0095,-0.0036,0.092,3.498,61,14.802,0.0,0.0,0.0,0.03,ON,3.5
2026-03-26 18:09:51.362,OFFBOARD,True,0.095,-1.336,1.247,-0.0575,-0.0113,-0.0288,0.5915,-0.5885,-3.5065,0.1045,0.0381,0.0002,0.111,3.506,60,14.791,0.0,0.0,0.0,0.03,ON,3.51
2026-03-26 18:09:52.367,OFFBOARD,True,0.0,0.0,0.0,0,0,0,0.6346,-0.5913,-3.5088,0.1125,-0.0135,-0.0016,0.113,3.509,60,14.796,0.0,0.0,0.0,0.03,ON,3.52
2026-03-26 18:09:53.373,OFFBOARD,True,0.763,-0.78,1.023,-0.0246,0.0004,0.001,0.6995,-0.6437,-3.5163,0.0509,0.0018,0.0064,0.051,3.516,60,14.797,0.0,0.0,0.0,0.03,ON,3.51
2026-03-26 18:09:54.381,PX4_0,False,0.393,-1.0,1.507,0.0436,-0.0223,-0.0056,0.6936,-0.6433,-3.5073,0.0235,0.0392,0.0063,0.046,3.507,61,14.8,0.0,0.0,0.0,0.03,ON,3.49
2026-03-26 18:09:55.390,OFFBOARD,True,0.035,-1.09,1.534,0.0171,0.0316,-0.0018,0.6957,-0.6066,-3.4946,0.0276,0.0439,0.0004,0.052,3.495,60,14.778,0.0,0.0,0.0,0.03,ON,3.49
2026-03-26 18:09:56.395,OFFBOARD,True,0.436,-0.545,1.237,-0.0184,-0.0696,-0.0027,0.7572,-0.6502,-3.5053,-0.0145,0.0107,0.0018,0.018,3.505,60,14.78,0.0,0.0,0.0,0.03,ON,3.51
2026-03-26 18:09:57.407,OFFBOARD,True,0.618,-0.664,1.866,0.0146,0.0141,0.0119,0.7683,-0.6581,-3.5061,-0.043,0.0033,0.007,0.043,3.506,60,14.775,0.0,0.0,0.0,0.03,ON,3.5
2026-03-26 18:09:58.409,OFFBOARD,True,0.271,-0.568,1.752,-0.0585,-0.0864,-0.0366,0.7558,-0.6498,-3.492,-0.0607,0.0467,0.0061,0.077,3.492,60,14.777,0.0,0.0,0.0,0.03,ON,3.49
2026-03-26 18:09:59.413,OFFBOARD,True,0.326,-1.073,1.739,-0.0732,-0.0035,-0.0151,0.7253,-0.644,-3.4873,-0.0628,-0.0012,-0.0008,0.063,3.487,60,14.773,0.0,0.0,0.0,0.03,ON,3.48
2026-03-26 18:10:00.417,OFFBOARD,True,0.351,-1.231,1.479,0.0842,-0.0209,0.0183,0.6955,-0.6589,-3.4854,-0.031,-0.0129,-0.0061,0.034,3.485,60,14.76,0.0,0.0,0.0,0.03,ON,3.47
2026-03-26 18:10:01.428,PX4_0,False,0.286,-1.23,1.615,-0.1101,0.0305,0.017,0.6821,-0.654,-3.4925,-0.0054,0.0031,-0.0104,0.006,3.493,60,14.758,0.0,0.0,0.0,0.03,ON,3.49
2026-03-26 18:10:02.432,OFFBOARD,True,0.194,-0.947,1.615,0.0898,0.0576,0.0244,0.703,-0.6386,-3.5042,0.0085,-0.0394,-0.006,0.04,3.504,60,14.765,0.0,0.0,0.0,0.03,ON,3.51
2026-03-26 18:10:03.436,OFFBOARD,True,0.636,-0.979,1.679,-0.0321,-0.0774,-0.0173,0.7142,-0.6818,-3.5155,-0.0138,-0.047,0.0063,0.049,3.515,60,14.778,0.0,0.0,0.0,0.03,ON,3.52
2026-03-26 18:10:04.441,OFFBOARD,True,0.956,-0.993,1.186,-0.0575,-0.0534,-0.0317,0.7183,-0.7352,-3.5145,-0.0222,-0.009,0.0111,0.024,3.514,60,14.774,0.0,0.0,0.0,0.03,ON,3.51
2026-03-26 18:10:05.443,OFFBOARD,True,0.956,-0.993,1.186,-0.0575,-0.0534,-0.0317,0.7183,-0.7352,-3.5145,-0.0222,-0.009,0.0111,0.024,3.514,60,14.762,0.0,0.0,0.0,0.03,ON,3.49
2026-03-26 18:10:06.446,OFFBOARD,True,-0.157,-1.123,2.201,-0.0875,0.0378,0.0056,0.6982,-0.6759,-3.4989,-0.034,0.0144,-0.004,0.037,3.499,60,14.755,0.0,0.0,0.0,0.03,ON,3.49
2026-03-26 18:10:07.451,OFFBOARD,True,0.092,-1.006,1.723,-0.0572,0.0173,0.0092,0.7043,-0.6758,-3.5008,-0.0163,-0.0476,0.0019,0.05,3.501,60,14.759,0.0,0.0,0.0,0.03,ON,3.5
2026-03-26 18:10:08.454,OFFBOARD,True,0.362,-0.742,2.36,-0.0289,-0.1217,-0.0237,0.7126,-0.7339,-3.5022,-0.0139,-0.0231,0.0079,0.027,3.502,60,14.757,0.0,0.0,0.0,0.03,ON,3.5
2026-03-26 18:10:09.456,OFFBOARD,True,0.299,-0.997,1.677,0.0028,0.0437,0.0011,0.6961,-0.752,-3.5012,-0.0192,0.0018,0.0042,0.019,3.501,60,14.761,0.0,0.0,0.0,0.03,ON,3.5
2026-03-26 18:10:10.462,OFFBOARD,True,0.274,-1.169,1.723,-0.0256,-0.1208,0.0043,0.6575,-0.7513,-3.4979,0.0116,-0.0062,0.0035,0.013,3.498,60,14.76,0.0,0.0,0.0,0.03,ON,3.5
2026-03-26 18:10:11.466,OFFBOARD,True,0.203,-1.518,1.471,-0.0286,0.0445,-0.0066,0.6141,-0.7426,-3.4915,0.0603,-0.0202,-0.0045,0.064,3.491,60,14.753,0.0,0.0,0.0,0.03,ON,3.49
2026-03-26 18:10:12.471,OFFBOARD,True,0.065,-1.145,1.121,-0.0095,0.0808,0.0193,0.6359,-0.7434,-3.5018,0.0851,-0.032,-0.0022,0.091,3.502,59,14.745,0.0,0.0,0.0,0.03,ON,3.51
2026-03-26 18:10:13.479,OFFBOARD,True,0.581,-1.262,1.64,0.0506,-0.094,0.0086,0.6523,-0.7839,-3.5117,0.0736,-0.0611,0.0119,0.096,3.512,59,14.737,0.0,0.0,0.0,0.03,ON,3.51
2026-03-26 18:10:14.482,OFFBOARD,True,0.502,-1.189,1.781,-0.0564,0.016,-0.0018,0.6697,-0.7977,-3.5067,0.0557,-0.0038,0.0107,0.056,3.507,59,14.74,0.0,0.0,0.0,0.03,ON,3.5
2026-03-26 18:10:15.491,PX4_0,False,0.05,-1.676,1.692,0.0612,0.1009,0.0314,0.6389,-0.7789,-3.4971,0.0651,-0.0056,0.0023,0.065,3.497,59,14.735,0.0,0.0,0.0,0.03,ON,3.49
2026-03-26 18:10:16.495,PX4_0,False,0.152,-1.331,1.874,0.0245,0.023,-0.0102,0.6426,-0.7812,-3.4988,0.0982,-0.0362,-0.0051,0.105,3.499,59,14.723,0.0,0.0,0.0,0.03,ON,3.5
2026-03-26 18:10:17.510,PX4_0,False,0.11,-1.014,1.438,-0.0307,-0.0601,-0.0254,0.7012,-0.8143,-3.5002,0.0808,-0.0228,0.0062,0.084,3.5,59,14.715,0.0,0.0,0.0,0.03,ON,3.51
2026-03-26 18:10:18.516,OFFBOARD,True,0.704,-0.624,1.885,-0.0166,-0.0513,0.0278,0.7589,-0.8627,-3.505,0.0275,-0.0302,0.0056,0.041,3.505,59,14.725,0.0,0.0,0.0,0.03,ON,3.5
2026-03-26 18:10:19.523,PX4_0,False,0.678,-0.917,1.861,-0.0497,0.1035,0.0213,0.7611,-0.9007,-3.5012,-0.0229,0.034,-0.0005,0.041,3.501,59,14.72,0.0,0.0,0.0,0.03,ON,3.49
2026-03-26 18:10:20.525,PX4_0,False,0.09,-1.328,2.099,-0.0617,0.0519,0.0494,0.7294,-0.8658,-3.5017,-0.0307,0.0324,-0.0042,0.045,3.502,59,14.709,0.0,0.0,0.0,0.03,ON,3.49
2026-03-26 18:10:21.534,PX4_0,False,-0.064,-1.762,2.089,0.1001,-0.0325,-0.0217,0.6453,-0.8258,-3.4934,0.0146,-0.0036,-0.0066,0.015,3.493,58,14.702,0.0,0.0,0.0,0.03,ON,3.49
2026-03-26 18:10:22.537,PX4_0,False,0.355,-1.046,1.783,0.0452,0.1271,0.0213,0.6712,-0.8513,-3.5002,0.0813,-0.0445,-0.0056,0.093,3.5,58,14.699,0.0,0.0,0.0,0.03,ON,3.51
2026-03-26 18:10:23.541,PX4_0,False,0.499,-0.63,1.841,0.0515,-0.0045,0.0015,0.7665,-0.8904,-3.5136,0.0244,-0.0427,0.0099,0.049,3.514,59,14.703,0.0,0.0,0.0,0.03,ON,3.52
2026-03-26 18:10:24.544,PX4_0,False,0.725,-1.599,1.921,-0.0091,0.0589,0.0057,0.7189,-0.9123,-3.5129,-0.0244,-0.0202,0.0032,0.032,3.513,59,14.707,0.0,0.0,0.0,0.03,ON,3.49
2026-03-26 18:10:25.552,PX4_0,False,0.283,-1.943,1.325,-0.0571,-0.0815,0.0023,0.6292,-0.9182,-3.4974,0.0539,-0.0079,0.0005,0.054,3.497,59,14.722,0.0,0.0,0.0,0.03,ON,3.49
2026-03-26 18:10:26.558,PX4_0,False,0.397,-1.665,1.632,0.077,0.0152,0.0092,0.621,-0.9088,-3.4867,0.1327,-0.0234,0.0053,0.135,3.487,59,14.711,0.0,0.0,0.0,0.03,ON,3.5
2026-03-26 18:10:27.564,PX4_0,False,0.336,-1.149,1.777,-0.0103,0.1073,0.0224,0.6649,-0.9106,-3.4988,0.1419,-0.0274,-0.0046,0.145,3.499,59,14.711,0.0,0.0,0.0,0.03,ON,3.51
2026-03-26 18:10:28.571,PX4_0,False,0.381,-0.61,2.001,0.0418,-0.0821,0.0036,0.7418,-0.9159,-3.5152,0.0976,-0.0415,-0.0,0.106,3.515,59,14.71,0.0,0.0,0.0,0.03,ON,3.52
2026-03-26 18:10:29.573,PX4_0,False,0.778,-1.06,1.589,-0.0131,0.0362,0.0174,0.7422,-0.9453,-3.512,0.0329,-0.0431,0.0215,0.054,3.512,59,14.722,0.0,0.0,0.0,0.03,ON,3.5
2026-03-26 18:10:30.575,PX4_0,False,0.77,-1.451,1.76,-0.0012,0.0462,0.0081,0.7224,-0.9834,-3.4803,0.0487,-0.0232,-0.0102,0.054,3.48,59,14.724,0.0,0.0,0.0,0.03,ON,3.46
2026-03-26 18:10:31.579,PX4_0,False,0.711,-1.017,1.434,0.0226,-0.0648,-0.0126,0.7426,-0.9917,-3.4817,0.0585,0.0385,-0.0164,0.07,3.482,59,14.724,0.0,0.0,0.0,0.03,ON,3.49
2026-03-26 18:10:32.583,PX4_0,False,0.711,-1.017,1.434,0.0226,-0.0648,-0.0126,0.7672,-0.9882,-3.4932,0.0425,0.0234,-0.0054,0.049,3.493,59,14.724,0.0,0.0,0.0,0.03,ON,3.51
2026-03-26 18:10:33.584,OFFBOARD,True,0.63,-0.985,2.044,0.0183,-0.0372,-0.0091,0.8029,-0.9837,-3.499,-0.0329,0.0236,0.0033,0.04,3.499,59,14.705,0.0,0.0,0.0,0.03,ON,3.5
2026-03-26 18:10:34.589,PX4_0,False,0.44,-1.087,2.082,0.0861,-0.0195,0.007,0.8019,-0.9721,-3.4995,-0.0358,0.0167,-0.0025,0.04,3.499,58,14.701,0.0,0.0,0.0,0.03,ON,3.49
2026-03-26 18:10:35.590,PX4_0,False,0.76,-0.861,1.678,-0.041,0.0585,-0.0092,0.798,-0.9891,-3.5026,-0.0266,-0.0266,-0.0083,0.038,3.503,58,14.695,0.0,0.0,0.0,0.03,ON,3.51
2026-03-26 18:10:36.594,PX4_0,False,0.921,-1.387,0.959,0.0414,0.0112,-0.0016,0.7278,-0.9958,-3.5095,-0.0142,-0.0484,0.0088,0.05,3.51,58,14.702,0.0,0.0,0.0,0.03,ON,3.5
2026-03-26 18:10:37.599,PX4_0,False,0.948,-2.696,0.97,-0.0129,0.0299,0.0127,0.543,-0.9861,-3.489,0.0841,-0.0727,-0.0025,0.111,3.489,58,14.695,0.0,0.0,0.0,0.03,ON,3.48
2026-03-26 18:10:38.603,PX4_0,False,0.34,-2.494,1.292,-0.1137,-0.0986,-0.0193,0.51,-0.934,-3.4903,0.2546,-0.0503,-0.0124,0.26,3.49,58,14.682,0.0,0.0,0.0,0.03,ON,3.49
2026-03-26 18:10:39.606,OFFBOARD,True,-0.256,-2.083,1.887,-0.0957,0.0905,0.0265,0.5442,-0.8915,-3.4984,0.2863,-0.0867,-0.012,0.299,3.498,58,14.688,0.0,0.0,0.0,0.03,ON,3.5
2026-03-26 18:10:40.609,PX4_0,False,0.273,-0.553,2.151,-0.0624,0.0135,-0.0152,0.7785,-0.9159,-3.5154,0.1298,-0.1454,0.0142,0.195,3.515,58,14.691,0.0,0.0,0.0,0.03,ON,3.52
2026-03-26 18:10:41.613,PX4_0,False,1.116,-0.817,1.865,0.0056,-0.0418,0.009,0.8327,-1.0406,-3.5064,0.0112,-0.0988,0.004,0.099,3.506,58,14.694,0.0,0.0,0.0,0.03,ON,3.49
2026-03-26 18:10:42.616,OFFBOARD,True,1.668,-0.782,1.764,0.0753,-0.0457,-0.0472,0.8488,-1.1152,-3.5011,-0.016,-0.0623,0.0,0.064,3.501,58,14.69,0.0,0.0,0.0,0.03,ON,3.48
2026-03-26 18:10:43.621,PX4_0,False,0.651,-0.743,1.901,-0.0645,0.0583,0.0029,0.8772,-1.1217,-3.4948,-0.1078,0.1761,0.0031,0.206,3.495,58,14.693,0.0,0.0,0.0,0.03,ON,3.49
2026-03-26 18:10:44.624,PX4_0,False,0.267,-0.907,1.51,0.0288,0.0419,-0.0139,0.859,-1.0505,-3.4906,-0.1193,0.0674,0.0043,0.137,3.491,58,14.686,0.0,0.0,0.0,0.03,ON,3.49
2026-03-26 18:10:45.626,PX4_0,False,0.613,-0.721,1.905,0.0003,-0.039,-0.0014,0.8479,-1.0508,-3.4954,-0.1169,0.0397,-0.0032,0.123,3.495,58,14.688,0.0,0.0,0.0,0.03,ON,3.49
2026-03-26 18:10:46.630,PX4_0,False,0.722,-0.632,1.642,-0.0182,-0.0601,-0.0051,0.8448,-1.056,-3.4979,-0.1329,0.0435,0.0058,0.14,3.498,58,14.692,0.0,0.0,0.0,0.03,ON,3.49
2026-03-26 18:10:47.634,PX4_0,False,0.693,-1.146,1.476,-0.0218,0.0663,0.0176,0.8292,-1.0464,-3.4979,-0.1411,0.0427,-0.0034,0.147,3.498,58,14.685,0.0,0.0,0.0,0.03,ON,3.5
2026-03-26 18:10:48.637,PX4_0,False,0.613,-1.038,0.883,0.0237,0.0044,-0.0209,0.7767,-1.0359,-3.5104,-0.0758,0.0196,-0.0067,0.078,3.51,58,14.681,0.0,0.0,0.0,0.03,ON,3.5
2026-03-26 18:10:49.640,PX4_0,False,0.286,-0.59,1.137,-0.0029,-0.1024,0.0161,0.8163,-1.0197,-3.5076,-0.1103,0.0284,0.0083,0.114,3.508,58,14.68,0.0,0.0,0.0,0.03,ON,3.5
2026-03-26 18:10:50.645,PX4_0,False,0.493,-0.751,1.755,0.0562,-0.0162,0.0035,0.8145,-1.0298,-3.5015,-0.1363,-0.0063,0.0045,0.136,3.502,58,14.669,0.0,0.0,0.0,0.03,ON,3.49
2026-03-26 18:10:51.652,OFFBOARD,True,0.542,-1.102,1.865,-0.0201,0.0962,0.025,0.7766,-1.0555,-3.5041,-0.1508,0.0325,0.0,0.154,3.504,58,14.666,0.0,0.0,0.0,0.03,ON,3.5
2026-03-26 18:10:52.655,PX4_0,False,0.677,-0.694,2.476,0.0225,-0.0417,-0.041,0.7919,-1.0793,-3.4974,-0.1265,0.027,0.009,0.129,3.497,58,14.67,0.0,0.0,0.0,0.03,ON,3.5
2026-03-26 18:10:53.658,PX4_0,False,0.488,-0.027,2.286,0.0578,-0.0317,0.0248,0.8795,-1.0679,-3.5023,-0.1893,0.0197,0.0075,0.19,3.502,58,14.667,0.0,0.0,0.0,0.03,ON,3.51
2026-03-26 18:10:54.662,PX4_0,False,0.077,-0.013,1.853,-0.0598,-0.0559,-0.0377,0.9113,-1.0324,-3.503,-0.2762,0.0219,0.0054,0.277,3.503,58,14.668,0.0,0.0,0.0,0.03,ON,3.5
2026-03-26 18:10:55.666,PX4_0,False,0.639,-0.276,2.385,0.0172,0.0867,0.0372,0.8944,-1.0712,-3.4973,-0.3197,-0.0152,-0.0007,0.32,3.497,58,14.659,0.0,0.0,0.0,0.03,ON,3.5
2026-03-26 18:10:56.672,PX4_0,False,0.821,-0.659,3.195,0.0722,0.0079,0.0082,0.8231,-1.1419,-3.4992,-0.3145,0.046,-0.0002,0.318,3.499,58,14.661,0.0,0.0,0.0,0.03,ON,3.49
2026-03-26 18:10:57.674,PX4_0,False,0.541,-0.897,3.171,-0.0582,-0.0852,-0.0229,0.7814,-1.1128,-3.5005,-0.2732,0.0767,0.002,0.284,3.501,58,14.664,0.0,0.0,0.0,0.03,ON,3.5
2026-03-26 18:10:58.676,PX4_0,False,0.504,-0.565,2.461,0.0489,-0.076,-0.0084,0.7547,-1.1143,-3.5017,-0.2157,0.0214,0.0024,0.217,3.502,58,14.663,0.0,0.0,0.0,0.03,ON,3.5
2026-03-26 18:10:59.683,PX4_0,False,0.543,-1.318,3.02,0.0423,-0.0225,-0.0346,0.7005,-1.1278,-3.5046,-0.1997,0.035,0.0054,0.203,3.505,58,14.659,0.0,0.0,0.0,0.03,ON,3.49
2026-03-26 18:11:00.687,PX4_0,False,0.453,-1.254,2.56,-0.0021,-0.0489,-0.031,0.6418,-1.1133,-3.5014,-0.1212,0.0233,-0.009,0.123,3.501,58,14.656,0.0,0.0,0.0,0.03,ON,3.5
2026-03-26 18:11:01.693,PX4_0,False,0.687,-1.454,2.722,0.1359,0.0243,0.0069,0.5842,-1.1243,-3.5065,-0.0447,0.0294,0.0068,0.054,3.506,58,14.655,0.0,0.0,0.0,0.03,ON,3.51
2026-03-26 18:11:02.699,PX4_0,False,0.449,-1.427,2.511,-0.0469,-0.0662,-0.0033,0.5636,-1.0973,-3.5067,0.0274,-0.0037,0.0044,0.028,3.507,58,14.657,0.0,0.0,0.0,0.03,ON,3.51
2026-03-26 18:11:03.705,PX4_0,False,0.324,-1.565,2.597,-0.0254,0.0462,0.0083,0.5466,-1.09,-3.5037,0.0715,-0.015,0.0151,0.073,3.504,58,14.653,0.0,0.0,0.0,0.03,ON,3.5
2026-03-26 18:11:04.709,PX4_0,False,0.404,-1.495,2.796,0.0687,0.0746,0.0232,0.5593,-1.1057,-3.4996,0.1062,-0.0184,0.0033,0.108,3.5,57,14.64,0.0,0.0,0.0,0.03,ON,3.5
2026-03-26 18:11:05.714,OFFBOARD,True,0.413,-1.416,2.692,-0.0645,0.0757,0.0026,0.578,-1.1249,-3.4999,0.1236,-0.0158,0.0012,0.125,3.5,58,14.654,0.0,0.0,0.0,0.03,ON,3.49
2026-03-26 18:11:06.718,PX4_0,False,0.561,-1.265,2.468,0.1196,0.0199,0.0058,0.6255,-1.1414,-3.4975,0.1066,-0.0181,-0.0012,0.108,3.498,57,14.642,0.0,0.0,0.0,0.03,ON,3.49
2026-03-26 18:11:07.723,PX4_0,False,0.611,-1.779,2.045,-0.0088,-0.0907,-0.0026,0.6171,-1.1478,-3.5031,0.1049,-0.0034,-0.0013,0.105,3.503,57,14.642,0.0,0.0,0.0,0.03,ON,3.5
2026-03-26 18:11:08.726,PX4_0,False,0.769,-1.645,3.306,-0.0466,-0.0651,-0.014,0.6177,-1.1519,-3.4968,0.1399,-0.0203,-0.0036,0.141,3.497,57,14.65,0.0,0.0,0.0,0.03,ON,3.5
2026-03-26 18:11:09.733,PX4_0,False,0.536,-1.188,2.57,-0.0086,0.0367,0.0166,0.6497,-1.1294,-3.5063,0.1478,-0.0212,0.0005,0.149,3.506,58,14.655,0.0,0.0,0.0,0.03,ON,3.51
2026-03-26 18:11:10.736,OFFBOARD,True,0.35,-1.392,1.965,0.0617,0.0715,0.0157,0.6607,-1.0977,-3.5061,0.1451,-0.0441,0.0094,0.152,3.506,57,14.646,0.0,0.0,0.0,0.03,ON,3.5
2026-03-26 18:11:11.740,PX4_0,False,0.629,-2.335,1.29,0.0583,-0.0455,-0.012,0.5914,-1.126,-3.4962,0.1872,-0.085,-0.002,0.206,3.496,57,14.641,0.0,0.0,0.0,0.03,ON,3.48
2026-03-26 18:11:12.742,PX4_0,False,0.601,-1.421,1.089,-0.0316,0.1039,0.0201,0.659,-1.1659,-3.4915,0.2489,-0.0462,-0.0013,0.253,3.491,57,14.637,0.0,0.0,0.0,0.03,ON,3.48
2026-03-26 18:11:13.753,PX4_0,False,0.304,-0.56,1.425,0.005,0.1018,0.0126,0.8047,-1.1569,-3.5053,0.1605,-0.0367,0.0017,0.165,3.505,57,14.636,0.0,0.0,0.0,0.03,ON,3.51
2026-03-26 18:11:14.757,PX4_0,False,0.413,-1.152,1.808,0.0425,-0.1497,-0.0091,0.8101,-1.2228,-3.5071,0.0461,0.0081,0.014,0.047,3.507,57,14.632,0.0,0.0,0.0,0.03,ON,3.5
2026-03-26 18:11:15.759,PX4_0,False,1.082,-2.072,2.583,-0.0583,-0.0569,0.004,0.7515,-1.2947,-3.4912,0.0741,0.0255,-0.0037,0.078,3.491,57,14.624,0.0,0.0,0.0,0.03,ON,3.48
2026-03-26 18:11:16.770,PX4_0,False,0.466,-2.209,3.119,-0.0722,-0.0124,-0.0179,0.7148,-1.2828,-3.4873,0.1362,0.0896,-0.0074,0.163,3.487,57,14.623,0.0,0.0,0.0,0.03,ON,3.49
2026-03-26 18:11:17.773,PX4_0,False,-0.214,-1.524,2.709,0.0128,0.0509,0.0209,0.7781,-1.1947,-3.4935,0.1865,0.0295,-0.0002,0.189,3.494,57,14.617,0.0,0.0,0.0,0.03,ON,3.5
2026-03-26 18:11:18.776,PX4_0,False,-0.046,-1.455,2.723,-0.0926,0.0,-0.0405,0.8412,-1.1897,-3.5083,0.1539,-0.0458,-0.0004,0.161,3.508,57,14.616,0.0,0.0,0.0,0.03,ON,3.52
2026-03-26 18:11:19.783,PX4_0,False,0.469,-0.849,1.516,0.0156,-0.107,-0.0092,0.9378,-1.2138,-3.5197,0.0768,-0.0262,0.0158,0.081,3.52,57,14.616,0.0,0.0,0.0,0.03,ON,3.52
2026-03-26 18:11:20.786,PX4_0,False,0.656,-0.511,2.235,0.0035,0.0762,0.0349,0.9797,-1.2243,-3.5129,-0.0019,-0.0133,0.0197,0.013,3.513,57,14.622,0.0,0.0,0.0,0.03,ON,3.5
2026-03-26 18:11:21.797,PX4_0,False,0.594,-0.855,3.067,-0.0575,0.0728,0.0144,0.975,-1.2268,-3.4999,-0.0451,-0.0204,0.0072,0.049,3.5,57,14.611,0.0,0.0,0.0,0.03,ON,3.49
2026-03-26 18:11:22.804,PX4_0,False,0.404,-1.126,3.076,0.039,-0.0538,-0.0027,0.9643,-1.2313,-3.4903,-0.056,0.0069,-0.0081,0.056,3.49,57,14.61,0.0,0.0,0.0,0.03,ON,3.49
2026-03-26 18:11:23.808,PX4_0,False,0.44,-0.709,2.624,-0.0115,0.1179,0.005,0.9855,-1.2144,-3.4965,-0.0691,0.031,-0.002,0.076,3.497,57,14.61,0.0,0.0,0.0,0.03,ON,3.5
2026-03-26 18:11:24.811,PX4_0,False,0.384,-0.933,2.701,0.0272,0.0179,0.0005,0.9616,-1.2169,-3.4994,-0.1011,-0.0301,0.0018,0.105,3.499,56,14.597,0.0,0.0,0.0,0.03,ON,3.5
2026-03-26 18:11:25.815,OFFBOARD,True,0.915,-1.291,3.14,-0.01,-0.1002,-0.0193,0.916,-1.256,-3.498,-0.0533,-0.0182,-0.0006,0.056,3.498,56,14.596,0.0,0.0,0.0,0.03,ON,3.49
2026-03-26 18:11:26.820,PX4_0,False,0.583,-1.262,2.596,-0.0479,-0.0136,-0.0249,0.9095,-1.2545,-3.496,-0.0205,0.0446,0.0037,0.049,3.496,56,14.603,0.0,0.0,0.0,0.03,ON,3.49
2026-03-26 18:11:27.834,PX4_0,False,-0.121,-1.037,2.769,0.0226,0.0246,0.0222,0.8937,-1.201,-3.4928,-0.0071,0.03,0.0,0.031,3.493,56,14.598,0.0,0.0,0.0,0.03,ON,3.49
2026-03-26 18:11:28.839,PX4_0,False,0.736,-1.299,3.611,0.1019,0.0378,0.0116,0.8762,-1.2222,-3.5069,0.0237,-0.0606,0.0069,0.065,3.507,56,14.604,0.0,0.0,0.0,0.03,ON,3.51
2026-03-26 18:11:29.841,PX4_0,False,0.751,-1.145,3.126,-0.0854,-0.0321,-0.0286,0.8753,-1.2516,-3.509,0.0269,-0.0129,0.009,0.03,3.509,57,14.606,0.0,0.0,0.0,0.03,ON,3.5
2026-03-26 18:11:30.849,PX4_0,False,0.591,-1.983,1.916,0.0564,-0.0387,0.0213,0.8307,-1.2477,-3.5039,0.0373,-0.0184,0.0038,0.042,3.504,57,14.612,0.0,0.0,0.0,0.03,ON,3.49
2026-03-26 18:11:31.853,PX4_0,False,0.74,-2.195,2.517,-0.0282,0.0282,-0.0318,0.7658,-1.2501,-3.4917,0.1424,-0.0114,0.0039,0.143,3.492,56,14.597,0.0,0.0,0.0,0.03,ON,3.48
2026-03-26 18:11:32.856,PX4_0,False,-0.022,-1.733,2.487,-0.005,-0.0268,-0.0023,0.7833,-1.1751,-3.4957,0.2044,-0.0462,-0.0074,0.21,3.496,57,14.607,0.0,0.0,0.0,0.03,ON,3.51
2026-03-26 18:11:33.859,PX4_0,False,0.01,-2.422,2.774,0.0245,-0.0316,-0.0,0.7363,-1.1946,-3.5105,0.1823,-0.1029,0.0116,0.209,3.51,56,14.594,0.0,0.0,0.0,0.03,ON,3.51
2026-03-26 18:11:34.861,PX4_0,False,1.402,-2.22,2.277,-0.0407,-0.0393,-0.0094,0.7003,-1.2933,-3.5087,0.2935,-0.0884,0.0032,0.307,3.509,56,14.598,0.0,0.0,0.0,0.03,ON,3.51
2026-03-26 18:11:35.865,OFFBOARD,True,0.531,-0.556,2.866,0.0364,0.0758,0.0272,0.8867,-1.2723,-3.5065,0.2806,0.0044,0.0087,0.281,3.506,56,14.601,0.0,0.0,0.0,0.03,ON,3.51
2026-03-26 18:11:36.868,OFFBOARD,True,0.44,-0.048,2.954,-0.0561,0.092,0.0157,1.0435,-1.2586,-3.5155,0.0799,-0.0304,0.0079,0.085,3.515,57,14.607,0.0,0.0,0.0,0.03,ON,3.5
2026-03-26 18:11:37.872,PX4_0,False,0.375,-0.417,3.17,-0.039,-0.067,-0.0214,1.0813,-1.2824,-3.495,-0.0678,-0.0203,0.0013,0.071,3.495,56,14.589,0.0,0.0,0.0,0.03,ON,3.48
2026-03-26 18:11:38.883,PX4_0,False,1.169,-0.837,3.537,0.0511,0.0616,0.0119,1.0676,-1.3332,-3.488,-0.1191,0.003,-0.0127,0.119,3.488,56,14.595,0.0,0.0,0.0,0.03,ON,3.48
2026-03-26 18:11:39.887,PX4_0,False,0.37,-1.414,3.142,0.0159,0.0876,0.0008,1.0002,-1.3183,-3.4915,-0.1234,0.0722,-0.0167,0.143,3.491,56,14.595,0.0,0.0,0.0,0.03,ON,3.48
2026-03-26 18:11:40.890,PX4_0,False,0.209,-1.695,3.269,-0.0417,0.0024,-0.0101,0.9428,-1.3119,-3.5004,-0.0889,0.0527,-0.0144,0.103,3.5,56,14.596,0.0,0.0,0.0,0.03,ON,3.5
2026-03-26 18:11:41.891,PX4_0,False,0.391,-1.289,3.38,-0.0694,-0.0646,-0.0258,0.9283,-1.3235,-3.5089,-0.0055,0.019,0.011,0.02,3.509,56,14.581,0.0,0.0,0.0,0.03,ON,3.51
2026-03-26 18:11:42.896,OFFBOARD,True,0.82,-1.274,3.58,0.0032,0.0656,0.0013,0.9279,-1.3413,-3.5095,0.0001,-0.0127,0.0054,0.013,3.51,56,14.578,0.0,0.0,0.0,0.03,ON,3.51
2026-03-26 18:11:43.898,PX4_0,False,0.829,-1.685,4.206,-0.0164,-0.0865,-0.0129,0.8756,-1.3754,-3.4946,0.0066,0.0559,0.0068,0.056,3.495,56,14.582,0.0,0.0,0.0,0.03,ON,3.49
2026-03-26 18:11:44.901,PX4_0,False,0.483,-1.838,2.997,-0.0585,-0.0454,-0.0203,0.8347,-1.3473,-3.492,0.0853,0.0595,-0.0099,0.104,3.492,56,14.58,0.0,0.0,0.0,0.03,ON,3.49
2026-03-26 18:11:45.904,PX4_0,False,-0.09,-1.032,3.123,0.03,-0.0392,0.0135,0.9048,-1.2865,-3.5044,0.1099,0.0094,0.0013,0.11,3.504,56,14.573,0.0,0.0,0.0,0.03,ON,3.52
2026-03-26 18:11:46.907,PX4_0,False,0.084,-0.719,3.701,0.0671,-0.0362,-0.0167,0.9552,-1.2722,-3.5139,0.0609,-0.06,0.0104,0.085,3.514,56,14.568,0.0,0.0,0.0,0.03,ON,3.51
2026-03-26 18:11:47.909,PX4_0,False,0.462,-0.706,3.952,-0.0834,-0.1161,-0.032,0.9894,-1.3085,-3.5087,0.006,-0.0864,0.0039,0.087,3.509,56,14.568,0.0,0.0,0.0,0.03,ON,3.5
2026-03-26 18:11:48.910,PX4_0,False,0.969,-1.043,3.725,0.0585,0.0676,0.0233,0.9731,-1.3868,-3.4991,-0.0391,-0.0501,0.0029,0.064,3.499,56,14.571,0.0,0.0,0.0,0.03,ON,3.49
2026-03-26 18:11:49.915,PX4_0,False,0.329,-1.424,3.334,0.0218,0.0679,0.0134,0.9144,-1.3799,-3.4866,-0.0125,0.0057,-0.0028,0.014,3.487,56,14.57,0.0,0.0,0.0,0.03,ON,3.47
2026-03-26 18:11:50.919,PX4_0,False,1.164,-0.887,3.463,-0.0054,0.0027,-0.0145,0.9609,-1.4282,-3.4874,0.0212,-0.013,-0.006,0.025,3.487,56,14.561,0.0,0.0,0.0,0.03,ON,3.5
2026-03-26 18:11:51.921,PX4_0,False,0.333,0.465,3.12,0.0034,0.0673,0.0198,1.1214,-1.3886,-3.4952,-0.0972,0.029,0.0037,0.101,3.495,56,14.556,0.0,0.0,0.0,0.03,ON,3.49
2026-03-26 18:11:52.924,PX4_0,False,0.322,0.251,3.602,-0.1049,-0.0239,-0.0122,1.1499,-1.3723,-3.4966,-0.2384,-0.0324,-0.0029,0.241,3.497,56,14.561,0.0,0.0,0.0,0.03,ON,3.49
2026-03-26 18:11:53.926,OFFBOARD,True,1.19,-0.709,4.183,0.0626,0.0901,0.0353,1.0906,-1.4349,-3.4961,-0.2666,-0.0397,-0.0147,0.27,3.496,55,14.555,0.0,0.0,0.0,0.03,ON,3.49
2026-03-26 18:11:54.928,PX4_0,False,1.179,-0.699,4.402,0.0077,-0.0092,-0.0103,1.0524,-1.4692,-3.5008,-0.2293,0.0133,-0.0035,0.23,3.501,55,14.554,0.0,0.0,0.0,0.03,ON,3.5
2026-03-26 18:11:55.930,PX4_0,False,0.755,-0.681,3.961,-0.0784,-0.099,-0.0293,1.0237,-1.4595,-3.4993,-0.2226,0.0587,0.0096,0.23,3.499,55,14.547,0.0,0.0,0.0,0.03,ON,3.5
2026-03-26 18:11:56.933,PX4_0,False,0.077,-0.968,3.983,0.0883,-0.0396,0.0199,0.9651,-1.3967,-3.4961,-0.1667,0.0237,0.0005,0.168,3.496,55,14.542,0.0,0.0,0.0,0.03,ON,3.49
2026-03-26 18:11:57.936,PX4_0,False,0.551,-0.445,4.031,-0.0016,0.0475,0.0202,0.9797,-1.4009,-3.4963,-0.1456,-0.042,-0.0037,0.152,3.496,55,14.546,0.0,0.0,0.0,0.03,ON,3.49
2026-03-26 18:11:58.938,OFFBOARD,True,0.583,-0.562,4.377,-0.0066,0.0584,0.02,0.9783,-1.4102,-3.4977,-0.1513,-0.0445,-0.0054,0.158,3.498,55,14.544,0.0,0.0,0.0,0.03,ON,3.5
2026-03-26 18:11:59.942,PX4_0,False,0.82,-1.392,4.216,-0.0161,0.0418,0.0312,0,0,0,0,0,0,0.0,0,55,14.54,0.0,0.0,0.0,0.03,ON,3.49
2026-03-26 18:12:00.945,PX4_0,False,0.447,-1.01,4.648,-0.0062,0.0419,-0.0066,0.877,-1.4489,-3.4957,-0.0551,0.0012,-0.0094,0.055,3.496,55,14.541,0.0,0.0,0.0,0.03,ON,3.5
2026-03-26 18:12:01.952,PX4_0,False,0.824,-0.667,4.188,0.0499,0.0352,0.0117,0.8716,-1.4605,-3.5024,-0.0155,-0.0383,-0.0024,0.041,3.502,55,14.544,0.0,0.0,0.0,0.03,ON,3.5
2026-03-26 18:12:02.970,PX4_0,False,0.665,-1.332,3.552,0.0375,-0.0312,-0.0093,0.8619,-1.4483,-3.5029,-0.0201,-0.0332,0.0028,0.039,3.503,55,14.542,0.0,0.0,0.0,0.03,ON,3.49
2026-03-26 18:12:03.973,OFFBOARD,True,0.491,-1.454,3.973,0.0048,0.0036,0.0219,0.8247,-1.461,-3.4868,0.0151,-0.0594,-0.0038,0.061,3.487,55,14.528,0.0,0.0,0.0,0.03,ON,3.48
2026-03-26 18:12:04.975,PX4_0,False,0.718,-1.352,4.427,0.0713,0.0305,0.017,0.8342,-1.486,-3.4922,0.0468,-0.0572,-0.0076,0.074,3.492,55,14.531,0.0,0.0,0.0,0.03,ON,3.5
2026-03-26 18:12:05.977,PX4_0,False,0.844,-0.947,4.116,-0.097,0.0678,-0.0045,0.8743,-1.5153,-3.4987,0.0476,-0.0285,0.0044,0.055,3.499,55,14.529,0.0,0.0,0.0,0.03,ON,3.5
2026-03-26 18:12:06.984,PX4_0,False,0.72,-0.82,4.268,0.0072,0.0698,0.051,0.8984,-1.5291,-3.5038,0.0113,-0.0056,0.0025,0.013,3.504,55,14.522,0.0,0.0,0.0,0.03,ON,3.5
2026-03-26 18:12:07.986,PX4_0,False,0.876,-1.501,4.46,0.073,-0.0697,-0.0189,0.8711,-1.545,-3.5021,0.0143,-0.033,-0.0073,0.036,3.502,55,14.528,0.0,0.0,0.0,0.03,ON,3.49
2026-03-26 18:12:08.989,PX4_0,False,0.814,-1.358,4.398,-0.043,0.0569,0.0128,0.8788,-1.5801,-3.4915,0.0701,0.003,-0.007,0.07,3.491,55,14.516,0.0,0.0,0.0,0.03,ON,3.49
2026-03-26 18:12:09.993,PX4_0,False,0.928,-0.945,4.316,-0.0298,-0.0801,-0.0109,0.9179,-1.5732,-3.4997,0.0548,-0.0156,-0.0013,0.057,3.5,55,14.522,0.0,0.0,0.0,0.03,ON,3.51
2026-03-26 18:12:10.996,PX4_0,False,0.428,-0.969,4.28,0.0686,-0.0498,-0.0119,0.9336,-1.5598,-3.5023,0.0336,0.017,0.0056,0.038,3.502,55,14.511,0.0,0.0,0.0,0.03,ON,3.51
2026-03-26 18:12:12.000,OFFBOARD,True,1.174,-1.47,4.541,-0.1088,-0.069,-0.0212,0.8742,-1.6333,-3.4978,0.0353,0.0372,-0.0094,0.051,3.498,54,14.496,0.0,0.0,0.0,0.03,ON,3.5
2026-03-26 18:12:13.006,OFFBOARD,True,0.987,-1.326,4.29,0.0499,-0.0021,-0.0244,0.9027,-1.647,-3.5065,0.0744,0.0613,-0.0061,0.096,3.506,54,14.507,0.0,0.0,0.0,0.03,ON,3.51
2026-03-26 18:12:14.011,OFFBOARD,True,0.649,-0.829,3.35,-0.0711,-0.0071,-0.0096,0.9799,-1.6042,-3.52,0.0362,0.0766,0.0197,0.085,3.52,55,14.521,0.0,0.0,0.0,0.03,ON,3.53
2026-03-26 18:12:15.014,OFFBOARD,True,0.322,-0.592,4.438,0.0335,-0.0286,0.0011,1.0395,-1.5409,-3.5134,-0.0329,0.0272,0.0236,0.043,3.513,54,14.504,0.0,0.0,0.0,0.03,ON,3.5
2026-03-26 18:12:16.020,OFFBOARD,True,0.787,-0.559,4.691,-0.0232,-0.0371,0.0144,1.0415,-1.5633,-3.5013,-0.0932,-0.0351,0.0037,0.1,3.501,54,14.498,0.0,0.0,0.0,0.03,ON,3.49
2026-03-26 18:12:17.026,OFFBOARD,True,0.845,-0.889,4.332,-0.07,-0.0393,-0.0522,1.0086,-1.596,-3.4923,-0.0806,-0.006,-0.002,0.081,3.492,54,14.5,0.0,0.0,0.0,0.03,ON,3.49
2026-03-26 18:12:18.030,OFFBOARD,True,0.45,-0.943,4.056,0.0596,-0.0643,0.016,0.9825,-1.5665,-3.4881,-0.0595,0.0201,-0.001,0.063,3.488,54,14.491,0.0,0.0,0.0,0.03,ON,3.48
2026-03-26 18:12:19.035,PX4_0,False,0.149,-0.847,4.903,-0.0183,0.0713,-0.0015,0.9564,-1.542,-3.4945,-0.0363,-0.0611,-0.0143,0.071,3.494,54,14.489,0.0,0.0,0.0,0.03,ON,0.0
2026-03-26 18:12:20.045,PX4_0,False,0.0,0.0,0.0,0,0,0,0.9309,-1.5805,-3.5018,-0.0264,-0.0725,-0.0044,0.077,3.502,54,14.487,0.0,0.0,0.0,0.03,ON,3.5
2026-03-26 18:12:21.050,OFFBOARD,True,0.957,-1.317,4.155,0.0538,0.1182,0.0027,0.9069,-1.629,-3.5026,0.0264,-0.0338,0.0002,0.043,3.503,54,14.49,0.0,0.0,0.0,0.03,ON,3.5
2026-03-26 18:12:22.054,OFFBOARD,True,0.118,-1.03,3.815,-0.0238,0.0772,0.0128,0.9264,-1.5898,-3.5055,0.0472,0.0068,0.0041,0.048,3.506,54,14.495,0.0,0.0,0.0,0.03,ON,3.51
2026-03-26 18:12:23.058,OFFBOARD,True,0.45,-0.906,4.003,-0.0088,-0.0726,0.0138,0.9497,-1.599,-3.5082,0.0289,-0.0693,0.0092,0.075,3.508,54,14.498,0.0,0.0,0.0,0.03,ON,3.51
2026-03-26 18:12:24.060,PX4_0,False,0.743,-1.028,3.767,0.0439,-0.078,-0.0233,0.9576,-1.6544,-3.5057,0.0025,-0.042,0.0079,0.042,3.506,54,14.487,0.0,0.0,0.0,0.03,ON,3.5
2026-03-26 18:12:25.064,OFFBOARD,True,0.939,-1.091,4.115,0.0622,-0.0144,0.0154,0.9605,-1.6752,-3.4994,0.0081,-0.0193,0.0097,0.021,3.499,54,14.467,0.0,0.0,0.0,0.03,ON,3.49
2026-03-26 18:12:26.072,OFFBOARD,True,0.018,-1.143,3.964,0.0293,-0.0463,0.0202,0.9462,-1.6386,-3.4976,0.0136,-0.003,-0.0019,0.014,3.498,54,14.469,0.0,0.0,0.0,0.03,ON,3.49
2026-03-26 18:12:27.075,OFFBOARD,True,0.044,-1.11,4.551,0.0587,0.0677,0.0103,0.9401,-1.6338,-3.4956,0.0208,0.0002,0.0008,0.021,3.496,54,14.47,0.0,0.0,0.0,0.03,ON,3.49
2026-03-26 18:12:28.077,OFFBOARD,True,0.887,-1.055,3.609,0.0487,0.0881,0.0299,0.9276,-1.7144,-3.4955,0.0484,-0.0175,-0.0047,0.051,3.495,54,14.466,0.0,0.0,0.0,0.03,ON,3.5
2026-03-26 18:12:29.080,OFFBOARD,True,0.723,-1.231,3.729,0.0437,0.0164,0.0242,0.9271,-1.729,-3.5019,0.0398,0.0164,-0.0006,0.043,3.502,54,14.467,0.0,0.0,0.0,0.03,ON,3.5
2026-03-26 18:12:30.102,OFFBOARD,True,0.214,-1.17,3.65,0.045,0.1321,0.0007,0.9425,-1.704,-3.5002,0.0562,0.0463,0.0017,0.073,3.5,53,14.458,0.0,0.0,0.0,0.03,ON,3.5
2026-03-26 18:12:31.106,OFFBOARD,True,0.274,-0.986,3.779,0.1294,-0.0389,-0.0207,0.9685,-1.6961,-3.5089,0.0448,-0.0001,0.0001,0.045,3.509,53,14.458,0.0,0.0,0.0,0.03,ON,3.51
2026-03-26 18:12:32.109,OFFBOARD,True,0.568,-0.943,4.077,-0.0675,-0.0865,-0.0206,0.9803,-1.7261,-3.5097,0.0158,-0.0355,0.0185,0.039,3.51,53,14.456,0.0,0.0,0.0,0.03,ON,3.5
2026-03-26 18:12:33.113,OFFBOARD,True,0.639,-1.351,4.38,0.0299,-0.0057,0.0125,0.944,-1.753,-3.4882,0.0085,0.0022,0.003,0.009,3.488,53,14.452,0.0,0.0,0.0,0.03,ON,3.47
2026-03-26 18:12:34.118,OFFBOARD,True,0.615,-1.535,4.146,0.0281,0.0566,0.0257,0.9032,-1.7627,-3.4902,0.0645,0.01,-0.0165,0.065,3.49,53,14.451,0.0,0.0,0.0,0.03,ON,3.48
2026-03-26 18:12:35.121,OFFBOARD,True,0.213,-1.145,3.246,-0.129,-0.0351,-0.0158,0.9437,-1.7373,-3.5058,0.0887,-0.0069,-0.0058,0.089,3.506,53,14.454,0.0,0.0,0.0,0.03,ON,3.51
2026-03-26 18:12:36.123,PX4_0,False,0.122,-0.652,3.612,0.1174,0.0015,0.0311,0.9785,-1.7096,-3.5098,0.0729,-0.0079,0.0106,0.073,3.51,53,14.451,0.0,0.0,0.0,0.03,ON,3.52
2026-03-26 18:12:37.129,OFFBOARD,True,1.415,-1.037,3.94,-0.0276,-0.0083,0.0064,1.015,-1.8031,-3.5066,-0.0041,-0.0512,0.0131,0.051,3.507,53,14.439,0.0,0.0,0.0,0.03,ON,3.5
2026-03-26 18:12:38.132,OFFBOARD,True,0.828,-0.744,4.54,0.025,0.0778,-0.0047,1.0313,-1.8133,-3.4982,-0.033,0.0395,-0.0063,0.051,3.498,53,14.431,0.0,0.0,0.0,0.03,ON,3.49
2026-03-26 18:12:39.136,OFFBOARD,True,0.337,-0.905,4.57,-0.0006,0.0106,0.0078,1.0222,-1.7662,-3.5028,-0.0594,0.0259,-0.0039,0.065,3.503,53,14.435,0.0,0.0,0.0,0.03,ON,3.5
2026-03-26 18:12:40.140,OFFBOARD,True,0.452,-0.776,4.09,-0.0567,-0.0796,-0.039,1.0264,-1.7737,-3.4972,-0.0528,-0.0057,-0.0054,0.053,3.497,53,14.433,0.0,0.0,0.0,0.03,ON,3.49
2026-03-26 18:12:41.142,OFFBOARD,True,0.53,-0.6,4.368,0.0506,-0.0306,0.0209,1.036,-1.806,-3.4958,-0.0919,0.0144,-0.0011,0.093,3.496,53,14.433,0.0,0.0,0.0,0.03,ON,3.5
2026-03-26 18:12:42.145,OFFBOARD,True,0.404,-1.179,4.576,0.0186,-0.0223,-0.0151,0.9839,-1.8178,-3.5002,-0.0893,0.0123,-0.0009,0.09,3.5,53,14.434,0.0,0.0,0.0,0.03,ON,3.5
2026-03-26 18:12:43.155,OFFBOARD,True,0.0,0.0,0.0,0,0,0,0.9377,-1.8263,-3.4988,-0.0494,0.0031,0.0097,0.049,3.499,53,14.426,0.0,0.0,0.0,0.03,ON,3.49
2026-03-26 18:12:44.158,OFFBOARD,True,1.08,-1.539,3.841,0.0911,-0.0064,0.0058,0.9034,-1.8451,-3.4964,0.0083,-0.0022,0.0038,0.009,3.496,53,14.436,0.0,0.0,0.0,0.03,ON,3.5
2026-03-26 18:12:45.162,PX4_0,False,0.917,-1.483,3.885,-0.0078,0.0579,0.0154,0.9056,-1.8408,-3.4952,0.0194,0.0215,0.009,0.029,3.495,53,14.433,0.0,0.0,0.0,0.03,ON,3.5
2026-03-26 18:12:46.166,OFFBOARD,True,0.56,-0.928,5.076,-0.0177,-0.0792,-0.01,0.9503,-1.801,-3.5079,0.0068,-0.018,0.023,0.019,3.508,53,14.423,0.0,0.0,0.0,0.03,ON,3.5
2026-03-26 18:12:47.169,OFFBOARD,True,1.12,-1.042,4.14,0.0656,0.0276,0.0137,0.9522,-1.8388,-3.5005,0.0083,-0.0578,-0.0048,0.058,3.501,53,14.421,0.0,0.0,0.0,0.03,ON,3.5
2026-03-26 18:12:48.174,OFFBOARD,True,1.073,-2.073,3.794,-0.0445,-0.0758,-0.0049,0.8404,-1.8735,-3.4914,0.0089,0.006,-0.0053,0.011,3.491,53,14.425,0.0,0.0,0.0,0.03,ON,3.47
2026-03-26 18:12:49.176,OFFBOARD,True,0.568,-2.192,4.14,0.0504,0.0324,0.0293,0.7782,-1.853,-3.4829,0.1476,0.0208,-0.0153,0.149,3.483,53,14.417,0.0,0.0,0.0,0.03,ON,3.5
2026-03-26 18:12:50.181,OFFBOARD,True,0.302,-1.669,4.094,-0.0299,-0.054,-0.0101,0.8119,-1.821,-3.4971,0.2096,-0.0073,-0.0067,0.21,3.497,53,14.417,0.0,0.0,0.0,0.03,ON,3.5
2026-03-26 18:12:51.190,OFFBOARD,True,0.235,-0.842,4.141,-0.0592,0.0041,0.0441,0.8963,-1.8343,-3.513,0.1773,-0.0652,0.0152,0.189,3.513,53,14.419,0.0,0.0,0.0,0.03,ON,3.52
2026-03-26 18:12:52.196,OFFBOARD,True,0.71,-0.743,4.012,0.0039,-0.0158,0.0292,0.9445,-1.8976,-3.5086,0.0922,-0.0476,0.0157,0.104,3.509,0,0.0,0.0,0.0,0.0,0.03,ON,3.5
2026-03-26 18:12:53.200,OFFBOARD,True,1.081,-1.2,4.129,-0.0467,-0.0183,-0.0312,0.9542,-1.9652,-3.4944,0.0716,-0.0085,-0.01,0.072,3.494,52,14.403,0.0,0.0,0.0,0.03,ON,3.48
2026-03-26 18:12:54.215,OFFBOARD,True,1.125,-1.216,4.24,0.018,-0.0515,0.0022,0.9619,-1.9727,-3.4959,0.0426,0.0558,-0.0064,0.07,3.496,52,14.397,0.0,0.0,0.0,0.03,ON,3.49
2026-03-26 18:12:55.217,OFFBOARD,True,0.599,-0.991,4.135,0.0572,-0.0503,-0.0219,0.9754,-1.93,-3.5022,0.0436,0.0432,-0.0024,0.061,3.502,52,14.408,0.0,0.0,0.0,0.03,ON,3.5
2026-03-26 18:12:56.221,OFFBOARD,True,0.267,-0.84,4.146,-0.0769,-0.0268,-0.0159,1.0042,-1.8992,-3.503,0.0155,-0.0121,-0.0028,0.02,3.503,52,14.409,0.0,0.0,0.0,0.03,ON,3.49
2026-03-26 18:12:57.227,OFFBOARD,True,0.772,-0.646,4.184,0.0012,0.0268,0.0469,1.0169,-1.9301,-3.4923,-0.0184,-0.0197,0.0045,0.027,3.492,52,14.41,0.0,0.0,0.0,0.03,ON,3.49
2026-03-26 18:12:58.233,OFFBOARD,True,1.223,-1.235,4.303,-0.0654,-0.0811,-0.0235,0.9732,-1.98,-3.4956,-0.033,-0.0128,-0.0049,0.035,3.496,0,0.0,0.0,0.0,0.0,0.03,ON,3.49
2026-03-26 18:12:59.237,OFFBOARD,True,0.872,-1.625,4.081,-0.0389,0.049,0.0124,0.9231,-1.9806,-3.4981,0.0023,0.013,-0.0069,0.013,3.498,52,14.403,0.0,0.0,0.0,0.03,ON,3.49
2026-03-26 18:13:00.243,OFFBOARD,True,0.432,-1.18,3.804,0.0544,-0.0486,-0.0181,0.9309,-1.8941,-3.5016,0.0528,0.0001,0.0011,0.053,3.502,52,14.405,0.0,0.0,0.0,0.03,ON,3.5
2026-03-26 18:13:01.246,OFFBOARD,True,-0.004,-0.84,3.521,-0.0861,-0.0175,0.0086,0.9473,-1.8664,-3.4977,0.0265,-0.0651,0.0083,0.07,3.498,52,14.398,0.0,0.0,0.0,0.03,ON,3.48
2026-03-26 18:13:02.251,OFFBOARD,True,0.659,-1.226,3.466,-0.0012,-0.0039,0.0286,0.9379,-1.9242,-3.4859,0.0408,-0.0992,-0.0104,0.107,3.486,52,14.382,0.0,0.0,0.0,0.03,ON,3.47
2026-03-26 18:13:03.256,OFFBOARD,True,0.831,-1.143,3.399,0.0387,-0.0426,-0.0102,0.9358,-1.9795,-3.487,0.0471,-0.0645,-0.0115,0.08,3.487,51,14.364,0.0,0.0,0.0,0.03,ON,3.49
2026-03-26 18:13:04.260,OFFBOARD,True,0.784,-1.046,3.92,-0.0559,0.0629,-0.0114,0.9574,-2.0201,-3.493,0.0552,-0.0097,-0.0038,0.056,3.493,51,14.36,0.0,0.0,0.0,0.03,ON,3.5
2026-03-26 18:13:05.264,OFFBOARD,True,0.589,-1.063,3.784,0.0611,-0.011,0.0373,0.9616,-2.0275,-3.5036,0.0106,-0.0001,0.0041,0.011,3.504,52,14.37,0.0,0.0,0.0,0.03,ON,3.5
2026-03-26 18:13:06.270,OFFBOARD,True,0.981,-1.243,3.956,-0.0422,0.0152,-0.0217,0.9654,-2.0501,-3.4981,0.0279,-0.0307,0.0046,0.041,3.498,52,14.373,0.0,0.0,0.0,0.03,ON,3.49
2026-03-26 18:13:07.273,OFFBOARD,True,0.908,-1.169,4.0,0.0366,0.0308,0.0147,0.9801,-2.0883,-3.4998,0.0212,0.0469,-0.0059,0.051,3.5,52,14.378,0.0,0.0,0.0,0.03,ON,3.5
2026-03-26 18:13:08.275,OFFBOARD,True,0.896,-0.539,4.124,-0.029,-0.0299,-0.02,1.0198,-2.0711,-3.5047,0.008,0.0307,0.0051,0.032,3.505,52,14.387,0.0,0.0,0.0,0.03,ON,3.51
2026-03-26 18:13:09.278,OFFBOARD,True,0.508,-0.556,4.16,-0.0474,0.0145,-0.0233,1.0391,-2.0425,-3.5041,-0.0391,0.0539,0.0041,0.067,3.504,52,14.376,0.0,0.0,0.0,0.03,ON,3.5
2026-03-26 18:13:10.281,PX4_0,False,0.902,-0.939,4.518,-0.0437,-0.0161,-0.0058,1.0391,-2.0425,-3.5041,-0.0391,0.0539,0.0041,0.067,3.504,52,14.372,0.0,0.0,0.0,0.03,ON,3.5
2026-03-26 18:13:11.284,PX4_0,False,1.023,-0.265,3.634,-0.0281,-0.0135,-0.039,1.075,-2.0807,-3.4859,-0.0709,0.0116,-0.0054,0.072,3.486,51,14.356,0.0,0.0,0.0,0.03,ON,3.49
2026-03-26 18:13:12.290,PX4_0,False,0.929,-0.355,2.987,-0.0587,0.024,0.0287,1.0895,-2.0874,-3.4875,-0.0961,0.0244,-0.0038,0.099,3.487,51,14.351,0.0,0.0,0.0,0.03,ON,3.49
2026-03-26 18:13:13.293,PX4_0,False,1.571,-1.058,3.244,-0.0061,0.0649,0.0171,1.0028,-2.1098,-3.5028,-0.1094,-0.0234,-0.002,0.112,3.503,51,14.352,0.0,0.0,0.0,0.03,ON,3.49
2026-03-26 18:13:14.296,PX4_0,False,0.243,-2.255,4.181,-0.1203,-0.0537,0.0227,0.9437,-2.0928,-3.4997,-0.0982,-0.0022,-0.0008,0.098,3.5,51,14.353,0.0,0.0,0.0,0.03,ON,3.47
2026-03-26 18:13:15.300,OFFBOARD,True,-0.164,-1.295,4.18,0.0142,0.1245,0.0128,0.8777,-1.9787,-3.4894,0.1158,-0.0868,-0.0169,0.145,3.489,51,14.347,0.0,0.0,0.0,0.03,ON,3.41
2026-03-26 18:13:16.308,OFFBOARD,True,0.04,-0.453,3.143,-0.0264,0.0045,-0.0175,0.9837,-1.9696,-3.4603,0.0851,-0.1518,-0.0268,0.174,3.46,51,14.334,0.0,0.0,0.0,0.03,ON,3.54
2026-03-26 18:13:17.311,OFFBOARD,True,1.691,-0.904,4.067,0.0784,-0.0664,0.0017,1.0151,-2.139,-3.5485,-0.0071,-0.144,0.0355,0.144,3.549,51,14.351,0.0,0.0,0.0,0.03,ON,3.55
2026-03-26 18:13:18.316,OFFBOARD,True,1.614,-1.545,4.215,-0.0285,-0.0768,-0.0273,0.9897,-2.2506,-3.5049,-0.018,0.0147,0.0222,0.023,3.505,51,14.348,0.0,0.0,0.0,0.03,ON,3.48
2026-03-26 18:13:19.319,OFFBOARD,True,1.065,-1.922,3.715,0.0361,0.0362,0.006,0.9222,-2.2299,-3.4761,0.0483,0.0793,-0.0144,0.093,3.476,51,14.332,0.0,0.0,0.0,0.03,ON,3.46
2026-03-26 18:13:20.323,PX4_0,False,0.562,-1.399,4.248,-0.0261,-0.0355,0.0149,0.9407,-2.1788,-3.4855,0.0835,0.0607,-0.0308,0.103,3.486,51,14.332,0.0,0.0,0.0,0.03,ON,3.49
2026-03-26 18:13:21.339,PX4_0,False,0.548,-0.764,3.467,-0.0538,-0.0115,-0.019,0.9407,-2.1788,-3.4855,0.0835,0.0607,-0.0308,0.103,3.486,51,14.341,0.0,0.0,0.0,0.03,ON,3.51
2026-03-26 18:13:22.342,PX4_0,False,-0.065,-0.994,3.312,0.0386,-0.0674,-0.0037,1.057,-2.1302,-3.5129,0.0394,0.0055,0.0068,0.04,3.513,51,14.342,0.0,0.0,0.0,0.03,ON,3.51
2026-03-26 18:13:23.348,PX4_0,False,-0.065,-0.994,3.312,0.0386,-0.0674,-0.0037,0,0,0,0,0,0,0.0,0,51,14.338,0.0,0.0,0.0,0.03,ON,3.49
2026-03-26 18:13:24.352,PX4_0,False,-0.065,-0.994,3.312,0.0386,-0.0674,-0.0037,1.0372,-2.1635,-3.4983,0.0113,-0.081,-0.0007,0.082,3.498,51,14.335,0.0,0.0,0.0,0.03,ON,3.49
2026-03-26 18:13:25.355,OFFBOARD,True,0.99,-1.042,3.872,0.008,0.1034,0.0271,1.0724,-2.2939,-3.5024,0.0071,0.0344,-0.0006,0.035,3.502,51,14.322,0.0,0.0,0.0,0.03,ON,3.5
2026-03-26 18:13:26.358,OFFBOARD,True,-0.36,-1.004,4.658,-0.0263,0.0149,-0.003,1.0766,-2.1713,-3.4919,-0.0215,-0.008,-0.002,0.023,3.492,51,14.314,0.0,0.0,0.0,0.03,ON,3.48
2026-03-26 18:13:27.367,PX4_0,False,0.49,-0.67,4.786,0.0842,0.0678,-0.002,1.1035,-2.2246,-3.4949,-0.0336,-0.0496,-0.007,0.06,3.495,51,14.333,0.0,0.0,0.0,0.03,ON,3.49
2026-03-26 18:13:28.370,OFFBOARD,True,1.203,-0.998,3.298,-0.019,0.0507,-0.044,1.1018,-2.3077,-3.4975,-0.0724,-0.0038,0.0014,0.072,3.498,51,14.325,0.0,0.0,0.0,0.03,ON,3.49
2026-03-26 18:13:29.374,OFFBOARD,True,0.666,-0.982,3.062,-0.0116,0.0735,0.0559,1.1298,-2.3213,-3.4918,-0.0697,0.0886,0.0056,0.113,3.492,50,14.309,0.0,0.0,0.0,0.03,ON,3.49
2026-03-26 18:13:30.376,OFFBOARD,True,0.643,-0.599,3.913,-0.0628,-0.068,-0.0106,1.1582,-2.3078,-3.4922,-0.0859,0.0425,0.0021,0.096,3.492,50,14.307,0.0,0.0,0.0,0.03,ON,3.49
2026-03-26 18:13:31.380,OFFBOARD,True,0.998,-0.703,4.045,-0.0391,-0.0493,-0.0123,1.1485,-2.3279,-3.4952,-0.1193,0.0566,-0.0012,0.132,3.495,50,14.309,0.0,0.0,0.0,0.03,ON,3.49
2026-03-26 18:13:32.389,OFFBOARD,True,1.024,-0.938,4.089,0.064,0.0976,-0.001,1.1041,-2.3151,-3.5022,-0.081,0.041,-0.0124,0.091,3.502,50,14.308,0.0,0.0,0.0,0.03,ON,3.49
2026-03-26 18:13:33.390,PX4_0,False,0.74,-0.876,3.805,-0.0501,0.0131,-0.0243,1.0854,-2.2802,-3.4995,-0.0538,0.0454,-0.004,0.07,3.499,50,14.313,0.0,0.0,0.0,0.03,ON,3.5
2026-03-26 18:13:34.394,OFFBOARD,True,0.613,-1.096,3.782,0.0101,-0.0997,-0.0034,1.083,-2.2736,-3.4993,-0.0519,0.0325,-0.0007,0.061,3.499,50,14.309,0.0,0.0,0.0,0.03,ON,3.49
2026-03-26 18:13:35.396,OFFBOARD,True,0.674,-1.04,4.742,-0.0368,-0.004,-0.025,1.0419,-2.2682,-3.4951,-0.0083,-0.0097,-0.0087,0.013,3.495,50,14.301,0.0,0.0,0.0,0.03,ON,3.49
2026-03-26 18:13:36.400,OFFBOARD,True,0.489,-0.803,4.253,-0.042,-0.0901,-0.0523,1.0949,-2.2841,-3.4979,-0.0144,0.0167,0.0002,0.022,3.498,50,14.307,0.0,0.0,0.0,0.03,ON,3.5
2026-03-26 18:13:37.404,OFFBOARD,True,0.831,-0.131,3.714,0.0441,0.0383,0.0262,1.1928,-2.3015,-3.5049,-0.0726,0.0184,0.0052,0.075,3.505,50,14.297,0.0,0.0,0.0,0.03,ON,3.51
2026-03-26 18:13:38.409,OFFBOARD,True,0.417,0.316,4.544,-0.1085,0.0589,0.0072,1.2601,-2.2623,-3.502,-0.1952,0.0182,0.0091,0.196,3.502,50,14.293,0.0,0.0,0.0,0.03,ON,3.49
2026-03-26 18:13:39.411,OFFBOARD,True,0.673,-0.274,4.826,0.0285,0.0378,0.0256,1.2186,-2.2444,-3.4959,-0.2362,-0.0671,0.0022,0.246,3.496,50,14.289,0.0,0.0,0.0,0.03,ON,3.48
2026-03-26 18:13:40.417,OFFBOARD,True,0.737,-0.394,3.992,0.0124,-0.0375,-0.0268,1.1856,-2.2657,-3.4846,-0.2295,-0.074,-0.0048,0.241,3.485,50,14.278,0.0,0.0,0.0,0.03,ON,3.48
2026-03-26 18:13:41.420,OFFBOARD,True,0.627,-1.01,4.506,-0.0784,-0.0597,-0.0633,1.1185,-2.272,-3.4842,-0.1958,-0.0612,-0.0098,0.205,3.484,50,14.28,0.0,0.0,0.0,0.03,ON,3.47
2026-03-26 18:13:42.425,PX4_0,False,0.652,-1.373,4.465,0.0555,0.078,0.0569,1.0416,-2.2793,-3.4792,-0.127,-0.0984,-0.0162,0.161,3.479,50,14.28,0.0,0.0,0.0,0.03,ON,3.46
2026-03-26 18:13:43.428,OFFBOARD,True,0.839,-1.32,4.659,-0.0077,0.0682,-0.01,1.0277,-2.3285,-3.4908,-0.0681,-0.0451,-0.014,0.082,3.491,50,14.277,0.0,0.0,0.0,0.03,ON,3.49
2026-03-26 18:13:44.431,OFFBOARD,True,1.298,-1.14,4.209,-0.0283,0.0605,-0.0093,1.0381,-2.3716,-3.5038,-0.0256,-0.0103,-0.0056,0.028,3.504,50,14.277,0.0,0.0,0.0,0.03,ON,3.51
2026-03-26 18:13:45.433,OFFBOARD,True,1.144,-1.022,5.21,-0.012,-0.0353,0.0267,1.0526,-2.3931,-3.5133,-0.0086,0.0596,0.0128,0.06,3.513,50,14.271,0.0,0.0,0.0,0.03,ON,3.51
2026-03-26 18:13:46.436,PX4_0,False,0.742,-1.122,5.317,-0.0909,-0.0613,-0.0211,1.0523,-2.3822,-3.5124,-0.0062,0.053,0.0141,0.053,3.512,50,14.276,0.0,0.0,0.0,0.03,ON,3.5
2026-03-26 18:13:47.450,OFFBOARD,True,0.142,-0.666,4.695,0.0562,-0.0879,-0.0143,1.1235,-2.3065,-3.4955,-0.0063,-0.022,-0.0091,0.023,3.495,50,14.276,0.0,0.0,0.0,0.03,ON,3.49
2026-03-26 18:13:48.452,OFFBOARD,True,1.25,0.351,4.931,-0.0297,0.0203,0.0023,1.2584,-2.3681,-3.5081,-0.1295,-0.0161,0.0043,0.13,3.508,50,14.278,0.0,0.0,0.0,0.03,ON,3.5
2026-03-26 18:13:49.458,OFFBOARD,True,1.585,-0.549,4.648,0.0384,-0.0926,-0.0052,1.2458,-2.4392,-3.5007,-0.2482,0.0504,0.0023,0.253,3.501,50,14.27,0.0,0.0,0.0,0.03,ON,3.48
2026-03-26 18:13:50.461,OFFBOARD,True,0.725,-1.099,4.913,-0.0075,0.0997,0.0242,1.1537,-2.3944,-3.4911,-0.2041,0.0976,-0.0034,0.226,3.491,49,14.26,0.0,0.0,0.0,0.03,ON,3.48
2026-03-26 18:13:51.464,OFFBOARD,True,1.001,-1.227,4.646,0.0104,0.0727,0.017,1.1429,-2.3803,-3.472,-0.072,0.0155,0.0515,0.074,3.472,49,14.261,0.0,0.0,0.0,0.03,ON,3.46
2026-03-26 18:13:52.472,OFFBOARD,True,0.467,-0.367,4.647,-0.0151,-0.0024,0.0237,1.2636,-2.3573,-3.4092,-0.0554,0.0237,0.0539,0.06,3.409,49,14.258,0.0,0.0,0.0,0.03,ON,3.41
2026-03-26 18:13:53.475,PX4_0,False,0.243,-1.072,4.659,-0.05,-0.0201,-0.0027,1.2284,-2.3169,-3.3606,-0.1115,-0.0217,0.0554,0.114,3.361,50,14.268,0.0,0.0,0.0,0.03,ON,3.36
2026-03-26 18:13:54.479,PX4_0,False,1.313,-1.584,4.261,0.0844,0.0471,0.0163,1.1302,-2.4034,-3.2975,-0.067,-0.0634,0.051,0.092,3.297,50,14.271,0.0,0.0,0.0,0.03,ON,3.28
2026-03-26 18:13:55.482,PX4_0,False,1.638,-1.632,4.041,0.0071,0.0785,0.0087,1.1302,-2.4034,-3.2975,-0.067,-0.0634,0.051,0.092,3.297,49,14.262,0.0,0.0,0.0,0.03,ON,3.24
2026-03-26 18:13:56.489,OFFBOARD,True,0.048,-1.477,4.165,-0.0311,0.0199,0.0042,1.0911,-2.3361,-3.1878,0.0245,0.0563,0.0439,0.061,3.188,49,14.256,0.0,0.0,0.0,0.03,ON,3.18
2026-03-26 18:13:57.492,OFFBOARD,True,0.449,-1.636,4.361,0.0615,-0.0591,-0.0024,1.0578,-2.3266,-3.1419,0.0349,-0.043,0.0524,0.055,3.142,49,14.255,0.0,0.0,0.0,0.03,ON,3.14
2026-03-26 18:13:58.496,PX4_0,False,0.902,-1.783,4.211,-0.0332,-0.0072,-0.0257,1.0112,-2.3646,-3.0878,0.0648,-0.0435,0.052,0.078,3.088,49,14.253,0.0,0.0,0.0,0.03,ON,3.08
2026-03-26 18:13:59.507,PX4_0,False,0.551,-2.005,4.061,0.0374,0.0889,0.013,0.9851,-2.3598,-3.0292,0.1087,-0.02,0.0479,0.111,3.029,49,14.245,0.0,0.0,0.0,0.03,ON,3.03
2026-03-26 18:14:00.513,PX4_0,False,0.68,-1.811,3.35,0.0193,0.0936,0.0218,0.9779,-2.3535,-2.9918,0.1194,-0.047,0.0495,0.128,2.992,49,14.24,0.0,0.0,0.0,0.03,ON,3.0
2026-03-26 18:14:01.519,PX4_0,False,0.848,-1.811,3.942,-0.0774,-0.0981,0.0034,0.9836,-2.3743,-2.9416,0.1395,-0.0166,0.0559,0.14,2.942,49,14.233,0.0,0.0,0.0,0.03,ON,2.94
2026-03-26 18:14:02.524,PX4_0,False,1.02,-1.467,4.314,0.0151,-0.0168,-0.0048,0.9916,-2.3923,-2.8843,0.1405,0.0035,0.0609,0.141,2.884,49,14.237,0.0,0.0,0.0,0.03,ON,2.88
2026-03-26 18:14:03.532,PX4_0,False,0.573,-1.315,4.015,0.0442,0.0255,-0.001,1.0412,-2.3782,-2.8183,0.1263,0.0312,0.0619,0.13,2.818,49,14.228,0.0,0.0,0.0,0.03,ON,2.81
2026-03-26 18:14:04.536,PX4_0,False,0.804,-1.009,3.54,-0.0476,0.021,-0.0069,1.0949,-2.3914,-2.7738,0.0964,-0.0078,0.0596,0.097,2.774,49,14.231,0.0,0.0,0.0,0.03,ON,2.77
2026-03-26 18:14:05.538,PX4_0,False,0.454,-1.171,3.814,-0.0243,-0.0697,0.0247,1.1457,-2.3914,-2.7038,0.0098,0.0212,0.0552,0.023,2.704,49,14.223,0.0,0.0,0.0,0.03,ON,2.69
2026-03-26 18:14:06.544,PX4_0,False,0.646,-1.048,4.022,-0.0581,0.0562,-0.0221,1.1474,-2.4104,-2.6388,0.0122,0.0382,0.054,0.04,2.639,49,14.223,0.0,0.0,0.0,0.03,ON,2.63
2026-03-26 18:14:07.551,PX4_0,False,0.811,-1.107,3.766,-0.0201,-0.044,-0.0218,1.1907,-2.4217,-2.58,-0.0129,0.0214,0.0492,0.025,2.58,49,14.221,0.0,0.0,0.0,0.03,ON,2.59
2026-03-26 18:14:08.557,PX4_0,False,1.034,-0.651,3.862,0.0064,0.0648,0.0327,1.2549,-2.4468,-2.5332,-0.0526,0.0354,0.0617,0.063,2.533,48,14.211,0.0,0.0,0.0,0.03,ON,2.54
2026-03-26 18:14:09.561,PX4_0,False,0.366,-1.185,4.721,0.0825,-0.0584,0.0069,1.2321,-2.3881,-2.4666,-0.0798,0.0316,0.0488,0.086,2.467,48,14.211,0.0,0.0,0.0,0.03,ON,2.46
2026-03-26 18:14:10.566,OFFBOARD,True,0.544,-1.278,4.401,0.0284,-0.0487,-0.0237,1.1926,-2.3637,-2.4183,-0.0813,-0.0068,0.0492,0.082,2.418,48,14.216,0.0,0.0,0.0,0.03,ON,2.42
2026-03-26 18:14:11.573,PX4_0,False,0.294,-1.792,4.773,-0.0613,0.0089,0.0287,1.1366,-2.3563,-2.3588,-0.0461,-0.0061,0.0634,0.047,2.359,48,14.205,0.0,0.0,0.0,0.03,ON,2.31
2026-03-26 18:14:12.578,PX4_0,False,0.319,-1.475,4.539,0.0256,0.0052,0.0081,1.1187,-2.3413,-2.1846,0.018,-0.0169,0.0504,0.025,2.185,48,14.201,0.0,0.0,0.0,0.03,ON,2.24
2026-03-26 18:14:13.590,OFFBOARD,True,0.97,-1.02,4.394,-0.0513,-0.0198,0.003,1.1423,-2.3737,-2.2325,0.0309,-0.0636,0.0411,0.071,2.232,48,14.211,0.0,0.0,0.0,0.03,ON,2.34
2026-03-26 18:14:14.602,PX4_0,False,1.284,-1.131,4.473,0.0233,-0.0606,0.0021,1.147,-2.4036,-2.2771,0.0248,-0.0372,0.0615,0.045,2.277,48,14.215,0.0,0.0,0.0,0.03,ON,2.24
2026-03-26 18:14:15.605,PX4_0,False,0.687,-1.197,4.179,-0.0225,0.0124,-0.0092,1.1087,-2.3425,-2.1051,0.0238,-0.0243,0.0636,0.034,2.105,48,14.208,0.0,0.0,0.0,0.03,ON,1.9
2026-03-26 18:14:16.609,PX4_0,False,1.114,-1.634,3.956,-0.0203,0.0303,0.0316,1.0349,-2.3265,-1.9029,0.0078,-0.0438,0.0343,0.044,1.903,48,14.187,0.0,0.0,0.0,0.03,ON,1.99
2026-03-26 18:14:17.611,OFFBOARD,True,1.219,-2.094,4.988,0.0498,-0.0479,0.0129,0.9532,-2.3389,-1.9629,0.0342,-0.0091,0.0469,0.035,1.963,48,14.189,0.0,0.0,0.0,0.03,ON,2.23
2026-03-26 18:14:18.615,PX4_0,False,0.923,-2.055,5.209,0.0035,0.0187,-0.0492,0.8915,-2.3402,-2.1528,0.139,-0.01,0.0676,0.139,2.153,48,14.205,0.0,0.0,0.0,0.03,ON,2.09
2026-03-26 18:14:19.621,OFFBOARD,True,1.086,-1.421,4.835,-0.0072,-0.0234,-0.0428,0.9008,-2.3487,-2.0772,0.1417,0.018,0.0795,0.143,2.077,48,14.195,0.0,0.0,0.0,0.03,ON,1.98
2026-03-26 18:14:20.625,OFFBOARD,True,0.745,-1.276,3.853,0.0257,-0.0404,-0.0125,0.9797,-2.3479,-1.8638,0.1133,0.052,0.0734,0.125,1.864,48,14.179,0.0,0.0,0.0,0.03,ON,1.71
