timestamp,mode,armed,roll_deg,pitch_deg,yaw_deg,rollspeed,pitchspeed,yawspeed,x,y,z,vx,vy,vz,speed_h,altitude_agl,battery_pct,battery_v,current_a0,current_a1,voltage_s1,voltage_s2,relay,distance_m
2026-03-26 16:41:26.873,POSCTL,False,0.176,-2.274,355.164,-0.0006,0.0003,-0.0002,0.0001,-0.0029,-0.0292,-0.0012,-0.0,0.0019,0.001,0.029,86,16.147,0.0,0.0,0.0,0.03,ON,0.01
2026-03-26 16:41:27.877,POSCTL,True,0.177,-2.274,355.159,0.0021,-0.0024,-0.013,0.0001,-0.0036,-0.0291,0.0006,0.0001,0.0016,0.001,0.029,86,16.147,0.0,0.0,0.0,0.03,ON,0.01
2026-03-26 16:41:28.881,POSCTL,True,0.191,-2.278,354.959,0.0071,0.0042,-0.0049,0.0006,-0.0033,-0.0299,0.0004,0.0009,0.0001,0.001,0.03,87,16.155,0.0,0.0,0.0,0.03,ON,0.01
2026-03-26 16:41:29.889,PX4_0,False,0.182,-2.277,355.011,-0.0124,0.0109,0.012,0.0003,-0.0029,-0.0307,-0.0008,0.0011,-0.0011,0.001,0.031,87,16.155,0.0,0.0,0.0,0.03,ON,0.01
2026-03-26 16:41:30.896,PX4_0,False,0.187,-2.277,354.98,0.0085,-0.0032,0.0023,0.0001,-0.0042,-0.03,-0.0009,0.0007,-0.0,0.001,0.03,87,16.156,0.0,0.0,0.0,0.03,ON,0.01
2026-03-26 16:41:31.908,PX4_0,False,-0.467,-0.974,349.989,-0.0087,0.0506,-0.072,-0.0402,0.0147,-0.6712,-0.0915,0.0531,-1.3669,0.106,0.671,73,15.43,0.0,0.0,0.0,0.03,ON,0.61
2026-03-26 16:41:32.918,PX4_0,False,-0.231,-1.237,346.796,0.0081,-0.0835,-0.0723,-0.0802,0.0118,-1.2144,-0.0384,0.0388,-0.3516,0.055,1.214,73,15.43,0.0,0.0,0.0,0.03,ON,1.19
2026-03-26 16:41:33.925,PX4_0,False,-0.827,-1.83,344.621,-0.0748,0.0621,-0.0262,-0.1219,0.086,-1.4699,0.0086,0.0355,-0.1761,0.037,1.47,66,15.081,0.0,0.0,0.0,0.03,ON,1.46
2026-03-26 16:41:34.933,PX4_0,False,-1.339,-1.926,342.936,-0.0553,-0.0642,-0.021,-0.1212,0.179,-1.5863,0.0262,-0.036,-0.0821,0.045,1.586,66,15.081,0.0,0.0,0.0,0.03,ON,1.57
2026-03-26 16:41:35.941,PX4_0,False,-0.967,-1.88,342.519,-0.025,-0.0262,-0.0105,-0.1081,0.1712,-1.6396,0.0382,-0.0907,-0.0465,0.098,1.64,64,14.98,0.0,0.0,0.0,0.03,ON,1.63
2026-03-26 16:41:36.955,PX4_0,False,-0.428,-1.411,342.336,0.0606,0.0943,0.0261,-0.044,0.078,-1.6667,0.0337,-0.0835,-0.0184,0.09,1.667,64,14.98,0.0,0.0,0.0,0.03,ON,1.66
2026-03-26 16:41:37.972,PX4_0,False,-0.361,-1.444,342.417,0.0172,-0.067,-0.0074,-0.0188,0.0176,-1.6718,-0.0075,-0.03,-0.0122,0.031,1.672,63,14.916,0.0,0.0,0.0,0.03,ON,1.66
2026-03-26 16:41:39.006,PX4_0,False,0.538,-1.768,343.912,0.0706,0.0379,0.1624,-0.0725,0.0007,-1.6782,-0.0191,0.0291,0.0286,0.035,1.678,63,14.916,0.0,0.0,0.0,0.03,ON,1.68
2026-03-26 16:41:40.012,OFFBOARD,True,-0.763,-2.762,350.904,0.0173,-0.0322,0.0761,-0.0916,0.0327,-1.6555,0.0571,0.0668,0.0252,0.088,1.655,63,14.916,0.0,0.0,0.0,0.03,ON,1.63
2026-03-26 16:41:41.018,PX4_0,False,-1.619,-1.853,353.047,-0.1029,0.0045,0.0244,0.0207,0.0845,-1.6236,0.1345,-0.064,-0.0073,0.149,1.624,62,14.861,0.0,0.0,0.0,0.03,ON,1.62
2026-03-26 16:41:42.025,PX4_0,False,-1.388,-0.239,353.772,0.0759,0.0758,0.0455,0.1718,0.0277,-1.6306,0.0256,-0.1389,-0.0064,0.141,1.631,61,14.831,0.0,0.0,0.0,0.03,ON,1.62
2026-03-26 16:41:43.033,PX4_0,False,0.125,0.346,354.987,0.0753,0.07,0.0081,0.2375,-0.0641,-1.6198,-0.1434,-0.1247,0.0072,0.19,1.62,61,14.831,0.0,0.0,0.0,0.03,ON,1.61
2026-03-26 16:41:44.041,PX4_0,False,1.021,-0.485,356.316,0.0402,-0.0125,-0.008,0.2047,-0.1589,-1.6214,-0.2505,-0.0349,-0.0213,0.253,1.621,60,14.795,0.0,0.0,0.0,0.03,ON,1.62
2026-03-26 16:41:45.044,PX4_0,False,1.199,-1.326,358.167,0.0255,-0.0948,0.0043,0.101,-0.1691,-1.6254,-0.1997,0.0734,-0.0092,0.213,1.625,60,14.795,0.0,0.0,0.0,0.03,ON,1.62
2026-03-26 16:41:46.057,PX4_0,False,1.005,-2.881,359.206,0.0624,0.0431,0.0488,-0.0136,-0.1349,-1.6351,-0.0301,0.1168,-0.0089,0.121,1.635,60,14.781,0.0,0.0,0.0,0.03,ON,0.0
2026-03-26 16:41:47.063,PX4_0,False,-0.489,-2.684,0.154,-0.0486,0.0332,0.0109,-0.0168,-0.042,-1.6508,0.1537,0.1034,0.0109,0.185,1.651,60,14.781,0.0,0.0,0.0,0.03,ON,1.64
2026-03-26 16:41:48.067,PX4_0,False,-0.771,-1.787,0.353,-0.0655,0.0253,-0.0066,0.0987,0.0115,-1.6463,0.1911,-0.0549,0.0191,0.199,1.646,60,14.78,0.0,0.0,0.0,0.03,ON,1.61
2026-03-26 16:41:49.077,PX4_0,False,-0.263,-1.268,0.385,-0.0041,-0.0315,-0.0123,0.1758,-0.0152,-1.61,0.1181,-0.0985,-0.0212,0.154,1.61,60,14.78,0.0,0.0,0.0,0.03,ON,1.6
2026-03-26 16:41:50.082,PX4_0,False,0.105,-1.145,0.931,-0.0185,-0.0095,0.016,0.2312,-0.0949,-1.6339,0.015,-0.0688,-0.0114,0.07,1.634,59,14.751,0.0,0.0,0.0,0.03,ON,1.63
2026-03-26 16:41:51.086,PX4_0,False,0.326,-1.344,1.386,0.0228,0.0366,0.0071,0.213,-0.1411,-2.399,0.0096,-0.0179,-1.4271,0.02,2.399,59,14.751,0.0,0.0,0.0,0.03,ON,2.48
2026-03-26 16:41:52.090,PX4_0,False,0.787,-1.672,1.668,-0.0024,-0.0934,-0.0072,0.2105,-0.2103,-3.2921,-0.0403,0.0206,-0.2821,0.045,3.292,59,14.734,0.0,0.0,0.0,0.03,ON,3.27
2026-03-26 16:41:53.094,PX4_0,False,0.45,-3.174,1.587,0.0604,0.0519,0.0162,0.0963,-0.1606,-3.4396,0.0826,0.0494,-0.0633,0.096,3.44,59,14.734,0.0,0.0,0.0,0.03,ON,3.43
2026-03-26 16:41:54.100,PX4_0,False,-0.306,-2.615,2.372,0.0744,0.0773,0.0222,0.123,-0.0833,-3.4796,0.2161,-0.0074,-0.0229,0.216,3.48,59,14.743,0.0,0.0,0.0,0.03,ON,3.48
2026-03-26 16:41:55.104,PX4_0,False,-0.581,-2.014,2.064,0.0484,-0.0459,-0.0326,0.2173,-0.0494,-3.4935,0.2273,-0.0573,0.002,0.234,3.494,59,14.743,0.0,0.0,0.0,0.03,ON,3.49
2026-03-26 16:41:56.110,PX4_0,False,-0.013,-1.336,2.132,0.03,0.0112,0.0204,0.359,-0.0906,-3.4939,0.198,-0.0919,0.0009,0.218,3.494,59,14.725,0.0,0.0,0.0,0.03,ON,3.49
2026-03-26 16:41:57.113,PX4_0,False,0.499,-0.95,2.988,0.0116,0.0236,0.0006,0.4583,-0.1736,-3.4894,0.0774,-0.0596,-0.0008,0.098,3.489,59,14.725,0.0,0.0,0.0,0.03,ON,3.48
2026-03-26 16:41:58.123,PX4_0,False,0.978,-1.975,3.315,-0.0243,-0.0297,-0.0174,0.4186,-0.2581,-3.4867,0.0294,0.0017,0.0,0.029,3.487,58,14.696,0.0,0.0,0.0,0.03,ON,3.48
2026-03-26 16:41:59.129,OFFBOARD,True,0.374,-2.367,3.733,-0.0303,0.0586,-0.016,0.3716,-0.225,-3.4834,0.1089,0.0576,-0.0095,0.123,3.483,58,14.696,0.0,0.0,0.0,0.03,ON,3.47
2026-03-26 16:42:00.134,PX4_0,False,-0.091,-1.23,3.922,-0.013,-0.0106,-0.0293,0.473,-0.1493,-3.4941,0.1043,0.0032,-0.0131,0.104,3.494,58,14.698,0.0,0.0,0.0,0.03,ON,3.5
2026-03-26 16:42:01.140,PX4_0,False,0.145,-0.811,3.717,0.0494,0.017,0.0044,0.5952,-0.1651,-3.5055,0.006,-0.0319,0.0059,0.032,3.506,58,14.698,0.0,0.0,0.0,0.03,ON,3.5
2026-03-26 16:42:02.145,PX4_0,False,0.0,0.0,0.0,0,0,0,0.6236,-0.2185,-3.4966,-0.0836,-0.0057,0.0057,0.084,3.497,58,14.678,0.0,0.0,0.0,0.03,ON,3.49
2026-03-26 16:42:03.151,PX4_0,False,0.474,-1.072,4.213,-0.0183,0.021,0.0094,0.6159,-0.2388,-3.487,-0.1203,0.0332,-0.006,0.125,3.487,58,14.678,0.0,0.0,0.0,0.03,ON,3.47
2026-03-26 16:42:04.155,PX4_0,False,-0.106,-1.326,3.814,0.0286,-0.0103,0.0244,0.5891,-0.2041,-3.4886,-0.1257,0.0524,-0.0121,0.136,3.489,58,14.664,0.0,0.0,0.0,0.03,ON,3.48
2026-03-26 16:42:05.159,PX4_0,False,0.005,-0.943,3.512,0.0646,-0.0483,-0.0181,0.6079,-0.1916,-3.4914,-0.0968,0.0094,-0.0073,0.097,3.491,58,14.664,0.0,0.0,0.0,0.03,ON,3.49
2026-03-26 16:42:06.170,PX4_0,False,0.387,-0.622,3.891,0.0398,-0.0596,-0.0001,0.6698,-0.2423,-3.5018,-0.1506,0.0305,0.0028,0.154,3.502,57,14.647,0.0,0.0,0.0,0.03,ON,0.0
2026-03-26 16:42:07.174,PX4_0,False,-0.492,-0.679,3.95,-0.0215,-0.0697,-0.0241,0.671,-0.1941,-3.4999,-0.2075,0.0394,0.0126,0.211,3.5,57,14.647,0.0,0.0,0.0,0.03,ON,3.49
2026-03-26 16:42:08.179,PX4_0,False,-0.048,-1.368,4.029,-0.0554,0.0335,0.016,0.5995,-0.1998,-3.4879,-0.1889,-0.042,-0.0043,0.194,3.488,57,14.634,0.0,0.0,0.0,0.03,ON,3.48
2026-03-26 16:42:09.189,PX4_0,False,-0.387,-1.293,3.595,-0.0252,-0.0828,-0.0143,0.5741,-0.1926,-3.489,-0.135,-0.0201,-0.0078,0.136,3.489,57,14.634,0.0,0.0,0.0,0.03,ON,3.49
2026-03-26 16:42:10.198,PX4_0,False,0.256,-1.387,3.62,0.029,0.034,0.0045,0.5735,-0.2421,-3.4943,-0.1226,-0.0407,-0.0061,0.129,3.494,57,14.619,0.0,0.0,0.0,0.03,ON,3.49
2026-03-26 16:42:11.204,PX4_0,False,0.39,-1.04,3.834,-0.0782,0.0553,-0.0139,0.5953,-0.294,-3.4948,-0.1191,0.0059,-0.0014,0.119,3.495,57,14.619,0.0,0.0,0.0,0.03,ON,3.49
2026-03-26 16:42:12.209,PX4_0,False,-0.086,-0.881,4.358,-0.0799,-0.0296,0.0007,0.6067,-0.2735,-3.4945,-0.1406,0.0132,-0.0054,0.141,3.494,56,14.606,0.0,0.0,0.0,0.03,ON,3.49
2026-03-26 16:42:13.218,PX4_0,False,-0.075,-1.156,4.69,-0.0774,-0.0382,-0.0373,0.587,-0.2623,-3.4976,-0.1427,-0.0164,-0.0048,0.144,3.498,56,14.606,0.0,0.0,0.0,0.03,ON,3.49
2026-03-26 16:42:14.224,PX4_0,False,-0.006,-1.926,4.096,0.001,0.048,0.0072,0.5021,-0.2593,-3.4983,-0.0876,-0.049,-0.0083,0.1,3.498,57,14.618,0.0,0.0,0.0,0.03,ON,3.49
2026-03-26 16:42:15.231,PX4_0,False,0.112,-1.582,4.507,-0.0311,0.0459,-0.001,0.4858,-0.2886,-3.497,-0.0248,-0.0314,-0.0048,0.04,3.497,57,14.618,0.0,0.0,0.0,0.03,ON,3.49
2026-03-26 16:42:16.241,PX4_0,False,-0.038,-1.803,4.127,0.0714,0.0047,0.0365,0.4673,-0.3027,-3.4987,0.0121,-0.0137,0.0003,0.018,3.499,57,14.614,0.0,0.0,0.0,0.03,ON,3.48
2026-03-26 16:42:17.249,PX4_0,False,0.144,-1.889,4.294,0.0906,0.0275,0.0106,0.456,-0.3432,-3.4961,0.0633,-0.0133,-0.002,0.065,3.496,57,14.614,0.0,0.0,0.0,0.03,ON,3.5
2026-03-26 16:42:18.252,PX4_0,False,0.05,-1.57,4.294,0.0116,-0.0714,-0.0101,0.5021,-0.3487,-3.5038,0.0511,0.0319,0.0095,0.06,3.504,56,14.605,0.0,0.0,0.0,0.03,ON,3.51
2026-03-26 16:42:19.261,PX4_0,False,-0.004,-1.798,4.44,0.0604,-0.0078,0.0136,0.5103,-0.3406,-3.5033,0.0445,0.0041,0.0076,0.045,3.503,56,14.605,0.0,0.0,0.0,0.03,ON,3.5
2026-03-26 16:42:20.267,PX4_0,False,0.241,-1.42,4.415,-0.0142,0.011,-0.0064,0.5646,-0.3903,-3.5058,0.0307,0.0021,0.0107,0.031,3.506,56,14.598,0.0,0.0,0.0,0.03,ON,3.5
2026-03-26 16:42:21.274,PX4_0,False,0.0,0.0,0.0,0,0,0,0.547,-0.4089,-3.4978,0.0105,0.003,0.0065,0.011,3.498,56,14.598,0.0,0.0,0.0,0.03,ON,3.48
2026-03-26 16:42:22.277,PX4_0,False,-0.098,-1.874,4.391,-0.0726,-0.0019,-0.0201,0.5282,-0.3997,-3.4832,0.0426,0.0229,-0.0078,0.048,3.483,56,14.587,0.0,0.0,0.0,0.03,ON,3.48
2026-03-26 16:42:23.281,PX4_0,False,-0.08,-1.596,3.751,-0.0104,0.0573,0.0024,0.5635,-0.363,-3.4978,0.0679,-0.051,-0.0096,0.085,3.498,56,14.587,0.0,0.0,0.0,0.03,ON,3.5
2026-03-26 16:42:24.285,PX4_0,False,-0.604,-1.386,4.075,-0.088,-0.09,-0.032,0.6073,-0.3518,-3.5042,0.022,-0.0092,0.0118,0.024,3.504,56,14.59,0.0,0.0,0.0,0.03,ON,3.49
2026-03-26 16:42:25.290,PX4_0,False,-0.517,-1.613,4.333,-0.0385,-0.0504,0.0077,0.6061,-0.3667,-3.4939,-0.0036,-0.0497,-0.0041,0.05,3.494,56,14.59,0.0,0.0,0.0,0.03,ON,3.48
2026-03-26 16:42:26.298,PX4_0,False,0.936,-1.505,4.702,-0.0118,0.0435,0.0143,0.6178,-0.5228,-3.491,0.0384,-0.0335,-0.0147,0.051,3.491,56,14.569,0.0,0.0,0.0,0.03,ON,3.49
2026-03-26 16:42:27.305,PX4_0,False,-0.425,-0.41,4.163,-0.0675,0.0093,0.011,0.7123,-0.4676,-3.4977,-0.0451,0.1256,-0.0054,0.133,3.498,56,14.569,0.0,0.0,0.0,0.03,ON,3.49
2026-03-26 16:42:28.309,PX4_0,False,-0.822,-0.108,4.418,0.0299,-0.0458,-0.0096,0.7388,-0.4087,-3.4969,-0.1718,-0.0102,0.003,0.172,3.497,56,14.565,0.0,0.0,0.0,0.03,ON,3.49
2026-03-26 16:42:29.317,PX4_0,False,0.51,-0.795,4.261,0.0686,0.0481,0.025,0.7094,-0.5082,-3.4967,-0.2261,-0.049,-0.0041,0.231,3.497,56,14.565,0.0,0.0,0.0,0.03,ON,3.5
2026-03-26 16:42:30.323,PX4_0,False,0.598,-1.049,5.142,0.0842,0.0885,0.0389,0.6808,-0.558,-3.5001,-0.1944,0.0641,0.0008,0.205,3.5,55,14.552,0.0,0.0,0.0,0.03,ON,3.51
2026-03-26 16:42:31.331,OFFBOARD,True,-0.855,-1.175,5.046,0.0879,0.0054,0.0093,0.6347,-0.4388,-3.4982,-0.1921,0.0592,0.0025,0.201,3.498,55,14.552,0.0,0.0,0.0,0.03,ON,3.5
2026-03-26 16:42:32.339,PX4_0,False,-0.742,-1.009,4.08,0.091,0.0685,0.0163,0.6345,-0.4078,-3.4977,-0.1506,-0.0766,0.0055,0.169,3.498,55,14.535,0.0,0.0,0.0,0.03,ON,3.5
2026-03-26 16:42:33.345,PX4_0,False,0.004,-0.49,4.848,0.0151,-0.0971,0.0065,0.6758,-0.4811,-3.4986,-0.1493,-0.0483,0.0027,0.157,3.499,55,14.535,0.0,0.0,0.0,0.03,ON,3.5
2026-03-26 16:42:34.353,PX4_0,False,-0.024,-0.958,5.526,0.0426,-0.0381,-0.0096,0.6549,-0.5188,-3.5019,-0.177,-0.0204,0.0004,0.178,3.502,55,14.527,0.0,0.0,0.0,0.03,ON,3.5
2026-03-26 16:42:35.364,PX4_0,False,-0.308,-1.205,5.275,-0.0649,0.0681,0.0043,0.6028,-0.5039,-3.5077,-0.1247,-0.0273,-0.0053,0.128,3.508,55,14.527,0.0,0.0,0.0,0.03,ON,3.51
2026-03-26 16:42:36.367,OFFBOARD,True,-0.04,-1.241,5.367,-0.0123,0.0121,-0.0121,0.5746,-0.5267,-3.5174,-0.1087,-0.0471,0.004,0.118,3.517,55,14.546,0.0,0.0,0.0,0.03,ON,3.51
2026-03-26 16:42:37.377,OFFBOARD,True,0.134,-1.571,5.268,-0.0573,-0.0616,-0.0265,0.5206,-0.5541,-3.5067,-0.0486,-0.0441,0.0169,0.066,3.507,55,14.546,0.0,0.0,0.0,0.03,ON,3.49
2026-03-26 16:42:38.387,PX4_0,False,0.455,-2.304,5.339,0.0382,-0.033,-0.0021,0.445,-0.5689,-3.4956,0.0406,-0.0706,-0.0042,0.081,3.496,55,14.536,0.0,0.0,0.0,0.03,ON,3.5
2026-03-26 16:42:39.393,OFFBOARD,True,-0.355,-2.566,5.46,-0.0301,0.0083,-0.0085,0.4074,-0.5649,-3.5055,0.1095,-0.0007,0.0038,0.11,3.506,55,14.536,0.0,0.0,0.0,0.03,ON,3.51
2026-03-26 16:42:40.410,OFFBOARD,True,-0.115,-2.414,5.592,0.0235,0.0168,-0.0008,0.4013,-0.5459,-3.5074,0.2028,-0.0601,0.0127,0.212,3.507,55,14.545,0.0,0.0,0.0,0.03,ON,3.5
2026-03-26 16:42:41.416,OFFBOARD,True,0.546,-2.199,5.451,0.0383,0.0439,0.0217,0.4332,-0.6048,-3.5032,0.2431,-0.0589,0.0099,0.25,3.503,55,14.545,0.0,0.0,0.0,0.03,ON,3.49
2026-03-26 16:42:42.426,OFFBOARD,True,-0.251,-1.991,5.116,0.0186,0.0585,0.0248,0.4926,-0.612,-3.4855,0.2398,0.0059,-0.0006,0.24,3.486,55,14.528,0.0,0.0,0.0,0.03,ON,3.47
2026-03-26 16:42:43.442,OFFBOARD,True,-0.025,-1.55,5.309,0.0601,-0.0319,0.0044,0.5905,-0.6272,-3.4827,0.2043,0.0039,-0.0126,0.204,3.483,55,14.528,0.0,0.0,0.0,0.03,ON,3.48
2026-03-26 16:42:44.450,OFFBOARD,True,0.399,-0.737,5.262,0.0798,0.0082,-0.005,0.7392,-0.673,-3.498,0.1226,0.0207,-0.0177,0.124,3.498,55,14.517,0.0,0.0,0.0,0.03,ON,3.51
2026-03-26 16:42:45.453,OFFBOARD,True,0.529,-0.481,4.49,-0.0716,-0.0121,-0.024,0.885,-0.7154,-3.5162,0.005,0.0033,0.0029,0.006,3.516,55,14.517,0.0,0.0,0.0,0.03,ON,3.5
2026-03-26 16:42:46.459,OFFBOARD,True,0.654,-0.526,5.399,-0.0585,0.0054,0.0148,0.9216,-0.7233,-3.5,-0.1516,0.0459,0.0055,0.158,3.5,55,14.519,0.0,0.0,0.0,0.03,ON,3.49
2026-03-26 16:42:47.467,OFFBOARD,True,-0.216,-1.264,6.057,-0.0581,0.0746,0.0081,0.8586,-0.6836,-3.4935,-0.1791,0.0371,-0.0028,0.183,3.494,55,14.519,0.0,0.0,0.0,0.03,ON,3.48
2026-03-26 16:42:48.478,OFFBOARD,True,0.178,-1.801,6.205,-0.0362,-0.0554,-0.0239,0.7644,-0.686,-3.4901,-0.113,-0.0277,-0.0056,0.116,3.49,54,14.507,0.0,0.0,0.0,0.03,ON,3.48
2026-03-26 16:42:49.483,OFFBOARD,True,-0.122,-2.0,5.516,-0.0014,-0.0348,-0.0118,0.6686,-0.676,-3.498,-0.0301,-0.0043,-0.0054,0.03,3.498,54,14.507,0.0,0.0,0.0,0.03,ON,3.5
2026-03-26 16:42:50.491,OFFBOARD,True,-0.084,-2.35,4.995,0.0141,-0.0853,-0.0221,0.6234,-0.6895,-3.5032,0.0574,-0.0316,-0.0017,0.066,3.503,54,14.508,0.0,0.0,0.0,0.03,ON,3.5
2026-03-26 16:42:51.498,OFFBOARD,True,-0.159,-1.762,4.905,0.0335,0.005,-0.0087,0.6567,-0.682,-3.5024,0.1014,-0.0232,0.0043,0.104,3.502,54,14.508,0.0,0.0,0.0,0.03,ON,3.5
2026-03-26 16:42:52.503,OFFBOARD,True,-0.442,-1.469,5.557,0.001,0.0444,0.0276,0.6791,-0.6837,-3.4954,0.0662,-0.036,-0.0048,0.075,3.495,54,14.499,0.0,0.0,0.0,0.03,ON,3.48
2026-03-26 16:42:53.508,OFFBOARD,True,0.455,-1.541,5.549,0.0296,0.0577,0.0344,0.6443,-0.7398,-3.485,0.0305,-0.0214,0.047,0.037,3.485,54,14.499,0.0,0.0,0.0,0.03,ON,3.49
2026-03-26 16:42:54.511,OFFBOARD,True,0.464,-2.426,5.891,0.0252,-0.027,-0.0087,0.5418,-0.7573,-3.4317,0.0397,0.0065,0.049,0.04,3.432,54,14.494,0.0,0.0,0.0,0.03,ON,3.41
2026-03-26 16:42:55.518,OFFBOARD,True,0.2,-2.135,5.709,-0.0051,0.0376,0.0233,0.5132,-0.7197,-3.3646,0.1104,-0.0083,0.0613,0.111,3.365,54,14.494,0.0,0.0,0.0,0.03,ON,3.36
2026-03-26 16:42:56.524,OFFBOARD,True,-0.194,-1.995,5.619,0.0821,-0.0573,-0.0086,0.5209,-0.6657,-3.2998,0.1184,-0.0185,0.0649,0.12,3.3,54,14.503,0.0,0.0,0.0,0.03,ON,3.3
2026-03-26 16:42:57.530,OFFBOARD,True,-0.084,-2.016,5.47,-0.0065,0.0653,-0.0102,0.5415,-0.6502,-3.2414,0.1127,-0.0482,0.0675,0.123,3.241,54,14.503,0.0,0.0,0.0,0.03,ON,3.24
2026-03-26 16:42:58.536,OFFBOARD,True,0.634,-1.697,5.772,0.039,-0.0309,-0.0398,0.5871,-0.6995,-3.178,0.1024,-0.033,0.0523,0.108,3.178,54,14.487,0.0,0.0,0.0,0.03,ON,3.17
2026-03-26 16:42:59.539,OFFBOARD,True,0.595,-1.712,5.472,-0.0789,-0.076,-0.0502,0.6121,-0.7418,-3.1213,0.0746,0.0075,0.0449,0.075,3.121,54,14.487,0.0,0.0,0.0,0.03,ON,3.12
2026-03-26 16:43:00.542,OFFBOARD,True,0.113,-1.948,4.661,-0.067,-0.0387,-0.0473,0.595,-0.7255,-3.0691,0.0591,0.0363,0.0476,0.069,3.069,54,14.499,0.0,0.0,0.0,0.03,ON,3.06
2026-03-26 16:43:01.548,OFFBOARD,True,0.334,-1.879,5.835,-0.0198,-0.0498,0.0207,0.5985,-0.7204,-3.0157,0.0664,0.0002,0.0551,0.066,3.016,54,14.499,0.0,0.0,0.0,0.03,ON,3.02
2026-03-26 16:43:02.554,OFFBOARD,True,0.355,-1.493,6.293,-0.0059,0.0415,-0.036,0.6398,-0.6983,-2.9636,0.0535,-0.0032,0.0516,0.054,2.964,54,14.485,0.0,0.0,0.0,0.03,ON,2.97
2026-03-26 16:43:03.562,OFFBOARD,True,-0.393,-1.57,5.383,0.0354,-0.0565,0.0107,0.6484,-0.623,-2.9101,0.0395,-0.0209,0.0468,0.045,2.91,54,14.485,0.0,0.0,0.0,0.03,ON,2.89
2026-03-26 16:43:04.570,OFFBOARD,True,-0.369,-1.314,6.028,0.0502,-0.0187,0.0279,0.6882,-0.6324,-2.8558,0.0017,-0.0673,0.0497,0.067,2.856,54,14.479,0.0,0.0,0.0,0.03,ON,2.84
2026-03-26 16:43:05.575,OFFBOARD,True,1.143,-1.55,8.166,0.0605,0.0779,0.0604,0.7368,-0.7388,-2.7858,-0.0141,-0.0931,0.0574,0.094,2.786,54,14.479,0.0,0.0,0.0,0.03,ON,2.78
2026-03-26 16:43:06.579,OFFBOARD,True,1.001,-1.113,7.574,0.0229,-0.086,-0.0792,0.7617,-0.7938,-2.7347,-0.0481,0.0272,0.0575,0.055,2.735,54,14.469,0.0,0.0,0.0,0.03,ON,2.72
2026-03-26 16:43:07.589,OFFBOARD,True,-0.402,-1.089,6.847,0.0048,-0.0316,0.0307,0.7468,-0.6986,-2.6782,-0.0427,0.0778,0.0605,0.089,2.678,54,14.469,0.0,0.0,0.0,0.03,ON,2.67
2026-03-26 16:43:08.594,OFFBOARD,True,-0.295,-1.133,7.401,0.0544,-0.0492,0.0114,0.7449,-0.6355,-2.6203,-0.0451,-0.0216,0.055,0.05,2.62,54,14.478,0.0,0.0,0.0,0.03,ON,2.6
2026-03-26 16:43:09.600,OFFBOARD,True,0.595,-1.669,6.657,0.042,-0.0729,-0.0165,0.7367,-0.7149,-2.5549,-0.0524,-0.069,0.0685,0.087,2.555,54,14.478,0.0,0.0,0.0,0.03,ON,2.54
2026-03-26 16:43:10.605,OFFBOARD,True,0.512,-1.729,9.27,0.0196,-0.0168,0.0063,0.7063,-0.7559,-2.4757,-0.0652,-0.0029,0.0728,0.065,2.476,54,14.476,0.0,0.0,0.0,0.03,ON,2.47
2026-03-26 16:43:11.609,OFFBOARD,True,0.562,-1.593,8.388,0.0308,0.0237,0.0052,0.658,-0.7554,-2.4034,-0.0256,-0.0053,0.0701,0.026,2.403,54,14.476,0.0,0.0,0.0,0.03,ON,2.39
2026-03-26 16:43:12.618,OFFBOARD,True,0.265,-1.507,8.085,-0.0376,0.0078,-0.0663,0.6928,-0.7019,-2.342,-0.0159,0.0233,0.0337,0.028,2.342,53,14.456,0.0,0.0,0.0,0.03,ON,2.33
2026-03-26 16:43:13.622,OFFBOARD,True,0.058,-0.734,7.627,-0.0297,-0.1001,0.0005,0.8168,-0.6673,-2.2917,-0.0421,-0.015,0.055,0.045,2.292,53,14.456,0.0,0.0,0.0,0.03,ON,2.28
2026-03-26 16:43:14.626,OFFBOARD,True,0.773,-0.43,8.716,-0.0553,-0.0174,-0.0308,0.9526,-0.714,-2.2663,-0.1026,-0.1062,-0.0202,0.148,2.266,54,14.463,0.0,0.0,0.0,0.03,ON,2.25
2026-03-26 16:43:15.633,OFFBOARD,True,1.246,-0.073,9.664,0.074,-0.0541,-0.0068,0.9922,-0.7804,-2.2698,-0.2522,-0.0452,0.0046,0.256,2.27,54,14.463,0.0,0.0,0.0,0.03,ON,2.27
2026-03-26 16:43:16.638,OFFBOARD,True,0.914,-0.849,8.831,-0.0306,-0.0207,-0.0275,0.893,-0.8,-2.2706,-0.3237,0.0179,-0.0173,0.324,2.271,53,14.452,0.0,0.0,0.0,0.03,ON,2.26
2026-03-26 16:43:17.643,OFFBOARD,True,0.286,-2.591,8.805,-0.0215,0.0272,-0.0519,0.7691,-0.8097,-2.2807,-0.1488,0.0237,0.0148,0.151,2.281,53,14.452,0.0,0.0,0.0,0.03,ON,2.27
2026-03-26 16:43:18.648,OFFBOARD,True,-0.119,-1.671,10.261,0.0045,0.1292,0.0131,0.7591,-0.7554,-2.2179,-0.0221,-0.0202,0.0754,0.03,2.218,53,14.456,0.0,0.0,0.0,0.03,ON,2.21
2026-03-26 16:43:19.652,OFFBOARD,True,0.138,-1.395,11.4,-0.0572,-0.0817,-0.0295,0.7871,-0.732,-2.1614,-0.0239,0.0137,0.0614,0.028,2.161,53,14.456,0.0,0.0,0.0,0.03,ON,2.16
2026-03-26 16:43:20.656,OFFBOARD,True,-0.04,-2.357,10.832,0.053,0.0461,0.0671,0.6959,-0.7297,-2.0937,-0.0022,-0.0363,0.057,0.036,2.094,53,14.445,0.0,0.0,0.0,0.03,ON,2.08
2026-03-26 16:43:21.661,OFFBOARD,True,0.61,-2.035,12.005,0.0772,0.0863,0.0093,0.6698,-0.7692,-2.0166,0.0703,-0.0399,0.0648,0.081,2.017,53,14.445,0.0,0.0,0.0,0.03,ON,2.02
2026-03-26 16:43:22.666,OFFBOARD,True,0.279,-1.237,9.521,0.012,0.0541,-0.0493,0.6268,-0.76,-1.9689,0.0161,-0.0339,0.0211,0.038,1.969,53,14.448,0.0,0.0,0.0,0.03,ON,1.97
2026-03-26 16:43:23.669,OFFBOARD,True,0.646,-1.874,8.135,0.0666,-0.0603,-0.0424,0.5294,-0.801,-1.9647,-0.0027,-0.0345,0.0188,0.035,1.965,53,14.448,0.0,0.0,0.0,0.03,ON,1.95
2026-03-26 16:43:24.675,OFFBOARD,True,0.409,-1.855,9.946,0.0113,0.0281,0.0315,0.5067,-0.8298,-1.9332,0.0216,0.0236,0.0374,0.032,1.933,53,14.456,0.0,0.0,0.0,0.03,ON,1.93
2026-03-26 16:43:25.680,OFFBOARD,True,0.215,-0.47,8.498,-0.0095,-0.0543,0.0113,0.5444,-0.8577,-1.9088,-0.0354,-0.0106,-0.013,0.037,1.909,53,14.456,0.0,0.0,0.0,0.03,ON,1.91
2026-03-26 16:43:26.688,OFFBOARD,True,0.217,-1.302,7.322,-0.017,0.0538,0.0125,0.4741,-0.8612,-1.9148,-0.1146,-0.0006,0.0106,0.115,1.915,53,14.463,0.0,0.0,0.0,0.03,ON,1.9
2026-03-26 16:43:27.696,OFFBOARD,True,0.09,-1.834,7.755,-0.0888,0.0208,0.0423,0.4385,-0.8531,-1.8478,-0.0069,0.0285,0.0667,0.029,1.848,53,14.463,0.0,0.0,0.0,0.03,ON,1.84
2026-03-26 16:43:28.704,OFFBOARD,True,0.036,-1.769,7.79,-0.0389,-0.0971,-0.0579,0.4032,-0.8441,-1.7751,0.0126,0.023,0.0753,0.026,1.775,53,14.454,0.0,0.0,0.0,0.03,ON,1.78
2026-03-26 16:43:29.711,OFFBOARD,True,-0.464,-1.774,7.63,-0.054,0.037,0.0172,0.4072,-0.8267,-1.705,0.0457,0.0173,0.0683,0.049,1.705,53,14.454,0.0,0.0,0.0,0.03,ON,1.7
2026-03-26 16:43:30.715,OFFBOARD,True,0.172,-1.366,7.71,-0.0343,0.0702,0.0143,0.4381,-0.8602,-1.6427,0.0551,-0.0255,0.0535,0.061,1.643,53,14.435,0.0,0.0,0.0,0.03,ON,1.64
2026-03-26 16:43:31.735,OFFBOARD,True,-0.098,-1.451,7.064,-0.0511,-0.1209,-0.0427,0.4338,-0.8722,-1.5848,0.0035,0.0156,0.0535,0.016,1.585,53,14.435,0.0,0.0,0.0,0.03,ON,1.58
2026-03-26 16:43:32.740,OFFBOARD,True,0.354,-1.8,8.912,-0.006,-0.1132,0.0259,0.4043,-0.9125,-1.5258,0.0277,-0.0137,0.0622,0.031,1.526,52,14.411,0.0,0.0,0.0,0.03,ON,1.51
2026-03-26 16:43:33.744,OFFBOARD,True,0.367,-2.082,8.502,-0.0648,-0.0246,-0.0491,0.3728,-0.9162,-1.4691,0.0566,0.0262,0.0423,0.062,1.469,52,14.411,0.0,0.0,0.0,0.03,ON,1.47
2026-03-26 16:43:34.753,OFFBOARD,True,0.063,-2.032,6.736,-0.0238,-0.0582,-0.0559,0.3522,-0.8891,-1.4318,0.0693,0.0451,0.0482,0.083,1.432,53,14.426,0.0,0.0,0.0,0.03,ON,1.43
2026-03-26 16:43:35.763,OFFBOARD,True,-1.153,-0.888,5.33,-0.0477,0.0123,0.0373,0.3445,-0.8198,-1.3798,0.0808,-0.0291,0.0486,0.086,1.38,53,14.426,0.0,0.0,0.0,0.03,ON,1.37
2026-03-26 16:43:36.768,OFFBOARD,True,0.82,-1.787,6.54,0.0266,-0.0218,0.0278,0.3118,-0.8782,-1.3434,-0.004,-0.0793,0.0204,0.079,1.343,53,14.416,0.0,0.0,0.0,0.03,ON,1.32
2026-03-26 16:43:37.771,OFFBOARD,True,0.592,-2.012,6.281,-0.0039,0.0021,-0.0342,0.2669,-0.9065,-1.2829,0.0336,-0.0059,0.049,0.034,1.283,53,14.416,0.0,0.0,0.0,0.03,ON,1.27
2026-03-26 16:43:38.779,OFFBOARD,True,0.178,-1.641,5.229,0.0519,-0.106,0.0409,0.2859,-0.9041,-1.2338,0.0391,0.0523,0.0452,0.065,1.234,53,14.418,0.0,0.0,0.0,0.03,ON,1.24
2026-03-26 16:43:39.788,OFFBOARD,True,-0.613,-0.642,4.606,0.0293,-0.1868,-0.0336,0.3356,-0.8758,-1.1929,0.0177,0.033,0.0591,0.037,1.193,53,14.418,0.0,0.0,0.0,0.03,ON,1.19
2026-03-26 16:43:40.801,OFFBOARD,True,-0.468,-0.793,4.557,0.0273,0.076,0.0878,0.3216,-0.9038,-1.1901,-0.1064,-0.0587,0.0057,0.122,1.19,52,14.404,0.0,0.0,0.0,0.03,ON,1.18
2026-03-26 16:43:41.808,OFFBOARD,True,0.138,-2.03,6.187,0.0424,0.1037,0.0371,0.259,-0.9279,-1.1514,-0.0372,-0.0145,0.0768,0.04,1.151,52,14.404,0.0,0.0,0.0,0.03,ON,1.14
2026-03-26 16:43:42.811,OFFBOARD,True,-0.799,-1.399,3.831,0.0502,-0.0381,-0.0525,0.2774,-0.8653,-1.0758,0.0108,0.0215,0.0737,0.024,1.076,52,14.401,0.0,0.0,0.0,0.03,ON,1.06
2026-03-26 16:43:43.814,OFFBOARD,True,-0.464,-0.242,4.31,0.0682,-0.0772,0.0461,0.2959,-0.9028,-1.0227,-0.1011,-0.1554,0.0193,0.185,1.023,52,14.401,0.0,0.0,0.0,0.03,ON,1.01
2026-03-26 16:43:44.825,OFFBOARD,True,0.093,-1.798,4.602,0.0493,0.0732,-0.0142,0.2827,-0.9647,-0.9866,-0.0334,-0.042,0.0577,0.054,0.987,52,14.391,0.0,0.0,0.0,0.03,ON,0.98
2026-03-26 16:43:45.830,OFFBOARD,True,0.267,-1.649,3.414,0.0875,0.0685,0.0245,0.2649,-0.9838,-0.8827,-0.006,-0.0186,0.1699,0.02,0.883,52,14.391,0.0,0.0,0.0,0.03,ON,0.89
2026-03-26 16:43:46.836,OFFBOARD,True,0.0,0.0,0.0,0,0,0,0.2471,-1.0031,-0.7034,0.008,-0.0092,0.1601,0.012,0.703,52,14.409,0.0,0.0,0.0,0.03,ON,0.67
2026-03-26 16:43:47.840,OFFBOARD,True,0.075,-1.816,3.823,0.0635,-0.08,0.0086,0.2393,-0.9884,-0.6077,0.0025,0.014,0.0149,0.014,0.608,52,14.409,0.0,0.0,0.0,0.03,ON,0.64
2026-03-26 16:43:48.846,PX4_0,False,0.416,-1.433,2.945,0.0014,0.0857,0.0179,0.2523,-0.9982,-0.6067,0.0208,0.0291,0.0042,0.036,0.607,52,14.368,0.0,0.0,0.0,0.03,ON,0.59
2026-03-26 16:43:49.856,PX4_0,False,-0.283,-1.295,4.129,0.0185,-0.0038,-0.0013,0.2805,-0.9589,-0.6009,-0.0035,0.0424,-0.0049,0.043,0.601,52,14.368,0.0,0.0,0.0,0.03,ON,0.6
2026-03-26 16:43:50.868,PX4_0,False,-0.504,-1.225,2.412,-0.0146,-0.0341,-0.0344,0.3016,-0.9297,-0.593,-0.0199,0.0197,0.0046,0.028,0.593,52,14.39,0.0,0.0,0.0,0.03,ON,0.59
2026-03-26 16:43:51.872,PX4_0,False,0.221,-1.401,2.425,0.0226,-0.0611,-0.0241,0.3171,-0.9605,-0.6038,-0.028,-0.0701,-0.002,0.075,0.604,52,14.39,0.0,0.0,0.0,0.03,ON,0.6
2026-03-26 16:43:52.881,PX4_0,False,0.552,-1.249,2.682,-0.085,-0.1032,-0.0033,0.3238,-1.0051,-0.6075,-0.0333,-0.0293,0.0056,0.044,0.608,52,14.39,0.0,0.0,0.0,0.03,ON,0.6
2026-03-26 16:43:53.895,OFFBOARD,True,-0.068,-1.183,4.457,-0.0735,-0.0211,-0.0343,0.3061,-0.9886,-0.6021,-0.0398,0.0276,0.0048,0.048,0.602,52,14.39,0.0,0.0,0.0,0.03,ON,0.59
2026-03-26 16:43:54.904,PX4_0,False,-0.581,-1.733,2.473,-0.0023,0.0995,-0.0577,0.2571,-0.9485,-0.5939,-0.0308,0.0147,-0.0082,0.034,0.594,52,14.389,0.0,0.0,0.0,0.03,ON,0.59
2026-03-26 16:43:55.906,PX4_0,False,0.116,-2.033,1.343,-0.0554,0.0816,0.0311,0.2188,-0.964,-0.6082,-0.0097,-0.0336,-0.0138,0.035,0.608,52,14.389,0.0,0.0,0.0,0.03,ON,0.6
2026-03-26 16:43:56.913,PX4_0,False,-0.006,-1.887,1.868,-0.0232,0.0856,-0.0314,0.1812,-0.9671,-0.6045,0.0038,-0.0249,-0.0003,0.025,0.605,52,14.377,0.0,0.0,0.0,0.03,ON,0.59
2026-03-26 16:43:57.920,PX4_0,False,0.171,-1.885,1.176,-0.0281,-0.0234,-0.0385,0.163,-0.9779,-0.595,0.0328,-0.0073,0.0035,0.034,0.595,52,14.367,0.0,0.0,0.0,0.03,ON,0.59
2026-03-26 16:43:58.937,PX4_0,False,-0.121,-1.796,359.453,-0.038,-0.0045,-0.0274,0.1799,-0.975,-0.597,0.0474,0.0302,-0.0051,0.056,0.597,52,14.367,0.0,0.0,0.0,0.03,ON,0.59
2026-03-26 16:43:59.963,PX4_0,False,-0.314,-2.072,359.96,-0.0924,-0.036,-0.0029,0.1617,-0.9563,-0.593,0.0089,-0.0081,-0.0004,0.012,0.593,51,14.353,0.0,0.0,0.0,0.03,ON,0.59
2026-03-26 16:44:00.971,PX4_0,False,0.0,0.0,0.0,0,0,0,0.1484,-0.9772,-0.5951,0.0287,-0.0416,0.0007,0.051,0.595,51,14.353,0.0,0.0,0.0,0.03,ON,0.58
2026-03-26 16:44:01.976,PX4_0,False,0.741,-1.618,0.293,-0.0105,-0.0582,-0.0186,0.1805,-1.0324,-0.593,0.0336,-0.0265,0.0004,0.043,0.593,51,14.355,0.0,0.0,0.0,0.03,ON,0.59
2026-03-26 16:44:02.979,PX4_0,False,0.077,-1.421,1.291,0.0236,-0.0279,0.0063,0.2062,-1.0285,-0.5841,0.0265,0.0186,0.01,0.032,0.584,51,14.355,0.0,0.0,0.0,0.03,ON,0.58
2026-03-26 16:44:03.983,PX4_0,False,0.12,-1.501,0.662,0.0086,0.107,-0.0181,0.21,-1.0276,-0.579,0.0062,-0.0082,-0.0025,0.01,0.579,51,14.358,0.0,0.0,0.0,0.03,ON,0.57
2026-03-26 16:44:05.005,PX4_0,False,0.459,-1.76,0.292,0.0196,-0.0515,-0.0134,0.1938,-1.0535,-0.5801,-0.0073,-0.0078,-0.0055,0.011,0.58,51,14.358,0.0,0.0,0.0,0.03,ON,0.57
2026-03-26 16:44:06.033,PX4_0,False,0.054,-1.872,0.543,0.0418,-0.0514,0.0016,0.1455,-1.0324,-0.5872,-0.006,0.0148,-0.0207,0.016,0.587,51,14.346,0.0,0.0,0.0,0.03,ON,0.58
2026-03-26 16:44:07.039,PX4_0,False,0.392,-1.747,359.315,0.0902,-0.0168,-0.0184,0.1445,-1.0181,-0.5894,0.0316,-0.0338,-0.0058,0.046,0.589,51,14.346,0.0,0.0,0.0,0.03,ON,0.58
2026-03-26 16:44:08.046,PX4_0,False,0.479,-1.384,359.644,0.0052,-0.0398,-0.0072,0.1662,-0.9979,-0.5821,0.0063,-0.0004,0.0022,0.006,0.582,51,14.354,0.0,0.0,0.0,0.03,ON,0.57
2026-03-26 16:44:09.051,PX4_0,False,-0.004,-1.477,359.807,0.0327,0.0067,0.0138,0.17,-0.9803,-0.5781,-0.0023,-0.0097,-0.0075,0.01,0.578,51,14.354,0.0,0.0,0.0,0.03,ON,0.57
2026-03-26 16:44:10.057,PX4_0,False,0.53,-1.689,358.404,0.0442,-0.0373,0.0018,0.1655,-1.032,-0.5812,-0.0103,-0.0149,-0.0165,0.018,0.581,51,14.357,0.0,0.0,0.0,0.03,ON,0.57
2026-03-26 16:44:11.064,PX4_0,False,0.368,-1.401,359.178,0.0084,0.0535,0.028,0.1814,-1.042,-0.5823,-0.0046,0.025,0.0021,0.025,0.582,51,14.357,0.0,0.0,0.0,0.03,ON,0.57
2026-03-26 16:44:12.072,PX4_0,False,0.22,-1.327,357.606,-0.0379,-0.07,-0.0293,0.1856,-1.0278,-0.5872,-0.0143,0.0177,-0.0138,0.023,0.587,51,14.341,0.0,0.0,0.0,0.03,ON,0.59
2026-03-26 16:44:13.076,PX4_0,False,-0.025,-1.716,359.96,-0.0144,0.0171,0.0568,0.165,-1.0037,-0.5842,-0.0144,0.0139,0.0159,0.02,0.584,51,14.341,0.0,0.0,0.0,0.03,ON,0.58
2026-03-26 16:44:14.082,PX4_0,False,-0.295,-1.655,0.169,-0.0405,0.0611,-0.0344,0.1577,-0.9714,-0.5725,0.0078,0.0049,-0.0118,0.009,0.573,51,14.345,0.0,0.0,0.0,0.03,ON,0.56
2026-03-26 16:44:15.090,PX4_0,False,0.065,-1.383,0.049,0.0417,0.0211,0.0133,0.1692,-0.9918,-0.5791,0.0106,-0.0549,-0.0103,0.056,0.579,51,14.345,0.0,0.0,0.0,0.03,ON,0.57
2026-03-26 16:44:16.096,PX4_0,False,0.451,-1.446,359.828,0.0355,0.0061,-0.0231,0.1583,-1.0311,-0.5736,-0.0221,-0.0062,0.0018,0.023,0.574,51,14.338,0.0,0.0,0.0,0.03,ON,0.58
2026-03-26 16:44:17.110,PX4_0,False,0.471,-1.75,358.173,-0.0828,-0.0484,-0.0413,0.1094,-1.0339,-0.5792,-0.0141,0.0212,-0.0047,0.025,0.579,51,14.338,0.0,0.0,0.0,0.03,ON,0.57
2026-03-26 16:44:18.114,PX4_0,False,-0.197,-2.035,356.521,-0.0549,-0.0202,-0.0362,0.054,-0.9918,-0.5776,0.0201,0.0249,0.0033,0.032,0.578,51,14.322,0.0,0.0,0.0,0.03,ON,0.58
2026-03-26 16:44:19.119,PX4_0,False,0.005,-2.47,356.278,0.0056,-0.0754,-0.0175,-0.0309,-0.9552,-0.5229,-0.0037,-0.014,0.1383,0.014,0.523,51,14.322,0.0,0.0,0.0,0.03,ON,0.52
2026-03-26 16:44:20.124,PX4_0,False,0.009,-2.79,355.459,-0.0124,0.101,-0.0011,-0.0689,-0.9438,-0.3713,0.0896,-0.0437,0.1664,0.1,0.371,51,14.337,0.0,0.0,0.0,0.03,ON,0.38
2026-03-26 16:44:21.131,PX4_0,False,0.0,0.0,0.0,0,0,0,-0.0469,-0.9777,-0.3917,0.073,-0.0535,-0.0572,0.091,0.392,51,14.337,0.0,0.0,0.0,0.03,ON,0.33
2026-03-26 16:44:22.140,PX4_0,False,0.766,-2.132,357.259,-0.0354,-0.1249,-0.0256,-0.0052,-1.0153,-0.3712,0.053,-0.0301,-0.0507,0.061,0.371,50,14.315,0.0,0.0,0.0,0.03,ON,0.36
2026-03-26 16:44:23.144,PX4_0,False,0.628,-1.703,358.074,-0.1462,-0.028,0.0624,0.051,-1.0455,-0.3907,0.0239,-0.0075,0.0096,0.025,0.391,50,14.315,0.0,0.0,0.0,0.03,ON,0.4
2026-03-26 16:44:24.148,PX4_0,False,0.665,-1.471,359.637,-0.0827,0.0237,-0.0221,0.0734,-1.0741,-0.3981,-0.0165,0.0089,-0.0022,0.019,0.398,51,14.331,0.0,0.0,0.0,0.03,ON,0.39
2026-03-26 16:44:25.155,PX4_0,False,0.514,-2.059,357.353,0.1138,0.0319,0.0056,0.0527,-1.0803,-0.3943,-0.0261,0.0412,0.013,0.049,0.394,51,14.331,0.0,0.0,0.0,0.03,ON,0.39
2026-03-26 16:44:26.158,PX4_0,False,0.481,-2.276,357.151,0.0438,-0.048,-0.0066,0.011,-1.0587,-0.3946,-0.0193,0.0503,-0.0025,0.054,0.395,51,14.33,0.0,0.0,0.0,0.03,ON,0.4
2026-03-26 16:44:27.163,PX4_0,False,-0.065,-2.193,355.287,0.0547,0.0313,-0.0096,-0.014,-0.9963,-0.4013,-0.0091,0.0629,0.0158,0.064,0.401,51,14.33,0.0,0.0,0.0,0.03,ON,0.4
2026-03-26 16:44:28.177,PX4_0,False,0.137,-2.125,354.596,0.1018,0.0875,0.0127,0.0092,-0.9792,-0.4154,0.0294,-0.0092,-0.003,0.031,0.415,51,14.325,0.0,0.0,0.0,0.03,ON,0.37
2026-03-26 16:44:29.186,PX4_0,False,-0.031,-1.683,354.247,0.0798,0.0263,0.0299,0.0734,-0.9851,-0.3799,0.0013,0.0139,-0.0317,0.014,0.38,51,14.325,0.0,0.0,0.0,0.03,ON,0.36
2026-03-26 16:44:30.191,PX4_0,False,0.726,-1.423,353.676,0.0423,0.0682,0.0539,0.1234,-1.0008,-0.3971,-0.0265,-0.0177,-0.0297,0.032,0.397,51,14.327,0.0,0.0,0.0,0.03,ON,0.4
2026-03-26 16:44:31.198,PX4_0,False,0.467,-0.801,355.889,0.0474,-0.0048,0.038,0.1572,-1.0058,-0.4138,-0.0493,0.0303,0.0216,0.058,0.414,51,14.327,0.0,0.0,0.0,0.03,ON,0.42
2026-03-26 16:44:32.205,PX4_0,False,0.273,-1.63,355.286,0.1015,0.0359,0.0275,0.1193,-0.9886,-0.4112,-0.0884,0.0033,-0.0041,0.088,0.411,51,14.325,0.0,0.0,0.0,0.03,ON,0.4
2026-03-26 16:44:33.214,PX4_0,False,0.243,-1.596,354.524,0.077,-0.001,0.0208,0.0679,-0.98,-0.411,-0.0483,0.0224,0.0058,0.053,0.411,51,14.325,0.0,0.0,0.0,0.03,ON,0.42
2026-03-26 16:44:34.219,PX4_0,False,0.114,-2.373,355.33,0.0909,-0.008,0.014,-0.0301,-0.9446,-0.392,-0.0509,0.0203,0.0743,0.055,0.392,50,14.29,0.0,0.0,0.0,0.03,ON,0.39
2026-03-26 16:44:35.229,PX4_0,False,-0.024,-2.0,355.82,0.0908,0.0264,0.0208,-0.0925,-0.9203,-0.2716,-0.0115,0.0221,0.1107,0.025,0.272,50,14.29,0.0,0.0,0.0,0.03,ON,0.23
2026-03-26 16:44:36.238,PX4_0,False,0.0,0.0,0.0,0,0,0,-0.1379,-0.9128,-0.0682,0.0379,0.0305,-0.0014,0.049,0.068,52,14.391,0.0,0.0,0.0,0.03,ON,0.02
2026-03-26 16:44:37.243,PX4_0,False,0.719,-2.559,355.155,-0.0493,-0.0009,-0.0017,-0.1511,-0.92,-0.0797,-0.0134,-0.0032,-0.0222,0.014,0.08,52,14.391,0.0,0.0,0.0,0.03,ON,0.01
2026-03-26 16:44:38.251,PX4_0,False,0.734,-2.603,354.795,-0.0385,-0.0153,0.0017,-0.1522,-0.922,-0.1028,-0.011,-0.0058,-0.023,0.012,0.103,64,15.08,0.0,0.0,0.0,0.03,ON,0.01
2026-03-26 16:44:39.260,PX4_0,False,0.769,-2.606,354.46,-0.0365,-0.0074,0.01,-0.1456,-0.9206,-0.1298,-0.0048,-0.0026,-0.0324,0.005,0.13,64,15.08,0.0,0.0,0.0,0.03,ON,0.01
2026-03-26 16:44:40.267,PX4_0,False,0.79,-2.598,354.144,-0.0596,0.0217,0.0507,-0.1393,-0.9199,-0.1678,-0.0002,0.0046,-0.0332,0.005,0.168,69,15.307,0.0,0.0,0.0,0.03,ON,0.01
2026-03-26 16:44:41.274,PX4_0,False,-2.102,2.243,353.492,-0.0263,0.1822,-0.082,-0.1436,-0.9201,-0.2177,-0.1036,-0.0096,-0.2102,0.104,0.218,69,15.307,0.0,0.0,0.0,0.03,ON,0.0
2026-03-26 16:44:42.279,PX4_0,False,0.984,-3.038,351.907,0.0999,-0.0822,-0.0252,-0.2587,-0.9244,0.0227,0.1471,-0.0435,0.3692,0.153,-0.023,65,15.054,0.0,0.0,0.0,0.03,ON,0.01
2026-03-26 16:44:43.288,PX4_0,False,0.472,-0.658,352.858,0.0003,-0.0035,-0.0024,-0.1863,-0.9277,0.0037,0.1245,0.0102,0.0224,0.125,-0.004,65,15.054,0.0,0.0,0.0,0.03,ON,0.01
2026-03-26 16:44:44.295,PX4_0,False,0.364,-0.461,352.373,0.0035,-0.0005,-0.0024,-0.291,-0.935,-0.0344,-0.0084,-0.0004,-0.0125,0.008,0.034,73,15.514,0.0,0.0,0.0,0.03,ON,0.01
2026-03-26 16:44:45.305,PX4_0,False,0.385,-0.486,351.893,0.0005,0.0009,-0.0011,-0.295,-0.934,-0.0419,-0.0049,0.0013,-0.0193,0.005,0.042,73,15.514,0.0,0.0,0.0,0.03,ON,0.01
2026-03-26 16:44:46.310,PX4_0,False,0.396,-0.488,351.386,0.0011,0.0026,-0.0002,-0.2949,-0.9314,-0.0406,-0.0044,0.0035,-0.0151,0.006,0.041,75,15.611,0.0,0.0,0.0,0.03,ON,0.01
2026-03-26 16:44:47.322,PX4_0,False,0.372,-0.499,350.868,0.0007,0.0013,-0.0036,-0.2963,-0.9287,-0.0337,-0.0012,0.0019,-0.0045,0.002,0.034,75,15.611,0.0,0.0,0.0,0.03,ON,0.01
2026-03-26 16:44:48.334,PX4_0,False,0.348,-0.256,350.403,0.0052,0.0029,-0.0036,-0.2995,-0.9281,-0.0326,-0.0025,0.0007,-0.0073,0.003,0.033,76,15.647,0.0,0.0,0.0,0.03,ON,0.01
2026-03-26 16:44:49.341,OFFBOARD,False,0.366,-0.226,349.837,0.0001,0.0027,-0.0039,-0.3059,-0.925,-0.0362,0.0009,-0.0019,-0.0117,0.002,0.036,76,15.647,0.0,0.0,0.0,0.03,ON,0.01
2026-03-26 16:44:50.352,OFFBOARD,False,0.394,-0.257,349.229,0.0019,0.0014,-0.0057,-0.3156,-0.9188,-0.0359,0.0008,0.0016,-0.0089,0.002,0.036,77,15.689,0.0,0.0,0.0,0.03,ON,0.01
2026-03-26 16:44:51.359,OFFBOARD,False,0.397,-0.249,348.516,-0.0038,-0.0016,-0.0044,-0.3258,-0.9142,-0.0348,0.001,0.0015,-0.0098,0.002,0.035,77,15.689,0.0,0.0,0.0,0.03,ON,0.01
2026-03-26 16:44:52.372,OFFBOARD,False,0.394,-0.291,347.869,0.0059,0.0021,-0.005,-0.3374,-0.9091,-0.0354,0.0025,-0.0009,-0.0111,0.003,0.035,78,15.72,0.0,0.0,0.0,0.03,ON,0.01
2026-03-26 16:44:53.379,OFFBOARD,False,0.358,-0.352,347.244,-0.0041,0.0073,0.0019,-0.3492,-0.9032,-0.037,0.0025,0.0012,-0.0129,0.003,0.037,78,15.72,0.0,0.0,0.0,0.03,ON,0.01
2026-03-26 16:44:54.389,OFFBOARD,False,0.408,-0.247,346.57,0.0038,-0.0025,0.0024,-0.3619,-0.8981,-0.0384,0.0019,0.0011,-0.0145,0.002,0.038,78,15.734,0.0,0.0,0.0,0.03,ON,0.01
2026-03-26 16:44:55.395,OFFBOARD,False,0.374,-0.371,345.935,0.0,0.003,-0.0006,-0.3758,-0.8924,-0.0379,-0.0009,0.0016,-0.0116,0.002,0.038,78,15.734,0.0,0.0,0.0,0.03,ON,0.01
2026-03-26 16:44:56.401,OFFBOARD,False,0.367,-0.334,345.298,-0.0039,-0.0023,-0.0039,-0.3888,-0.8868,-0.0337,-0.0022,-0.0005,-0.0092,0.002,0.034,79,15.769,0.0,0.0,0.0,0.03,ON,0.01
2026-03-26 16:44:57.407,OFFBOARD,False,0.344,-0.38,344.664,-0.0003,-0.0004,-0.0019,-0.4003,-0.882,-0.0344,-0.0012,-0.0003,-0.0088,0.001,0.034,79,15.769,0.0,0.0,0.0,0.03,ON,0.01
2026-03-26 16:44:58.410,OFFBOARD,False,0.365,-0.367,344.044,0.007,0.0008,-0.0025,-0.4122,-0.8765,-0.0355,0.0016,0.0011,-0.0099,0.002,0.035,79,15.8,0.0,0.0,0.0,0.03,ON,0.01
2026-03-26 16:44:59.418,OFFBOARD,False,0.358,-0.407,343.392,0.0099,0.0037,-0.004,-0.4247,-0.8716,-0.0367,-0.0009,-0.0011,-0.0123,0.001,0.037,79,15.8,0.0,0.0,0.0,0.03,ON,0.0
2026-03-26 16:45:00.423,OFFBOARD,False,0.381,-0.357,342.864,0.0084,0.0002,-0.0024,-0.4358,-0.866,-0.037,0.0015,0.0013,-0.0138,0.002,0.037,79,15.815,0.0,0.0,0.0,0.03,ON,0.01
2026-03-26 16:45:01.427,OFFBOARD,False,0.365,-0.386,342.425,0.0007,0.0055,0.0022,-0.4458,-0.8616,-0.0374,0.0026,-0.0007,-0.0108,0.003,0.037,79,15.815,0.0,0.0,0.0,0.03,ON,0.01
2026-03-26 16:45:02.437,OFFBOARD,False,0.325,-0.391,341.911,-0.0004,0.0007,-0.0008,-0.4573,-0.8576,-0.0353,-0.0026,0.0009,-0.0096,0.003,0.035,80,15.833,0.0,0.0,0.0,0.03,ON,0.01
2026-03-26 16:45:03.442,OFFBOARD,False,0.341,-0.343,341.357,0.0065,0.0013,-0.0064,-0.467,-0.8531,-0.035,-0.0001,0.0021,-0.0097,0.002,0.035,80,15.833,0.0,0.0,0.0,0.03,ON,0.01
2026-03-26 16:45:04.447,OFFBOARD,False,0.309,-0.416,340.863,0.0018,-0.0026,-0.0042,-0.4762,-0.8493,-0.0337,0.0011,0.0002,-0.0078,0.001,0.034,80,15.849,0.0,0.0,0.0,0.03,ON,0.01
2026-03-26 16:45:05.452,OFFBOARD,False,0.329,-0.281,340.439,-0.0034,-0.0023,-0.0028,-0.4844,-0.8474,-0.034,0.0004,-0.003,-0.0092,0.003,0.034,80,15.849,0.0,0.0,0.0,0.03,ON,0.01
2026-03-26 16:45:06.457,OFFBOARD,False,0.352,-0.344,340.0,0.0004,0.0031,-0.0044,-0.4933,-0.8434,-0.038,0.0029,-0.0012,-0.0118,0.003,0.038,81,15.864,0.0,0.0,0.0,0.03,ON,0.01
2026-03-26 16:45:07.462,OFFBOARD,False,0.335,-0.386,339.598,-0.0053,-0.0001,-0.0013,-0.4989,-0.8395,-0.0358,0.0034,0.0008,-0.011,0.003,0.036,81,15.864,0.0,0.0,0.0,0.03,ON,0.01
2026-03-26 16:45:08.470,OFFBOARD,False,0.366,-0.291,339.223,-0.0022,-0.0017,-0.0017,-0.5075,-0.8356,-0.0349,0.0016,0.0021,-0.0082,0.003,0.035,81,15.865,0.0,0.0,0.0,0.03,ON,0.01
2026-03-26 16:45:09.474,POSCTL,False,0.329,-0.213,338.925,-0.0061,-0.0038,-0.0023,-0.5127,-0.8354,-0.0347,0.0009,-0.0031,-0.0105,0.003,0.035,81,15.865,0.0,0.0,0.0,0.03,ON,0.01
2026-03-26 16:45:10.480,POSCTL,False,0.312,-0.209,338.573,-0.0071,-0.001,-0.0039,-0.5197,-0.8325,-0.0373,0.0001,0.0009,-0.0115,0.001,0.037,81,15.872,0.0,0.0,0.0,0.03,ON,0.01
2026-03-26 16:45:11.485,POSCTL,False,0.239,-0.213,338.254,-0.0028,-0.0031,-0.0003,-0.5267,-0.829,-0.0312,0.0031,-0.0024,-0.0028,0.004,0.031,81,15.872,0.0,0.0,0.0,0.03,ON,0.01
2026-03-26 16:45:12.494,POSCTL,False,0.293,-0.561,337.879,0.0002,0.0025,-0.003,-0.5322,-0.8298,-0.0334,-0.0035,-0.0031,-0.0092,0.005,0.033,81,15.887,0.0,0.0,0.0,0.03,ON,0.01
2026-03-26 16:45:13.501,POSCTL,False,0.373,-0.485,331.361,-0.0155,-0.0004,-0.0076,-0.5211,-0.8173,-0.0366,-0.0251,-0.006,-0.0123,0.026,0.037,81,15.887,0.0,0.0,0.0,0.03,ON,0.01
2026-03-26 16:45:14.507,POSCTL,False,0.097,-0.74,328.345,0.0029,-0.0011,-0.0018,-0.6026,-0.7901,-0.0395,0.0055,0.005,-0.0136,0.007,0.04,82,15.912,0.0,0.0,0.0,0.03,ON,0.01
2026-03-26 16:45:15.513,POSCTL,False,0.696,-0.297,286.346,0.0115,-0.038,-1.2606,-0.6259,-0.7664,-0.0304,-0.0236,0.0231,0.0008,0.033,0.03,82,15.912,0.0,0.0,0.0,0.03,ON,0.01
2026-03-26 16:45:16.518,POSCTL,False,0.413,0.432,275.304,0.0074,-0.0028,-0.0103,-0.7833,-0.7091,-0.0269,0.0092,-0.0083,0.0007,0.012,0.027,82,15.911,0.0,0.0,0.0,0.03,ON,0.01
2026-03-26 16:45:17.523,POSCTL,False,0.425,0.512,273.465,-0.0051,0.0061,0.0013,-0.8803,-0.6606,-0.0298,-0.0022,0.0007,-0.0014,0.002,0.03,82,15.911,0.0,0.0,0.0,0.03,ON,0.01
2026-03-26 16:45:18.532,POSCTL,False,0.444,0.58,272.135,0.0036,-0.002,0.0072,-0.9206,-0.6397,-0.0321,-0.0063,0.0008,-0.0052,0.006,0.032,81,15.906,0.0,0.0,0.0,0.03,ON,0.0
2026-03-26 16:45:19.541,POSCTL,False,0.437,0.813,263.949,0.0867,0.1488,-3.3515,-0.9425,-0.6284,-0.0348,-0.0442,0.0274,-0.0103,0.052,0.035,81,15.906,0.0,0.0,0.0,0.03,ON,0.01
2026-03-26 16:45:20.545,POSCTL,False,0.369,-1.581,214.108,0.0008,-0.0048,0.0063,0.0048,-0.0058,-0.0396,0.0228,-0.0018,-0.0109,0.023,0.04,82,15.917,0.0,0.0,0.0,0.03,ON,0.01
2026-03-26 16:45:21.549,POSCTL,False,0.435,-1.636,216.505,0.007,0.0037,-0.0046,-0.0011,0.0049,-0.0326,0.0081,0.0061,-0.0016,0.01,0.033,82,15.917,0.0,0.0,0.0,0.03,ON,0.01
2026-03-26 16:45:22.554,POSCTL,False,0.534,-1.642,217.717,0.0033,-0.0034,-0.0013,-0.0048,0.0027,-0.0292,0.004,0.0011,-0.0,0.004,0.029,82,15.917,0.0,0.0,0.0,0.03,ON,0.01
2026-03-26 16:45:23.561,POSCTL,False,0.705,-1.638,218.439,0.0013,0.001,-0.002,-0.005,0.0008,-0.0299,0.0024,-0.0037,-0.0008,0.004,0.03,82,15.917,0.0,0.0,0.0,0.03,ON,0.01
2026-03-26 16:45:24.566,POSCTL,False,0.708,-1.605,218.983,-0.0042,-0.0063,0.0023,-0.0046,0.0002,-0.0305,0.0016,-0.0065,-0.0016,0.007,0.03,82,15.924,0.0,0.0,0.0,0.03,ON,0.01
2026-03-26 16:45:25.572,POSCTL,False,0.757,-1.552,219.36,0.0026,-0.0011,-0.0017,-0.0043,0.0001,-0.0311,0.0026,-0.0073,-0.0025,0.008,0.031,82,15.924,0.0,0.0,0.0,0.03,ON,0.01
2026-03-26 16:45:26.576,POSCTL,False,0.787,-1.549,219.704,-0.0076,0.0025,0.0045,-0.0038,0.0,-0.0314,0.0041,-0.0125,-0.0039,0.013,0.031,82,15.926,0.0,0.0,0.0,0.03,ON,0.01
2026-03-26 16:45:27.582,POSCTL,False,0.947,-1.522,219.929,0.0012,0.0046,0.0038,-0.0041,-0.0003,-0.0324,0.0025,-0.009,-0.0031,0.009,0.032,82,15.926,0.0,0.0,0.0,0.03,ON,0.01
2026-03-26 16:45:28.587,POSCTL,False,0.922,-1.499,220.104,-0.0031,-0.0023,0.0103,-0.0036,0.0004,-0.0316,0.0024,-0.0087,-0.0022,0.009,0.032,83,15.971,0.0,0.0,0.0,0.03,ON,0.01
2026-03-26 16:45:29.592,POSCTL,False,0.882,-1.372,220.219,-0.0114,0.0022,-0.0003,-0.0038,0.0012,-0.0318,0.0042,-0.0059,-0.0035,0.007,0.032,83,15.971,0.0,0.0,0.0,0.03,ON,0.01
2026-03-26 16:45:30.598,POSCTL,False,43.237,-4.395,209.959,0.3982,-0.1207,-0.0948,-0.0127,-0.0063,-0.0795,0.0268,-0.0542,-0.0287,0.06,0.08,83,16.003,0.0,0.0,0.0,0.03,ON,0.16
2026-03-26 16:45:31.603,POSCTL,False,47.52,-4.742,208.713,-0.0349,0.0052,0.0067,-0.0079,0.0234,-0.0868,-0.0155,0.0581,-0.093,0.06,0.087,83,16.003,0.0,0.0,0.0,0.03,ON,0.18
2026-03-26 16:45:32.608,POSCTL,False,47.911,-4.765,208.996,0.1006,0.0108,0.0334,-0.0499,0.1363,-0.0935,-0.024,0.1066,-0.0981,0.109,0.093,84,16.046,0.0,0.0,0.0,0.03,ON,0.18
2026-03-26 16:45:33.612,POSCTL,False,48.717,-4.849,208.913,0.0137,-0.0331,-0.0297,-0.0905,0.2685,-0.0787,-0.0445,0.1423,-0.081,0.149,0.079,84,16.046,0.0,0.0,0.0,0.03,ON,0.18
2026-03-26 16:45:34.617,POSCTL,False,48.046,-4.838,209.159,-0.001,-0.0017,-0.0006,-0.1404,0.419,-0.0651,-0.0485,0.1587,-0.0621,0.166,0.065,84,16.049,0.0,0.0,0.0,0.03,ON,0.18
2026-03-26 16:45:35.624,POSCTL,False,48.72,-4.892,209.194,-0.0186,0.0014,-0.0053,-0.2069,0.594,-0.0547,-0.0662,0.1754,-0.0487,0.187,0.055,84,16.049,0.0,0.0,0.0,0.03,ON,0.18
2026-03-26 16:45:36.630,POSCTL,False,47.488,-4.635,209.436,-0.1063,0.0368,0.0231,-0.2967,0.7891,-0.0492,-0.0765,0.1895,-0.0404,0.204,0.049,84,16.033,0.0,0.0,0.0,0.03,ON,0.18
2026-03-26 16:45:37.635,POSCTL,False,-3.144,3.175,271.689,0.5686,-0.3168,2.0761,-0.0017,0.2024,0.0141,-0.0029,-0.0454,0.1159,0.045,-0.014,84,16.033,0.0,0.0,0.0,0.03,ON,0.07
2026-03-26 16:45:38.640,POSCTL,False,0.708,0.553,324.139,-0.0035,0.004,0.0057,0.0189,-0.0083,0.0016,0.0342,-0.0006,-0.0243,0.034,-0.002,83,16.0,0.0,0.0,0.0,0.03,ON,0.01
2026-03-26 16:45:39.644,POSCTL,False,0.576,0.649,324.111,0.006,-0.0037,-0.0002,0.0058,-0.0023,-0.0554,0.0071,0.0129,-0.033,0.015,0.055,83,16.0,0.0,0.0,0.0,0.03,ON,0.01
2026-03-26 16:45:40.646,POSCTL,False,0.471,0.651,323.86,0.0033,0.0007,-0.001,0.002,-0.0053,-0.0391,-0.0013,0.0018,-0.0058,0.002,0.039,83,15.98,0.0,0.0,0.0,0.03,ON,0.01
2026-03-26 16:45:41.651,POSCTL,False,0.432,0.677,323.648,-0.0026,0.0036,0.0016,0.0027,-0.0059,-0.0262,-0.0036,-0.0005,-0.0009,0.004,0.026,83,15.98,0.0,0.0,0.0,0.03,ON,0.01
2026-03-26 16:45:42.654,POSCTL,False,0.398,0.682,323.447,-0.0039,-0.0021,-0.0015,0.0039,-0.006,-0.0287,-0.0012,-0.0002,-0.0004,0.001,0.029,83,15.978,0.0,0.0,0.0,0.03,ON,0.01
2026-03-26 16:45:43.657,POSCTL,False,0.355,0.672,323.228,-0.0009,0.0027,0.0017,0.0035,-0.0043,-0.0258,-0.006,0.0003,0.0067,0.006,0.026,83,15.978,0.0,0.0,0.0,0.03,ON,0.01
2026-03-26 16:45:44.661,POSCTL,False,0.351,0.669,323.042,-0.0002,0.0038,-0.0019,0.005,-0.0042,-0.0245,-0.0022,0.0017,0.0071,0.003,0.025,83,15.972,0.0,0.0,0.0,0.03,ON,0.01
2026-03-26 16:45:45.667,POSCTL,False,0.323,0.679,322.871,-0.0029,0.0002,-0.0017,0.0063,-0.0067,-0.0281,-0.002,-0.0056,0.0009,0.006,0.028,83,15.972,0.0,0.0,0.0,0.03,ON,0.01
2026-03-26 16:45:46.672,STABILIZED,False,0.337,0.689,322.715,0.0041,0.0007,0.0028,0.0064,-0.006,-0.0311,-0.0022,-0.0034,-0.0029,0.004,0.031,83,15.971,0.0,0.0,0.0,0.03,ON,0.01
2026-03-26 16:45:47.677,STABILIZED,False,0.332,0.694,322.571,-0.0018,-0.0,0.0013,0.0059,-0.0039,-0.0303,-0.0026,0.0003,0.0006,0.003,0.03,83,15.971,0.0,0.0,0.0,0.03,ON,0.01
2026-03-26 16:45:48.682,STABILIZED,False,0.334,0.684,322.395,-0.0096,0.0008,-0.0001,0.0071,-0.0044,-0.0292,0.0001,0.0,0.0026,0.0,0.029,83,15.979,0.0,0.0,0.0,0.03,ON,0.01
2026-03-26 16:45:49.687,STABILIZED,False,0.327,0.666,322.256,-0.004,0.0053,0.0019,0.0066,-0.0047,-0.027,-0.001,-0.0002,0.0043,0.001,0.027,83,15.979,0.0,0.0,0.0,0.03,ON,0.01
2026-03-26 16:45:50.693,STABILIZED,False,0.339,0.666,322.135,0.0011,-0.0015,0.0031,0.0081,-0.0049,-0.0268,0.0034,-0.0011,0.0056,0.004,0.027,83,15.993,0.0,0.0,0.0,0.03,ON,0.01
2026-03-26 16:45:51.697,POSCTL,False,0.335,0.693,322.019,0.0008,0.0003,0.0002,0.0062,-0.0038,-0.0251,-0.001,0.003,0.0082,0.003,0.025,83,15.993,0.0,0.0,0.0,0.03,ON,0.01
2026-03-26 16:45:52.702,POSCTL,False,0.327,0.687,321.901,0.0014,0.0016,0.0012,0.0063,-0.0043,-0.0249,-0.0009,0.0022,0.0093,0.002,0.025,83,15.988,0.0,0.0,0.0,0.03,ON,0.01
2026-03-26 16:45:53.707,POSCTL,False,0.308,0.685,321.793,0.0004,-0.0019,0.0011,0.006,-0.0054,-0.0263,-0.002,-0.0019,0.0048,0.003,0.026,83,15.988,0.0,0.0,0.0,0.03,ON,0.01
2026-03-26 16:45:54.713,POSCTL,False,-0.126,-2.162,328.106,0.0019,-0.0103,-0.0128,0.1294,-0.0014,-0.0246,-0.03,-0.0545,0.0092,0.062,0.025,83,15.996,0.0,0.0,0.0,0.03,ON,0.01
2026-03-26 16:45:55.721,POSCTL,False,0.076,-2.123,327.962,-0.0005,0.0035,-0.0002,0.1357,0.0055,-0.0267,0.0009,0.0018,0.0015,0.002,0.027,83,15.996,0.0,0.0,0.0,0.03,ON,0.01
2026-03-26 16:45:56.728,POSCTL,False,0.051,-2.131,327.851,0.001,-0.0006,-0.0003,0.1366,0.0085,-0.0309,0.0004,0.0029,-0.0012,0.003,0.031,83,16.0,0.0,0.0,0.0,0.03,ON,0.0
2026-03-26 16:45:57.735,POSCTL,False,0.046,-2.117,327.742,-0.0004,-0.0021,-0.0014,0.135,0.0059,-0.0309,0.0018,-0.0006,-0.0005,0.002,0.031,83,16.0,0.0,0.0,0.0,0.03,ON,0.01
2026-03-26 16:45:58.741,POSCTL,False,0.042,-2.142,327.67,0.0142,-0.0043,-0.0019,0.1338,0.0043,-0.0314,-0.0042,0.0035,-0.0005,0.005,0.031,83,15.993,0.0,0.0,0.0,0.03,ON,0.01
2026-03-26 16:45:59.748,POSCTL,False,-0.0,-2.148,327.595,-0.0258,-0.031,-0.0069,0.1332,0.0033,-0.031,0.0027,-0.0022,-0.0055,0.003,0.031,83,15.993,0.0,0.0,0.0,0.03,ON,0.01
2026-03-26 16:46:00.755,POSCTL,False,7.621,-2.01,337.724,-0.4399,0.0907,-0.1455,0.575,-0.5627,-0.0554,0.2328,-0.4177,0.3436,0.478,0.055,83,15.992,0.0,0.0,0.0,0.03,ON,0.09
2026-03-26 16:46:01.761,POSCTL,False,0.638,-1.462,331.647,0.0016,-0.0045,0.0005,0.5042,-0.4548,-0.0226,-0.1172,0.1394,-0.0005,0.182,0.023,83,15.992,0.0,0.0,0.0,0.03,ON,0.01
2026-03-26 16:46:02.765,POSCTL,False,0.732,-1.591,331.901,-0.0011,0.002,0.0007,0.4395,-0.3241,-0.029,-0.1067,0.1719,0.0018,0.202,0.029,83,15.984,0.0,0.0,0.0,0.03,ON,0.01
2026-03-26 16:46:03.772,POSCTL,False,0.717,-1.645,332.596,0.0018,0.0003,-0.0012,-0.0067,0.014,-0.0295,-0.0094,0.0161,0.0024,0.019,0.029,83,15.984,0.0,0.0,0.0,0.03,ON,0.01
2026-03-26 16:46:04.778,POSCTL,False,0.665,-1.728,333.253,0.0004,0.0,0.0028,-0.0003,0.0033,-0.0291,-0.0018,0.0093,0.0037,0.009,0.029,83,15.995,0.0,0.0,0.0,0.03,ON,0.01
2026-03-26 16:46:05.782,POSCTL,False,0.641,-1.763,333.884,0.0001,0.0018,0.0013,0.0005,-0.0006,-0.0271,-0.001,0.0007,0.0051,0.001,0.027,83,15.995,0.0,0.0,0.0,0.03,ON,0.01
2026-03-26 16:46:06.787,POSCTL,False,0.616,-1.793,334.492,0.0008,-0.0002,-0.0006,0.0011,-0.0011,-0.0274,0.0002,0.0,0.0038,0.0,0.027,83,15.998,0.0,0.0,0.0,0.03,ON,0.01
2026-03-26 16:46:07.791,POSCTL,False,0.597,-1.799,335.072,0.0014,-0.0008,0.0032,0.0009,-0.0014,-0.0277,0.001,-0.0013,0.0045,0.002,0.028,83,15.998,0.0,0.0,0.0,0.03,ON,0.01
2026-03-26 16:46:08.796,POSCTL,False,0.596,-1.805,335.64,-0.0008,-0.0009,0.0003,0.0003,-0.0019,-0.0288,0.0009,-0.0021,0.0026,0.002,0.029,83,16.005,0.0,0.0,0.0,0.03,ON,0.01
2026-03-26 16:46:09.802,POSCTL,False,0.566,-1.816,336.179,-0.0007,0.0021,0.0014,-0.0003,-0.0009,-0.0279,-0.0012,-0.001,0.0054,0.002,0.028,83,16.005,0.0,0.0,0.0,0.03,ON,0.01
2026-03-26 16:46:10.807,POSCTL,False,0.573,-1.821,336.697,-0.0003,-0.0014,0.0017,0.0002,-0.0015,-0.0271,0.002,-0.0031,0.0041,0.004,0.027,84,16.018,0.0,0.0,0.0,0.03,ON,0.01
2026-03-26 16:46:11.811,POSCTL,False,0.576,-1.824,337.196,0.0009,0.0009,0.0026,0.0001,-0.0007,-0.0276,-0.0006,-0.0003,0.0036,0.001,0.028,84,16.018,0.0,0.0,0.0,0.03,ON,0.01
2026-03-26 16:46:12.819,POSCTL,False,0.578,-1.836,337.721,-0.0019,-0.0002,-0.0006,0.0,-0.0011,-0.029,0.0009,-0.0021,0.0027,0.002,0.029,84,16.012,0.0,0.0,0.0,0.03,ON,0.01
2026-03-26 16:46:13.824,POSCTL,False,0.573,-1.837,338.135,0.0019,-0.0004,0.0014,-0.0005,-0.0009,-0.0285,-0.0006,-0.0018,0.0036,0.002,0.029,84,16.012,0.0,0.0,0.0,0.03,ON,0.01
2026-03-26 16:46:14.833,POSCTL,False,0.576,-1.837,338.618,0.0013,0.0006,0.0019,0.0001,-0.0015,-0.028,0.0016,-0.0019,0.0037,0.002,0.028,84,16.01,0.0,0.0,0.0,0.03,ON,0.01
2026-03-26 16:46:15.839,POSCTL,False,0.591,-1.843,338.99,0.0015,-0.0013,-0.0006,0.0005,-0.0018,-0.0293,0.0019,-0.0018,0.0002,0.003,0.029,84,16.01,0.0,0.0,0.0,0.03,ON,0.01
2026-03-26 16:46:16.844,POSCTL,False,0.587,-1.845,339.445,0.001,-0.0002,0.0,-0.0004,0.0002,-0.0295,0.0009,0.0029,0.0026,0.003,0.029,84,16.02,0.0,0.0,0.0,0.03,ON,0.01
2026-03-26 16:46:17.849,POSCTL,False,0.58,-1.843,339.793,0.0006,0.0016,0.0006,-0.0003,-0.001,-0.0288,-0.0001,0.0003,0.0028,0.0,0.029,84,16.02,0.0,0.0,0.0,0.03,ON,0.01
2026-03-26 16:46:18.855,POSCTL,False,0.573,-1.85,340.172,-0.0019,0.0023,0.0,-0.0002,-0.0014,-0.0297,0.0007,-0.002,0.0,0.002,0.03,84,16.029,0.0,0.0,0.0,0.03,ON,0.01
2026-03-26 16:46:19.862,POSCTL,False,0.582,-1.852,340.573,-0.0014,0.0002,-0.0004,0.0001,-0.0014,-0.0311,0.0007,0.0013,-0.001,0.001,0.031,84,16.029,0.0,0.0,0.0,0.03,ON,0.01
2026-03-26 16:46:20.868,POSCTL,False,0.574,-1.87,340.93,-0.0001,0.0022,-0.0004,-0.0,-0.0028,-0.0298,0.002,-0.0039,-0.0007,0.004,0.03,84,16.018,0.0,0.0,0.0,0.03,ON,0.01
2026-03-26 16:46:21.875,POSCTL,False,0.588,-1.856,341.235,-0.0001,-0.0005,0.0041,0.0008,-0.0025,-0.0311,0.0026,-0.0019,-0.0032,0.003,0.031,84,16.018,0.0,0.0,0.0,0.03,ON,0.01
2026-03-26 16:46:22.880,POSCTL,False,0.602,-1.868,341.587,-0.0013,-0.0001,0.0003,-0.0004,-0.0009,-0.0317,0.0009,0.0,-0.0018,0.001,0.032,84,16.01,0.0,0.0,0.0,0.03,ON,0.01
2026-03-26 16:46:23.885,POSCTL,False,0.607,-1.87,341.903,0.0016,0.0005,0.0008,0.0003,-0.0013,-0.0292,0.0016,0.0014,0.0023,0.002,0.029,84,16.01,0.0,0.0,0.0,0.03,ON,0.01
2026-03-26 16:46:24.890,POSCTL,False,0.608,-1.88,342.216,0.0008,-0.0011,0.0007,0.0002,-0.0017,-0.029,0.0013,-0.0008,-0.0005,0.002,0.029,84,16.019,0.0,0.0,0.0,0.03,ON,0.01
2026-03-26 16:46:25.894,POSCTL,False,0.618,-1.89,342.511,-0.0014,-0.0008,0.0009,0.0004,-0.002,-0.0317,0.0024,-0.0008,-0.0036,0.003,0.032,84,16.013,0.0,0.0,0.0,0.03,ON,0.01
2026-03-26 16:46:26.907,POSCTL,False,0.628,-1.895,342.798,0.001,0.0005,0.0,0.0003,-0.002,-0.0321,0.002,0.0006,-0.0015,0.002,0.032,84,16.013,0.0,0.0,0.0,0.03,ON,0.01
2026-03-26 16:46:27.914,POSCTL,False,0.631,-1.904,343.081,0.0009,0.0001,0.0014,0.0002,-0.0012,-0.0295,0.0017,0.0008,0.001,0.002,0.029,84,16.013,0.0,0.0,0.0,0.03,ON,0.01
2026-03-26 16:46:28.920,POSCTL,False,0.635,-1.91,343.379,0.0014,-0.0021,0.0002,0.0004,-0.0009,-0.0288,0.003,0.0029,0.0011,0.004,0.029,84,16.013,0.0,0.0,0.0,0.03,ON,0.01
2026-03-26 16:46:29.926,POSCTL,False,0.62,-1.904,343.623,0.0002,0.0,0.003,0.0004,-0.0019,-0.0302,0.0008,0.0017,0.0,0.002,0.03,84,16.012,0.0,0.0,0.0,0.03,ON,0.01
2026-03-26 16:46:30.932,POSCTL,False,0.6,-1.91,343.913,0.0009,-0.0018,0.0013,-0.0001,-0.0022,-0.0292,0.0012,-0.0006,0.0017,0.001,0.029,84,16.012,0.0,0.0,0.0,0.03,ON,0.01
2026-03-26 16:46:31.940,POSCTL,False,0.593,-1.905,344.152,-0.0005,0.0014,0.001,0.0005,-0.0025,-0.0292,0.0009,-0.0009,0.0003,0.001,0.029,84,16.025,0.0,0.0,0.0,0.03,ON,0.01
2026-03-26 16:46:32.945,POSCTL,False,0.602,-1.915,344.387,0.0031,-0.001,0.0024,-0.0008,-0.002,-0.0297,-0.0016,0.0019,0.0005,0.002,0.03,84,16.025,0.0,0.0,0.0,0.03,ON,0.01
2026-03-26 16:46:33.956,POSCTL,False,0.597,-1.93,344.591,-0.0,0.0006,0.0032,0.0,-0.0015,-0.029,0.0011,0.001,0.0019,0.001,0.029,84,16.015,0.0,0.0,0.0,0.03,ON,0.01
2026-03-26 16:46:34.962,POSCTL,False,0.587,-1.941,344.842,0.0006,0.0011,0.0002,0.0002,-0.0025,-0.0282,0.0006,-0.0007,0.0026,0.001,0.028,84,16.015,0.0,0.0,0.0,0.03,ON,0.01
2026-03-26 16:46:35.969,POSCTL,False,0.584,-1.946,345.049,0.0004,-0.0009,-0.0003,-0.0002,-0.0021,-0.0285,0.0009,0.0008,0.0033,0.001,0.029,84,16.012,0.0,0.0,0.0,0.03,ON,0.01
2026-03-26 16:46:36.975,POSCTL,False,0.574,-1.943,345.27,-0.0001,0.0007,0.0024,0.0006,-0.0031,-0.0286,-0.0002,-0.0014,0.002,0.001,0.029,84,16.012,0.0,0.0,0.0,0.03,ON,0.01
2026-03-26 16:46:37.990,POSCTL,False,0.576,-1.956,345.472,0.0014,-0.001,0.0003,0.0004,-0.003,-0.0296,0.0021,-0.0006,0.0002,0.002,0.03,84,16.031,0.0,0.0,0.0,0.03,ON,0.01
2026-03-26 16:46:38.997,POSCTL,False,0.579,-1.963,345.674,0.0016,-0.0015,0.003,0.0002,-0.0032,-0.0296,0.002,-0.001,0.0007,0.002,0.03,84,16.031,0.0,0.0,0.0,0.03,ON,0.01
2026-03-26 16:46:40.004,POSCTL,False,0.582,-1.957,345.862,0.0,0.0,0.0,0.0006,-0.0028,-0.0304,0.0005,0.0003,-0.0007,0.001,0.03,84,16.024,0.0,0.0,0.0,0.03,ON,0.01
2026-03-26 16:46:41.010,POSCTL,False,0.597,-1.959,346.05,0.0009,-0.0004,0.0004,0.0002,-0.0031,-0.0303,0.0017,-0.0008,-0.0004,0.002,0.03,84,16.024,0.0,0.0,0.0,0.03,ON,0.01
2026-03-26 16:46:42.016,POSCTL,False,0.593,-1.951,346.222,0.002,-0.0002,0.0013,-0.0002,-0.0025,-0.0304,-0.0006,0.0008,-0.001,0.001,0.03,84,16.024,0.0,0.0,0.0,0.03,ON,0.01
2026-03-26 16:46:43.024,POSCTL,False,0.591,-1.949,346.397,-0.0004,0.0003,0.0003,-0.0,-0.0031,-0.0302,-0.0,0.0005,0.0012,0.001,0.03,84,16.024,0.0,0.0,0.0,0.03,ON,0.01
2026-03-26 16:46:44.029,POSCTL,False,0.578,-1.949,346.551,-0.0009,-0.0016,0.0007,-0.0002,-0.0029,-0.028,-0.0008,0.0006,0.0031,0.001,0.028,84,16.031,0.0,0.0,0.0,0.03,ON,0.01
2026-03-26 16:46:45.035,POSCTL,False,0.575,-1.959,346.728,-0.0003,0.0002,0.0009,0.001,-0.0044,-0.03,0.0016,-0.0036,-0.0024,0.004,0.03,84,16.031,0.0,0.0,0.0,0.03,ON,0.01
2026-03-26 16:46:46.039,POSCTL,False,0.575,-1.961,346.88,-0.0008,-0.0015,-0.0003,0.0004,-0.0033,-0.0307,-0.001,0.0025,0.0005,0.003,0.031,84,16.032,0.0,0.0,0.0,0.03,ON,0.01
2026-03-26 16:46:47.049,POSCTL,False,0.57,-1.967,347.019,-0.0001,-0.0011,0.0016,0.0006,-0.0036,-0.0307,0.0008,-0.0019,-0.0012,0.002,0.031,84,16.032,0.0,0.0,0.0,0.03,ON,0.01
2026-03-26 16:46:48.054,POSCTL,False,0.565,-1.964,347.16,-0.0015,0.0006,0.0012,0.0003,-0.004,-0.0305,-0.001,-0.0025,0.0003,0.003,0.03,84,16.017,0.0,0.0,0.0,0.03,ON,0.01
2026-03-26 16:46:49.059,POSCTL,False,0.579,-1.968,347.305,-0.0008,-0.0007,0.0014,0.0002,-0.0039,-0.03,-0.0005,-0.0012,-0.0007,0.001,0.03,84,16.017,0.0,0.0,0.0,0.03,ON,0.01
2026-03-26 16:46:50.065,POSCTL,False,0.585,-1.99,347.418,0.0002,-0.0018,0.0019,0.0006,-0.0034,-0.0294,0.002,-0.001,-0.0005,0.002,0.029,84,16.04,0.0,0.0,0.0,0.03,ON,0.01
2026-03-26 16:46:51.076,POSCTL,False,0.593,-1.993,347.546,0.0004,-0.0002,0.0014,0.0015,-0.004,-0.0315,0.0031,-0.0011,-0.0042,0.003,0.032,84,16.04,0.0,0.0,0.0,0.03,ON,0.01
2026-03-26 16:46:52.082,POSCTL,False,0.61,-1.993,347.659,-0.0002,-0.0009,0.0007,0.0013,-0.004,-0.0336,0.0018,-0.0001,-0.0053,0.002,0.034,84,16.027,0.0,0.0,0.0,0.03,ON,0.01
2026-03-26 16:46:53.088,POSCTL,False,0.61,-1.985,347.765,-0.0016,-0.0006,0.0013,0.0004,-0.0039,-0.0328,-0.0001,0.0011,-0.0029,0.001,0.033,84,16.027,0.0,0.0,0.0,0.03,ON,0.01
2026-03-26 16:46:54.094,POSCTL,False,0.593,-1.981,347.875,-0.0012,0.0001,0.0021,0.0002,-0.0038,-0.0317,0.0013,0.0004,-0.0036,0.001,0.032,84,16.028,0.0,0.0,0.0,0.03,ON,0.01
2026-03-26 16:46:55.099,POSCTL,False,0.591,-1.975,347.995,-0.0005,0.0002,0.0006,0.0003,-0.0043,-0.032,0.0005,-0.0003,-0.0034,0.001,0.032,84,16.028,0.0,0.0,0.0,0.03,ON,0.01
2026-03-26 16:46:56.104,POSCTL,False,0.597,-1.97,348.102,0.0005,0.0002,0.0008,0.0005,-0.0045,-0.0319,0.0011,-0.0011,-0.004,0.002,0.032,84,16.032,0.0,0.0,0.0,0.03,ON,0.01
2026-03-26 16:46:57.110,POSCTL,False,0.599,-1.973,348.199,-0.002,0.0016,-0.0005,-0.0004,-0.0043,-0.0318,-0.0009,0.0009,-0.0023,0.001,0.032,84,16.032,0.0,0.0,0.0,0.03,ON,0.01
2026-03-26 16:46:58.116,POSCTL,False,0.604,-1.998,348.308,0.0016,-0.0007,0.0022,0.001,-0.0051,-0.0318,0.0018,-0.001,-0.0035,0.002,0.032,84,16.031,0.0,0.0,0.0,0.03,ON,0.01
2026-03-26 16:46:59.121,POSCTL,False,0.608,-2.002,348.391,-0.0004,-0.0012,0.0018,0.0011,-0.0049,-0.0313,0.002,-0.0011,-0.0007,0.002,0.031,84,16.031,0.0,0.0,0.0,0.03,ON,0.01
2026-03-26 16:47:00.126,POSCTL,False,0.612,-2.019,348.468,0.0018,-0.0005,0.002,0.0012,-0.0044,-0.0304,0.0025,0.0007,-0.0006,0.003,0.03,84,16.03,0.0,0.0,0.0,0.03,ON,0.01
2026-03-26 16:47:01.133,POSCTL,False,0.616,-2.025,348.56,-0.0004,-0.0003,0.0003,0.0015,-0.0046,-0.0301,0.0033,0.0003,-0.0011,0.003,0.03,84,16.03,0.0,0.0,0.0,0.03,ON,0.01
2026-03-26 16:47:02.139,POSCTL,False,0.623,-2.018,348.633,0.0017,-0.0007,0.001,0.0015,-0.0054,-0.0316,0.0035,-0.0015,-0.0043,0.004,0.032,84,16.035,0.0,0.0,0.0,0.03,ON,0.01
2026-03-26 16:47:03.146,POSCTL,False,0.619,-2.004,348.703,-0.002,-0.0001,0.0013,0.0013,-0.0056,-0.0346,0.0036,-0.002,-0.009,0.004,0.035,84,16.035,0.0,0.0,0.0,0.03,ON,0.01
2026-03-26 16:47:04.151,POSCTL,False,0.633,-1.992,348.789,0.0014,0.0009,0.0022,0.0016,-0.0059,-0.0358,0.0038,-0.0023,-0.0089,0.004,0.036,84,16.035,0.0,0.0,0.0,0.03,ON,0.01
2026-03-26 16:47:05.157,POSCTL,False,0.646,-1.994,348.854,0.0026,-0.0001,-0.0007,0.0006,-0.0046,-0.0351,0.0011,0.0018,-0.0065,0.002,0.035,84,16.035,0.0,0.0,0.0,0.03,ON,0.01
2026-03-26 16:47:06.162,POSCTL,False,0.641,-2.011,348.92,-0.0013,-0.0012,-0.0008,-0.0001,-0.0039,-0.0324,0.0004,0.0041,-0.0026,0.004,0.032,84,16.035,0.0,0.0,0.0,0.03,ON,0.01
2026-03-26 16:47:07.167,POSCTL,False,0.625,-2.008,348.978,-0.0007,0.0008,0.0008,0.0006,-0.0052,-0.0309,0.0005,-0.0003,-0.0027,0.001,0.031,84,16.035,0.0,0.0,0.0,0.03,ON,0.01
2026-03-26 16:47:08.172,POSCTL,False,0.64,-2.025,349.041,0.0007,0.0008,0.0,0.0011,-0.0055,-0.0314,0.0033,0.0016,-0.0042,0.004,0.031,84,16.032,0.0,0.0,0.0,0.03,ON,0.01
2026-03-26 16:47:09.178,POSCTL,False,0.629,-2.017,349.1,0.0023,0.0002,-0.0005,0.0015,-0.0051,-0.0333,0.0032,0.0008,-0.0059,0.003,0.033,84,16.032,0.0,0.0,0.0,0.03,ON,0.01
2026-03-26 16:47:10.183,POSCTL,False,0.626,-2.011,349.167,0.0009,-0.0005,0.0012,0.0006,-0.0056,-0.034,0.0006,0.0001,-0.0062,0.001,0.034,84,16.038,0.0,0.0,0.0,0.03,ON,0.01
2026-03-26 16:47:11.188,POSCTL,False,0.623,-2.031,349.231,0.0003,0.0005,-0.0005,0.0007,-0.0058,-0.032,0.0011,0.0004,-0.0033,0.001,0.032,84,16.038,0.0,0.0,0.0,0.03,ON,0.01
2026-03-26 16:47:12.193,POSCTL,False,0.63,-2.029,349.287,-0.0023,-0.0011,0.0014,0.0015,-0.0058,-0.0318,0.0035,0.0003,-0.0036,0.004,0.032,83,16.002,0.0,0.0,0.0,0.03,ON,0.01
2026-03-26 16:47:13.198,POSCTL,False,0.64,-2.02,349.35,0.0033,-0.0001,0.0003,0.002,-0.0067,-0.034,0.0034,-0.0001,-0.0078,0.003,0.034,83,16.002,0.0,0.0,0.0,0.03,ON,0.01
2026-03-26 16:47:14.204,POSCTL,False,0.64,-2.024,349.392,0.0006,-0.0,-0.0005,0.0008,-0.0052,-0.0331,0.0019,0.0011,-0.005,0.002,0.033,83,15.988,0.0,0.0,0.0,0.03,ON,0.01
2026-03-26 16:47:15.212,POSCTL,False,0.64,-2.007,349.434,0.0021,-0.0012,0.0004,0.0014,-0.0057,-0.0329,0.0013,0.0009,-0.0051,0.002,0.033,83,15.988,0.0,0.0,0.0,0.03,ON,0.01
2026-03-26 16:47:16.219,POSCTL,False,0.629,-2.031,349.476,-0.0004,-0.0015,-0.0017,-0.0002,-0.005,-0.0325,0.0003,0.0031,-0.0043,0.003,0.033,83,15.988,0.0,0.0,0.0,0.03,ON,0.01
2026-03-26 16:47:17.227,POSCTL,False,0.0,0.0,0.0,0,0,0,0.0014,-0.0061,-0.0328,0.0025,-0.0014,-0.0065,0.003,0.033,83,15.988,0.0,0.0,0.0,0.03,ON,0.01
2026-03-26 16:47:18.232,POSCTL,False,0.636,-2.032,349.554,0.002,-0.0005,0.0021,0.0013,-0.007,-0.034,0.0031,-0.0006,-0.0076,0.003,0.034,84,16.027,0.0,0.0,0.0,0.03,ON,0.01
2026-03-26 16:47:19.234,POSCTL,False,0.657,-2.041,349.613,-0.0005,-0.0001,0.0008,0.0003,-0.0063,-0.0347,-0.001,0.0021,-0.0073,0.002,0.035,84,16.027,0.0,0.0,0.0,0.03,ON,0.01
