timestamp,mode,armed,roll_deg,pitch_deg,yaw_deg,rollspeed,pitchspeed,yawspeed,x,y,z,vx,vy,vz,speed_h,altitude_agl,battery_pct,battery_v,current_a0,current_a1,voltage_s1,voltage_s2,relay,distance_m
2026-03-25 19:59:12.915,PX4_0,False,0.0,0.0,0.0,0,0,0,0.0,-0.001,-0.0298,-0.0005,0.0001,0.0006,0.001,0.03,88,16.201,0.0,0.12,0.0,0.0,ON,0.01
2026-03-25 19:59:13.922,PX4_0,False,0.339,-2.234,348.15,0.0071,0.0034,0.0043,0.0002,-0.0013,-0.0297,0.0003,0.0011,0.0001,0.001,0.03,87,16.198,0.0,0.12,0.0,0.0,ON,0.01
2026-03-25 19:59:14.933,PX4_0,False,0.352,-2.232,348.517,0.0091,-0.0109,-0.0061,0.0001,-0.0013,-0.0299,0.0004,0.0026,-0.0005,0.003,0.03,87,16.188,0.0,0.12,0.0,0.0,ON,0.01
2026-03-25 19:59:15.938,PX4_0,False,0.348,-2.238,348.565,-0.0047,-0.0007,-0.0123,0.0002,-0.0012,-0.0302,-0.0006,0.0004,-0.0004,0.001,0.03,87,16.192,0.0,0.12,0.0,0.0,ON,0.01
2026-03-25 19:59:16.943,PX4_0,False,0.35,-2.24,348.625,0.0113,-0.0068,-0.0114,0.0001,-0.0017,-0.0304,0.0002,0.0004,-0.0008,0.0,0.03,87,16.197,0.0,0.12,0.0,0.0,ON,0.01
2026-03-25 19:59:17.947,PX4_0,False,-0.204,0.344,342.8,0.0277,0.0093,-0.0477,-0.0219,0.0056,-0.777,0.0085,-0.0123,-0.9637,0.015,0.777,79,15.725,0.0,0.12,0.0,0.0,ON,0.78
2026-03-25 19:59:18.956,PX4_0,False,-1.019,0.681,339.578,0.01,-0.0022,-0.0243,0.0158,0.0241,-1.2822,0.0643,0.0539,-0.3422,0.084,1.282,76,15.536,0.0,0.12,0.0,0.0,ON,1.29
2026-03-25 19:59:19.961,PX4_0,False,-1.475,0.631,335.623,0.0391,-0.0118,-0.01,0.0526,0.1077,-1.5302,0.0415,-0.0107,-0.1465,0.043,1.53,74,15.452,0.0,0.12,0.0,0.0,ON,1.53
2026-03-25 19:59:20.966,PX4_0,False,-1.126,0.774,340.592,0.0098,-0.01,0.0196,0.0702,0.1176,-1.6342,0.0075,-0.0691,-0.0665,0.07,1.634,73,15.384,0.0,0.12,0.0,0.0,ON,1.62
2026-03-25 19:59:21.973,PX4_0,False,-0.76,0.996,340.796,0.0284,0.0151,0.0074,0.0812,0.0679,-1.6585,-0.0084,-0.0603,-0.0277,0.061,1.659,72,15.354,0.0,0.12,0.0,0.0,ON,1.64
2026-03-25 19:59:22.980,PX4_0,False,-0.281,0.928,341.052,0.0247,-0.0088,0.0087,0.0502,-0.0113,-1.673,-0.0465,-0.0304,-0.0125,0.056,1.673,71,15.299,0.0,0.12,0.0,0.0,ON,1.68
2026-03-25 19:59:23.985,AUTO.SUB_0,True,-0.285,0.741,340.997,0.0166,-0.0061,-0.0242,0.0355,-0.0334,-1.6809,-0.0314,-0.01,-0.0105,0.033,1.681,70,15.271,0.0,0.12,0.0,0.0,ON,1.69
2026-03-25 19:59:24.994,PX4_0,False,0.216,-0.073,342.855,-0.0411,0.0135,0.0991,0.0191,-0.0834,-1.6878,0.0376,0.0614,0.0417,0.072,1.688,70,15.242,0.0,0.12,0.0,0.0,ON,1.7
2026-03-25 19:59:25.997,PX4_0,False,-1.056,1.019,346.644,-0.0592,0.0012,0.0373,0.1142,-0.0397,-1.6648,0.0839,0.0624,0.0149,0.105,1.665,69,15.212,0.0,0.12,0.0,0.0,ON,1.66
2026-03-25 19:59:27.004,PX4_0,False,-1.757,0.925,346.774,0.0161,-0.0111,-0.0002,0.1594,-0.0022,-1.6589,0.0328,-0.0027,0.0076,0.033,1.659,69,15.188,0.0,0.12,0.0,0.0,ON,1.66
2026-03-25 19:59:28.011,PX4_0,False,-1.26,1.012,346.479,0.0304,-0.0289,0.0195,0.1817,-0.0326,-1.6628,-0.0265,-0.1172,-0.0127,0.12,1.663,68,15.179,0.0,0.12,0.0,0.0,ON,1.65
2026-03-25 19:59:29.015,PX4_0,False,-0.691,1.149,347.043,0.0284,0.0104,0.0096,0.1535,-0.1373,-1.6492,-0.0493,-0.0804,0.0066,0.094,1.649,68,15.159,0.0,0.12,0.0,0.0,ON,1.64
2026-03-25 19:59:30.020,PX4_0,False,-1.19,0.606,347.378,-0.03,-0.0269,0.026,0.1119,-0.1798,-1.7866,-0.0564,0.0037,-1.3432,0.057,1.787,65,14.957,0.0,0.12,0.0,0.0,ON,1.76
2026-03-25 19:59:31.027,PX4_0,False,-1.212,1.507,348.803,-0.0195,-0.0079,-0.0058,0.153,-0.1561,-3.106,-0.0189,-0.0181,-0.5264,0.026,3.106,67,15.113,0.0,0.12,0.0,0.0,ON,3.1
2026-03-25 19:59:32.032,PX4_0,False,-0.746,0.24,349.121,0.0015,-0.0471,-0.027,0.0157,-0.165,-3.3887,-0.0408,-0.0158,-0.1314,0.044,3.389,67,15.137,0.0,0.12,0.0,0.0,ON,3.38
2026-03-25 19:59:33.037,PX4_0,False,-0.803,0.784,348.841,-0.0358,0.0181,-0.0082,0.0441,-0.1789,-3.4537,0.103,-0.0256,-0.0347,0.106,3.454,67,15.122,0.0,0.12,0.0,0.0,ON,3.45
2026-03-25 19:59:34.041,PX4_0,False,-1.185,1.635,349.155,-0.0201,0.0153,-0.0047,0.1706,-0.1807,-3.481,0.0655,-0.0443,-0.0148,0.079,3.481,67,15.114,0.0,0.12,0.0,0.0,ON,3.49
2026-03-25 19:59:35.046,PX4_0,False,-0.805,1.194,349.539,-0.0015,-0.0141,0.0098,0.1925,-0.2295,-3.4882,-0.0376,-0.0338,0.0035,0.051,3.488,67,15.107,0.0,0.12,0.0,0.0,ON,3.48
2026-03-25 19:59:36.054,PX4_0,False,-0.349,0.963,350.403,0.0185,-0.0086,0.0121,0,0,0,0,0,0,0.0,0,67,15.093,0.0,0.12,0.0,0.0,ON,3.48
2026-03-25 19:59:37.067,PX4_0,False,-0.887,0.879,351.069,0.0079,0.0003,0.0065,0.1508,-0.2701,-3.4896,0.0117,0.0265,0.0023,0.029,3.49,66,15.084,0.0,0.12,0.0,0.0,ON,3.48
2026-03-25 19:59:38.075,PX4_0,False,-1.093,0.779,351.052,0.0226,0.0101,0.0122,0.1577,-0.2574,-3.4903,0.0188,-0.0098,-0.0124,0.021,3.49,66,15.076,0.0,0.12,0.0,0.0,ON,3.49
2026-03-25 19:59:39.093,PX4_0,False,-0.859,1.032,351.714,0.017,0.0087,-0.003,0.1757,-0.2863,-3.5015,0.0163,-0.0263,0.0057,0.031,3.502,66,15.062,0.0,0.12,0.0,0.0,ON,3.51
2026-03-25 19:59:40.098,PX4_0,False,-0.607,1.222,352.179,-0.0118,0.0123,-0.0131,0.196,-0.3241,-3.5036,0.0125,-0.0003,-0.0017,0.013,3.504,66,15.061,0.0,0.12,0.0,0.0,ON,3.5
2026-03-25 19:59:41.102,PX4_0,False,-0.787,1.143,352.496,-0.0346,0.0023,-0.004,0.2034,-0.3331,-3.4946,0.0032,0.0107,-0.0032,0.011,3.495,66,15.051,0.0,0.12,0.0,0.0,ON,3.49
2026-03-25 19:59:42.106,OFFBOARD,True,-0.83,1.053,352.538,-0.0345,-0.0108,-0.0101,0.2157,-0.3365,-3.4916,-0.0183,0.008,-0.013,0.02,3.492,66,15.045,0.0,0.12,0.0,0.0,ON,3.48
2026-03-25 19:59:43.111,PX4_0,False,-0.901,1.094,352.33,-0.0262,0.0082,-0.0048,0.2172,-0.3343,-3.4926,-0.0098,-0.008,-0.0079,0.013,3.493,66,15.045,0.0,0.12,0.0,0.0,ON,3.48
2026-03-25 19:59:44.119,PX4_0,False,-0.96,0.962,352.308,0.0274,-0.0081,0.0113,0.2155,-0.3315,-3.4913,-0.0145,-0.0283,-0.0074,0.032,3.491,66,15.046,0.0,0.12,0.0,0.0,ON,3.48
2026-03-25 19:59:45.127,PX4_0,False,-0.547,1.01,352.127,0.0417,0.0011,-0.003,0.2171,-0.3735,-3.4882,-0.0221,-0.0338,-0.0136,0.04,3.488,66,15.039,0.0,0.12,0.0,0.0,ON,3.48
2026-03-25 19:59:46.136,PX4_0,False,-0.752,1.061,352.421,0.0251,-0.0007,0.0072,0.2233,-0.3859,-3.4878,-0.0203,-0.0124,-0.0119,0.024,3.488,65,15.028,0.0,0.12,0.0,0.0,ON,3.47
2026-03-25 19:59:47.142,OFFBOARD,True,-0.649,0.918,352.461,0.022,-0.0025,-0.0093,0.2189,-0.4065,-3.4906,-0.0354,-0.0142,-0.0129,0.038,3.491,65,15.016,0.0,0.12,0.0,0.0,ON,3.48
2026-03-25 19:59:48.152,PX4_0,False,-0.618,0.354,352.233,-0.0119,-0.0072,0.0034,0.1911,-0.4195,-3.4955,-0.022,-0.0039,-0.0038,0.022,3.495,65,15.021,0.0,0.12,0.0,0.0,ON,3.49
2026-03-25 19:59:49.157,PX4_0,False,-0.689,0.781,352.636,-0.013,0.0184,0.0166,0.2013,-0.4279,-3.493,0.0561,-0.0012,0.0071,0.056,3.493,65,15.004,0.0,0.12,0.0,0.0,ON,3.49
2026-03-25 19:59:50.160,OFFBOARD,True,-0.54,1.256,352.981,-0.034,0.0213,-0.0172,0.2436,-0.4476,-3.4935,0.027,0.0008,-0.007,0.027,3.494,65,15.005,0.0,0.12,0.0,0.0,ON,3.49
2026-03-25 19:59:51.195,PX4_0,False,-0.737,1.058,351.472,-0.0233,0.0077,-0.0447,0.2579,-0.439,-3.4847,-0.0168,0.0234,0.018,0.029,3.485,65,14.997,0.0,0.12,0.0,0.0,ON,3.48
2026-03-25 19:59:52.202,OFFBOARD,True,-0.89,1.016,351.402,0.0201,-0.0023,0.0061,0.2322,-0.4341,-3.4852,-0.0135,-0.0038,-0.0179,0.014,3.485,65,14.988,0.0,0.12,0.0,0.0,ON,3.49
2026-03-25 19:59:53.210,OFFBOARD,True,-0.804,0.637,351.681,0.048,-0.0108,0.0184,0.1972,-0.4426,-3.5018,0.0143,-0.0197,-0.0094,0.024,3.502,64,14.981,0.0,0.12,0.0,0.0,ON,3.5
2026-03-25 19:59:54.215,OFFBOARD,True,-0.565,0.959,352.899,-0.0534,0.0133,0.0014,0.2115,-0.4653,-3.5095,0.0346,-0.0174,0.0031,0.039,3.51,64,14.989,0.0,0.12,0.0,0.0,ON,3.5
2026-03-25 19:59:55.226,OFFBOARD,True,-0.555,1.181,353.042,0.0186,-0.0027,-0.0049,0.2383,-0.4813,-3.4966,0.0134,-0.0087,-0.0027,0.016,3.497,64,14.989,0.0,0.12,0.0,0.0,ON,3.49
2026-03-25 19:59:56.234,OFFBOARD,True,-0.653,1.07,352.519,0.0205,-0.027,-0.001,0.242,-0.4806,-3.5001,-0.0153,-0.0057,-0.0143,0.016,3.5,64,14.984,0.0,0.12,0.0,0.0,ON,3.49
2026-03-25 19:59:57.239,OFFBOARD,True,-0.386,0.684,352.59,0.0345,-0.0001,0.014,0.2208,-0.4894,-3.5016,-0.0254,-0.0175,-0.0078,0.031,3.502,64,14.982,0.0,0.12,0.0,0.0,ON,3.5
2026-03-25 19:59:58.243,OFFBOARD,True,-0.351,1.096,352.08,0.0224,-0.0127,0.0157,0.2422,-0.5163,-3.5017,-0.0041,0.0144,-0.0013,0.015,3.502,64,14.98,0.0,0.12,0.0,0.0,ON,3.51
2026-03-25 19:59:59.247,OFFBOARD,True,-0.698,0.879,352.087,0.0271,-0.0132,0.0183,0.2429,-0.5138,-3.5039,-0.0107,0.022,0.0037,0.024,3.504,64,14.981,0.0,0.12,0.0,0.0,ON,3.51
2026-03-25 20:00:00.262,OFFBOARD,True,-0.934,0.639,352.212,0.0099,0.0128,-0.0215,0.2373,-0.4897,-3.5038,-0.0086,0.011,0.0145,0.014,3.504,64,14.975,0.0,0.12,0.0,0.0,ON,0.0
2026-03-25 20:00:01.267,OFFBOARD,True,-1.022,0.816,351.282,-0.0101,0.0235,0.0065,0.2386,-0.492,-3.4919,0.0198,-0.0072,0.0199,0.021,3.492,64,14.967,0.0,0.12,0.0,0.0,ON,3.49
2026-03-25 20:00:02.277,OFFBOARD,True,-1.168,1.205,351.812,-0.0091,0.009,0.0054,0.268,-0.5129,-3.4788,-0.0066,-0.0296,0.0016,0.03,3.479,64,14.957,0.0,0.12,0.0,0.0,ON,3.47
2026-03-25 20:00:03.284,OFFBOARD,True,-0.747,0.841,352.516,-0.002,0.0121,-0.0109,0.2653,-0.5536,-3.4867,-0.0213,-0.0284,-0.022,0.036,3.487,64,14.951,0.0,0.12,0.0,0.0,ON,3.49
2026-03-25 20:00:04.294,OFFBOARD,True,-0.618,0.928,352.99,-0.0015,0.0167,0.0232,0.2469,-0.5919,-3.4956,0.021,-0.0107,0.007,0.024,3.496,64,14.944,0.0,0.12,0.0,0.0,ON,3.5
2026-03-25 20:00:05.301,OFFBOARD,True,-1.378,0.991,352.641,-0.0142,0.006,-0.0262,0.2386,-0.5696,-3.5004,-0.0053,0.0286,-0.0056,0.029,3.5,63,14.941,0.0,0.12,0.0,0.0,ON,3.5
2026-03-25 20:00:06.306,OFFBOARD,True,-1.338,0.848,352.428,0.0295,0.0075,0.0366,0.2405,-0.5256,-3.5012,-0.0035,-0.0407,0.0203,0.041,3.501,63,14.932,0.0,0.12,0.0,0.0,ON,3.5
2026-03-25 20:00:07.314,OFFBOARD,True,-0.761,1.122,351.9,0.0137,0.0249,-0.0068,0.2318,-0.5978,-3.4868,-0.0052,-0.0584,-0.0004,0.059,3.487,63,14.915,0.0,0.12,0.0,0.0,ON,3.49
2026-03-25 20:00:08.322,OFFBOARD,True,-0.522,1.209,352.541,0.0381,0.0044,0.0367,0.2291,-0.6335,-3.4874,0.0026,-0.0487,-0.0174,0.049,3.487,63,14.918,0.0,0.12,0.0,0.0,ON,3.49
2026-03-25 20:00:09.328,OFFBOARD,True,-0.595,1.247,353.403,0.0172,0.007,0.0155,0.2178,-0.6386,-3.5125,0.0038,-0.0047,-0.0158,0.006,3.513,63,14.923,0.0,0.12,0.0,0.0,ON,3.5
2026-03-25 20:00:10.333,OFFBOARD,True,-1.177,1.089,352.933,0.0122,0.0041,-0.0279,0.2206,-0.5959,-3.509,0.0092,-0.0023,0.0042,0.009,3.509,63,14.916,0.0,0.12,0.0,0.0,ON,3.49
2026-03-25 20:00:11.344,OFFBOARD,True,-0.893,1.087,352.992,0.0273,0.007,0.0055,0.2229,-0.5971,-3.4953,-0.0143,-0.0624,-0.015,0.064,3.495,63,14.926,0.0,0.12,0.0,0.0,ON,3.49
2026-03-25 20:00:12.350,OFFBOARD,True,-0.607,1.289,352.665,0.0262,0.0142,-0.0342,0.2185,-0.6648,-3.4926,-0.0033,-0.0349,-0.0091,0.035,3.493,63,14.916,0.0,0.12,0.0,0.0,ON,3.49
2026-03-25 20:00:13.361,OFFBOARD,True,-0.759,1.066,352.463,0.0168,0.0103,0.0209,0.2206,-0.6805,-3.5045,-0.0074,-0.0128,-0.0049,0.015,3.505,63,14.922,0.0,0.12,0.0,0.0,ON,3.5
2026-03-25 20:00:14.367,OFFBOARD,True,-0.513,1.059,353.679,0.0344,-0.0088,-0.009,0.2078,-0.6844,-3.5028,-0.0084,-0.0108,0.0043,0.014,3.503,63,14.917,0.0,0.12,0.0,0.0,ON,3.5
2026-03-25 20:00:15.373,OFFBOARD,True,-0.593,1.219,352.927,0.0277,0.0037,0.0147,0.2118,-0.6908,-3.5075,0.0033,0.0052,0.0071,0.006,3.507,63,14.92,0.0,0.12,0.0,0.0,ON,3.51
2026-03-25 20:00:16.384,PX4_0,False,-0.827,1.36,353.428,0.0106,0.0105,-0.0093,0.2293,-0.6615,-3.5014,-0.0053,-0.0308,0.0141,0.031,3.501,63,14.911,0.0,0.12,0.0,0.0,ON,3.5
2026-03-25 20:00:17.395,OFFBOARD,True,-0.635,0.983,353.324,-0.0343,0.0228,-0.0428,0.2105,-0.6709,-3.4924,-0.0182,-0.0389,0.0155,0.043,3.492,63,14.911,0.0,0.12,0.0,0.0,ON,3.49
2026-03-25 20:00:18.403,PX4_0,False,-0.417,0.823,353.277,0.019,0.0239,-0.0145,0.1878,-0.7036,-3.4912,0.0263,-0.0377,-0.02,0.046,3.491,63,14.895,0.0,0.12,0.0,0.0,ON,3.48
2026-03-25 20:00:19.414,PX4_0,False,-0.556,1.162,352.192,0.0218,0.0133,-0.0063,0.1917,-0.7141,-3.4924,0.0321,-0.0131,-0.0209,0.035,3.492,63,14.895,0.0,0.12,0.0,0.0,ON,3.48
2026-03-25 20:00:20.419,PX4_0,False,-0.726,1.227,353.233,0.0141,-0.0022,0.034,0.2329,-0.7187,-3.502,-0.0063,-0.0209,-0.02,0.022,3.502,62,14.89,0.0,0.12,0.0,0.0,ON,3.5
2026-03-25 20:00:21.425,OFFBOARD,True,-0.309,0.828,353.66,0.0279,-0.0104,-0.0131,0.2143,-0.7581,-3.5059,-0.0175,-0.0182,0.0032,0.025,3.506,62,14.889,0.0,0.12,0.0,0.0,ON,3.5
2026-03-25 20:00:22.431,OFFBOARD,True,-0.609,0.884,352.94,-0.0166,0.0073,-0.0162,0.205,-0.7697,-3.4998,0.0088,0.033,0.0132,0.034,3.5,62,14.891,0.0,0.12,0.0,0.0,ON,3.5
2026-03-25 20:00:23.439,OFFBOARD,True,-1.019,1.036,353.394,-0.0386,-0.0097,0.0069,0.2286,-0.7522,-3.5036,0.013,0.0249,-0.009,0.028,3.504,62,14.892,0.0,0.12,0.0,0.0,ON,3.5
2026-03-25 20:00:24.446,OFFBOARD,True,-1.043,1.208,353.171,0.007,0.018,0.0183,0.2533,-0.7336,-3.4999,-0.0055,-0.028,0.017,0.029,3.5,63,14.895,0.0,0.12,0.0,0.0,ON,3.49
2026-03-25 20:00:25.451,OFFBOARD,True,-0.709,0.99,352.796,0.0213,0.0231,-0.0137,0.2373,-0.7904,-3.5023,-0.039,-0.0263,-0.0037,0.047,3.502,62,14.89,0.0,0.12,0.0,0.0,ON,3.5
2026-03-25 20:00:26.457,OFFBOARD,True,-0.754,0.724,353.003,0.0016,0.0084,0.0179,0.1943,-0.7951,-3.4982,-0.0036,0.0082,0.0043,0.009,3.498,62,14.889,0.0,0.12,0.0,0.0,ON,3.49
2026-03-25 20:00:27.468,PX4_0,False,-1.033,0.998,351.847,0.0317,0.0185,-0.0001,0.2093,-0.7911,-3.4909,0.0233,-0.0076,-0.0073,0.025,3.491,62,14.885,0.0,0.12,0.0,0.0,ON,3.47
2026-03-25 20:00:28.475,OFFBOARD,True,-1.117,0.896,353.442,0.0462,-0.0111,0.019,0.2113,-0.7968,-3.487,0.0288,-0.0205,-0.006,0.035,3.487,62,14.876,0.0,0.12,0.0,0.0,ON,3.48
2026-03-25 20:00:29.481,OFFBOARD,True,-0.906,1.225,353.486,-0.0277,0.0015,-0.0228,0.2264,-0.8294,-3.4885,0.0005,-0.0242,-0.0137,0.024,3.489,62,14.872,0.0,0.12,0.0,0.0,ON,3.48
2026-03-25 20:00:30.488,OFFBOARD,True,-0.937,0.908,352.467,-0.0284,0.0071,-0.0021,0.2182,-0.8356,-3.491,-0.019,-0.0343,0.0055,0.039,3.491,62,14.879,0.0,0.12,0.0,0.0,ON,3.48
2026-03-25 20:00:31.493,OFFBOARD,True,-0.781,0.733,352.485,-0.0174,0.0269,0.0003,0.2089,-0.8434,-3.4868,0.0095,-0.0242,0.0031,0.026,3.487,62,14.855,0.0,0.12,0.0,0.0,ON,3.48
2026-03-25 20:00:32.503,OFFBOARD,True,-0.933,0.831,352.68,-0.0239,-0.0186,0.0055,0.2254,-0.8419,-3.488,0.0042,0.0019,0.0541,0.005,3.488,62,14.859,0.0,0.12,0.0,0.0,ON,3.49
2026-03-25 20:00:33.517,OFFBOARD,True,-0.957,1.047,352.793,0.004,0.0094,-0.0029,0.2535,-0.853,-3.4368,-0.0118,0.0134,0.0673,0.018,3.437,62,14.851,0.0,0.12,0.0,0.0,ON,3.43
2026-03-25 20:00:34.522,PX4_0,False,-1.014,0.754,353.307,0.0204,0.0024,0.0116,0.2378,-0.8459,-3.3668,-0.0318,0.0089,0.0665,0.033,3.367,62,14.852,0.0,0.12,0.0,0.0,ON,3.36
2026-03-25 20:00:35.527,OFFBOARD,True,-0.978,0.83,353.146,0.014,0.0333,-0.0353,0.2101,-0.8521,-3.3298,-0.0437,-0.0138,0.0552,0.046,3.33,62,14.852,0.0,0.12,0.0,0.0,ON,3.32
2026-03-25 20:00:36.539,OFFBOARD,True,-0.785,0.818,352.566,0.026,-0.032,-0.0232,0.2037,-0.8509,-3.2537,0.0065,-0.0087,0.0553,0.011,3.254,61,14.834,0.0,0.12,0.0,0.0,ON,3.24
2026-03-25 20:00:37.545,OFFBOARD,True,-0.837,1.112,353.867,-0.0325,0.0133,0.0338,0.2088,-0.8466,-3.2015,0.0352,0.0135,0.0344,0.038,3.201,61,14.833,0.0,0.12,0.0,0.0,ON,3.19
2026-03-25 20:00:38.548,OFFBOARD,True,-1.104,1.009,353.991,0.0183,-0.0065,0.0189,0.2176,-0.8201,-3.1759,0.0169,0.0183,0.0201,0.025,3.176,61,14.834,0.0,0.12,0.0,0.0,ON,3.18
2026-03-25 20:00:39.551,OFFBOARD,True,-1.036,0.73,354.619,-0.0105,0.0106,0.0204,0.2164,-0.8272,-3.1362,-0.0151,-0.0075,0.0351,0.017,3.136,61,14.844,0.0,0.12,0.0,0.0,ON,3.13
2026-03-25 20:00:40.555,OFFBOARD,True,-1.044,0.644,354.596,-0.0275,0.0049,-0.0317,0.1954,-0.8177,-3.0722,-0.0059,0.0144,0.0812,0.016,3.072,62,14.851,0.0,0.12,0.0,0.0,ON,3.07
2026-03-25 20:00:41.559,OFFBOARD,True,-1.138,0.877,353.771,-0.0031,-0.0073,-0.0101,0.2147,-0.8272,-2.9891,0.0079,-0.0066,0.0803,0.01,2.989,61,14.838,0.0,0.12,0.0,0.0,ON,2.98
2026-03-25 20:00:42.563,OFFBOARD,True,-0.462,1.154,354.59,0.0106,0.007,-0.0049,0.2209,-0.8833,-2.9042,0.0047,-0.0201,0.0653,0.021,2.904,61,14.827,0.0,0.12,0.0,0.0,ON,2.9
2026-03-25 20:00:43.567,OFFBOARD,True,-0.662,0.957,354.297,-0.0283,-0.0235,-0.0191,0.2132,-0.912,-2.8435,-0.0098,0.022,0.0552,0.024,2.844,61,14.828,0.0,0.12,0.0,0.0,ON,2.84
2026-03-25 20:00:44.573,OFFBOARD,True,-0.579,0.987,355.577,-0.0086,0.0125,0.0035,0.2134,-0.9171,-2.802,0.0129,0.0467,0.0431,0.048,2.802,61,14.831,0.0,0.12,0.0,0.0,ON,2.8
2026-03-25 20:00:45.577,OFFBOARD,True,-0.912,0.931,354.991,0.0004,-0.0075,0.0094,0.2239,-0.882,-2.7716,0.0006,0.0635,0.0268,0.064,2.772,61,14.833,0.0,0.12,0.0,0.0,ON,2.76
2026-03-25 20:00:46.592,OFFBOARD,True,-1.429,0.815,355.599,0.0408,-0.014,0.0581,0.2106,-0.8208,-2.7133,-0.017,0.0317,0.0651,0.036,2.713,61,14.827,0.0,0.12,0.0,0.0,ON,2.71
2026-03-25 20:00:47.596,OFFBOARD,True,-0.677,0.904,356.999,-0.0133,0.0127,-0.0002,0.2203,-0.841,-2.6519,0.0215,-0.0176,0.0428,0.028,2.652,61,14.833,0.0,0.12,0.0,0.0,ON,2.63
2026-03-25 20:00:48.603,OFFBOARD,True,-1.237,0.979,356.674,-0.0235,-0.0023,-0.019,0.1978,-0.8293,-2.5764,-0.0191,-0.0074,0.0738,0.02,2.576,61,14.833,0.0,0.12,0.0,0.0,ON,2.56
2026-03-25 20:00:49.613,OFFBOARD,True,-0.948,0.738,357.039,-0.0225,-0.011,0.0199,0.1801,-0.8243,-2.4994,0.0019,-0.0303,0.0468,0.03,2.499,61,14.818,0.0,0.12,0.0,0.0,ON,2.49
2026-03-25 20:00:50.619,PX4_0,False,-0.703,0.741,356.265,0.0133,0.0189,-0.0405,0.1958,-0.8445,-2.4303,0.0215,0.0056,0.0529,0.022,2.43,61,14.82,0.0,0.12,0.0,0.0,ON,2.43
2026-03-25 20:00:51.634,OFFBOARD,True,-1.248,1.196,355.633,-0.0147,0.0103,-0.0103,0.2262,-0.8205,-2.3876,0.0093,0.0174,0.046,0.02,2.388,61,14.828,0.0,0.12,0.0,0.0,ON,2.38
2026-03-25 20:00:52.645,OFFBOARD,True,-0.725,0.716,359.063,0.0144,0.009,0.0635,0.2241,-0.8262,-2.3356,-0.0074,-0.0422,0.053,0.043,2.336,61,14.823,0.0,0.12,0.0,0.0,ON,2.33
2026-03-25 20:00:53.651,OFFBOARD,True,-0.385,0.972,0.869,0.0231,-0.0073,0.0005,0.2219,-0.8643,-2.2672,-0.0119,-0.0211,0.0536,0.024,2.267,61,14.826,0.0,0.12,0.0,0.0,ON,2.27
2026-03-25 20:00:54.660,PX4_0,False,-0.682,0.851,359.612,0.0095,-0.0092,-0.0127,0.2187,-0.8633,-2.2127,-0.0337,0.0252,0.0574,0.042,2.213,61,14.821,0.0,0.12,0.0,0.0,ON,2.21
2026-03-25 20:00:55.662,PX4_0,False,-1.075,0.893,358.709,-0.0014,-0.0096,-0.0145,0.1969,-0.8229,-2.1429,-0.0031,0.0262,0.0599,0.026,2.143,61,14.808,0.0,0.12,0.0,0.0,ON,2.13
2026-03-25 20:00:56.668,PX4_0,False,-1.096,0.773,358.302,-0.0191,0.0166,-0.0206,0.1959,-0.8008,-2.0797,0.0282,0.0241,0.0551,0.037,2.08,60,14.793,0.0,0.12,0.0,0.0,ON,2.08
2026-03-25 20:00:57.674,PX4_0,False,-1.533,1.038,358.184,0.0048,-0.0201,0.0336,0.2043,-0.7606,-2.0066,0.0142,0.0151,0.0917,0.021,2.007,61,14.796,0.0,0.12,0.0,0.0,ON,2.01
2026-03-25 20:00:58.680,PX4_0,False,-1.179,1.001,359.252,0.0079,-0.0002,0.0105,0.1993,-0.7908,-1.9333,0.022,-0.0504,0.061,0.055,1.933,60,14.783,0.0,0.12,0.0,0.0,ON,1.91
2026-03-25 20:00:59.686,PX4_0,False,-0.623,0.789,0.196,-0.0178,-0.0264,0.0246,0.1869,-0.8543,-1.8648,0.0112,-0.0535,0.0407,0.055,1.865,60,14.784,0.0,0.12,0.0,0.0,ON,1.86
2026-03-25 20:01:00.692,PX4_0,False,-0.56,1.271,1.405,-0.0394,0.0926,0.0374,0.1857,-0.8922,-1.8133,0.0201,-0.018,0.0481,0.027,1.813,60,14.789,0.0,0.12,0.0,0.0,ON,1.81
2026-03-25 20:01:01.702,PX4_0,False,-0.591,1.176,1.014,-0.0168,-0.0989,-0.0493,0.1412,-0.8964,-1.7772,-0.0781,0.0012,0.0353,0.078,1.777,60,14.785,0.0,0.12,0.0,0.0,ON,1.77
2026-03-25 20:01:02.707,OFFBOARD,True,-0.659,0.579,358.981,0.0165,0.018,0.002,0.1063,-0.8971,-1.7242,-0.0037,-0.0035,0.0651,0.005,1.724,60,14.774,0.0,0.12,0.0,0.0,ON,1.72
2026-03-25 20:01:03.713,PX4_0,False,-0.595,1.046,0.293,0.0199,-0.0036,0.0161,0.1365,-0.9107,-1.6581,0.0307,-0.0112,0.0383,0.033,1.658,0,0.0,0.0,0.12,0.0,0.0,ON,1.66
2026-03-25 20:01:04.723,PX4_0,False,-0.792,1.513,0.557,-0.0103,-0.0183,-0.0028,0.125,-0.9158,-1.6199,-0.0631,0.007,0.0204,0.063,1.62,60,14.762,0.0,0.12,0.0,0.0,ON,1.61
2026-03-25 20:01:05.729,OFFBOARD,True,-0.802,0.68,0.577,-0.0271,-0.0042,0.0405,0.0907,-0.9062,-1.5915,-0.0237,0.0054,0.0652,0.024,1.591,60,14.77,0.0,0.12,0.0,0.0,ON,1.58
2026-03-25 20:01:06.741,PX4_0,False,-0.806,0.87,1.217,0.0042,0.0019,-0.0315,0.0857,-0.9169,-1.5316,0.0048,0.0262,0.0345,0.027,1.532,60,14.767,0.0,0.12,0.0,0.0,ON,1.53
2026-03-25 20:01:07.746,PX4_0,False,-1.414,0.819,359.85,0.0138,0.0264,-0.0025,0.079,-0.9057,-1.5048,-0.0001,0.05,0.0561,0.05,1.505,59,14.743,0.0,0.12,0.0,0.0,ON,1.5
2026-03-25 20:01:08.752,PX4_0,False,-1.1,0.827,0.55,0.0219,0.0029,0.0441,0.0658,-0.8838,-1.4107,0.0103,-0.014,0.0698,0.017,1.411,59,14.74,0.0,0.12,0.0,0.0,ON,1.41
2026-03-25 20:01:09.770,PX4_0,False,-0.681,0.855,1.887,0.0281,-0.0167,-0.0052,0.077,-0.9211,-1.3643,0.023,-0.0263,0.0513,0.035,1.364,59,14.737,0.0,0.12,0.0,0.0,ON,1.35
2026-03-25 20:01:10.775,PX4_0,False,-0.683,0.918,2.407,0.0415,-0.0044,0.013,0.0892,-0.9287,-1.3058,0.0126,0.0001,0.0644,0.013,1.306,59,14.736,0.0,0.12,0.0,0.0,ON,1.3
2026-03-25 20:01:11.802,PX4_0,False,-0.736,0.578,2.422,-0.0063,0.0289,-0.0246,0.0727,-0.9263,-1.2403,0.0029,-0.0064,0.0769,0.007,1.24,59,14.736,0.0,0.12,0.0,0.0,ON,1.24
2026-03-25 20:01:12.812,PX4_0,False,-0.531,0.92,3.582,0.0093,0.0147,-0.0331,0.102,-0.9199,-1.1707,0.0084,-0.0065,0.0656,0.011,1.171,59,14.735,0.0,0.12,0.0,0.0,ON,1.16
2026-03-25 20:01:13.846,PX4_0,False,-0.47,0.754,4.117,0.0288,0.0189,-0.0024,0.116,-0.931,-1.1072,0.0121,-0.0012,0.0499,0.012,1.107,59,14.732,0.0,0.12,0.0,0.0,ON,1.1
2026-03-25 20:01:14.850,PX4_0,False,-0.52,0.739,4.484,0.0216,-0.0236,0.0091,0.1089,-0.9225,-1.0506,-0.0189,0.0026,0.0454,0.019,1.051,59,14.735,0.0,0.12,0.0,0.0,ON,1.04
2026-03-25 20:01:15.854,PX4_0,False,-0.705,0.751,4.345,-0.0167,0.017,-0.0017,0.1101,-0.9121,-0.9995,0.0018,-0.0091,0.0517,0.009,1.0,59,14.734,0.0,0.12,0.0,0.0,ON,1.0
2026-03-25 20:01:16.864,PX4_0,False,-0.48,0.943,4.872,0.0304,0.0073,-0.0001,0.12,-0.9196,-0.9015,-0.0037,-0.0235,0.1618,0.024,0.901,59,14.734,0.0,0.12,0.0,0.0,ON,0.93
2026-03-25 20:01:17.868,OFFBOARD,True,-0.379,0.822,5.414,-0.0042,-0.0261,-0.0038,0.1168,-0.9319,-0.7768,-0.0209,0.0197,0.0754,0.029,0.777,59,14.724,0.0,0.12,0.0,0.0,ON,0.77
2026-03-25 20:01:18.872,PX4_0,False,-0.526,0.736,5.97,0.0335,0.0132,0.0253,0.0975,-0.9113,-0.7396,-0.0191,0.015,0.0259,0.024,0.74,59,14.726,0.0,0.12,0.0,0.0,ON,0.74
2026-03-25 20:01:19.879,PX4_0,False,-0.624,0.574,5.615,-0.0054,-0.0134,-0.0222,0.0783,-0.9066,-0.7255,-0.0053,-0.0114,0.0082,0.013,0.726,59,14.729,0.0,0.12,0.0,0.0,ON,0.71
2026-03-25 20:01:20.883,PX4_0,False,-0.769,0.918,5.117,0.0032,-0.0061,-0.0243,0.0802,-0.9121,-0.7097,0.006,-0.0082,0.0003,0.01,0.71,59,14.726,0.0,0.12,0.0,0.0,ON,0.69
2026-03-25 20:01:21.895,PX4_0,False,-0.629,0.958,5.221,-0.0117,-0.0039,0.0053,0.0801,-0.9252,-0.6973,0.0002,-0.0126,0.0001,0.013,0.697,59,14.71,0.0,0.12,0.0,0.0,ON,0.68
2026-03-25 20:01:22.902,PX4_0,False,-0.257,0.886,6.239,-0.0167,-0.0144,0.0077,0.0815,-0.9615,-0.6873,0.0025,-0.0208,-0.0057,0.021,0.687,59,14.7,0.0,0.12,0.0,0.0,ON,0.67
2026-03-25 20:01:23.907,PX4_0,False,-0.382,0.737,7.126,0.0393,0.0198,0.0381,0.0866,-0.9859,-0.6598,0.0051,-0.0119,0.1025,0.013,0.66,59,14.703,0.0,0.12,0.0,0.0,ON,0.66
2026-03-25 20:01:24.910,PX4_0,False,-0.555,1.15,6.621,-0.0048,-0.0096,-0.0279,0.1157,-0.9766,-0.5173,0.0112,0.0145,0.1342,0.018,0.517,59,14.713,0.0,0.12,0.0,0.0,ON,0.52
2026-03-25 20:01:25.916,PX4_0,False,-0.482,0.884,6.823,-0.0128,-0.0503,0.0103,0.1124,-0.97,-0.4402,-0.043,0.0047,0.0479,0.043,0.44,59,14.714,0.0,0.12,0.0,0.0,ON,0.44
2026-03-25 20:01:26.922,OFFBOARD,True,-0.725,0.334,6.926,-0.0203,-0.0199,0.0054,0.0704,-0.9791,-0.4073,-0.0402,-0.0039,0.0231,0.04,0.407,59,14.718,0.0,0.12,0.0,0.0,ON,0.4
2026-03-25 20:01:27.931,PX4_0,False,-0.742,0.413,6.579,-0.0172,-0.0005,0.0083,0.0338,-0.9931,-0.3996,-0.0102,-0.0167,-0.0103,0.02,0.4,59,14.714,0.0,0.12,0.0,0.0,ON,0.39
2026-03-25 20:01:28.942,PX4_0,False,-0.267,0.797,6.795,0.033,0.0175,0.016,0.0325,-1.0248,-0.3989,-0.0018,-0.0321,-0.002,0.032,0.399,59,14.713,0.0,0.12,0.0,0.0,ON,0.38
2026-03-25 20:01:29.950,PX4_0,False,-0.124,0.672,6.594,0.0336,0.0302,0.0153,0.038,-1.0425,-0.3922,0.0234,-0.0017,-0.0029,0.023,0.392,59,14.712,0.0,0.12,0.0,0.0,ON,0.38
2026-03-25 20:01:30.956,PX4_0,False,-0.667,0.878,5.72,-0.0436,0.0487,-0.0729,0.0515,-1.0337,-0.3913,0.0165,0.0379,-0.0085,0.041,0.391,59,14.709,0.0,0.12,0.0,0.0,ON,0.4
2026-03-25 20:01:31.961,PX4_0,False,-0.992,0.384,5.136,-0.0302,0.01,-0.0141,0.066,-0.9908,-0.4157,0.0039,0.0122,0.0079,0.013,0.416,59,14.712,0.0,0.12,0.0,0.0,ON,0.43
2026-03-25 20:01:32.967,PX4_0,False,-0.983,1.122,6.432,0.0256,-0.0212,0.0331,0.0871,-0.9823,-0.4119,0.0052,-0.007,0.0255,0.009,0.412,59,14.708,0.0,0.12,0.0,0.0,ON,0.39
2026-03-25 20:01:33.969,PX4_0,False,-0.83,0.874,7.88,0.0427,0.0151,0.0345,0.0741,-1.0042,-0.3889,-0.021,-0.0366,0.0046,0.042,0.389,58,14.681,0.0,0.12,0.0,0.0,ON,0.37
2026-03-25 20:01:34.975,PX4_0,False,-0.622,1.125,6.94,0.0606,-0.0746,-0.0328,0.0635,-1.0418,-0.3768,-0.0222,-0.0379,-0.0105,0.044,0.377,58,14.677,0.0,0.12,0.0,0.0,ON,0.37
2026-03-25 20:01:35.981,PX4_0,False,-0.288,0.391,6.932,0.055,0.0607,-0.0413,0.0594,-1.0667,-0.1551,-0.0116,-0.0015,0.6944,0.012,0.155,59,14.762,0.0,0.12,0.0,0.0,ON,0.17
2026-03-25 20:01:36.987,PX4_0,False,0.31,3.156,15.073,-0.008,0.0004,-0.0044,0.1242,-1.1053,-0.0369,0.0061,-0.0182,-0.0174,0.019,0.037,66,15.15,0.0,0.12,0.0,0.0,ON,0.0
2026-03-25 20:01:37.996,PX4_0,False,0.414,3.174,15.198,0.0004,0.0011,-0.0004,0.1176,-1.099,-0.0394,-0.0111,-0.0073,-0.0079,0.013,0.039,70,15.345,0.0,0.12,0.0,0.0,ON,0.0
2026-03-25 20:01:39.000,PX4_0,False,0.49,3.166,15.811,-0.0018,-0.0003,-0.0017,0.1375,-1.0967,-0.0315,-0.0038,-0.0029,-0.0006,0.005,0.032,72,15.432,0.0,0.12,0.0,0.0,ON,0.0
2026-03-25 20:01:40.009,OFFBOARD,False,0.54,3.169,16.599,0.0019,0.0006,-0.0002,0.1567,-1.0961,-0.0293,-0.0038,-0.0027,0.0017,0.005,0.029,73,15.484,0.0,0.12,0.0,0.0,ON,0.0
2026-03-25 20:01:41.014,OFFBOARD,False,0.579,3.147,17.276,0.0004,-0.0015,-0.001,0.1752,-1.0953,-0.0267,-0.0028,-0.0016,0.0055,0.003,0.027,73,15.519,0.0,0.12,0.0,0.0,ON,0.0
2026-03-25 20:01:42.019,OFFBOARD,False,0.65,3.148,18.091,0.0002,-0.0008,0.0002,0.1982,-1.0968,-0.0265,0.0057,-0.0041,0.0021,0.007,0.026,74,15.544,0.0,0.12,0.0,0.0,ON,0.0
2026-03-25 20:01:43.023,OFFBOARD,False,0.75,3.187,18.718,0.0016,-0.0012,-0.0014,0.2189,-1.0965,-0.0339,0.0001,-0.0003,-0.0076,0.0,0.034,74,15.572,0.0,0.12,0.0,0.0,ON,0.0
2026-03-25 20:01:44.028,POSCTL,False,0.834,3.187,19.403,0.0004,0.0008,-0.0016,0.234,-1.0962,-0.0352,-0.0057,0.0021,-0.0064,0.006,0.035,75,15.59,0.0,0.12,0.0,0.0,ON,0.0
2026-03-25 20:01:45.034,POSCTL,False,0.863,3.162,20.016,0.0031,-0.001,-0.0001,0.2518,-1.096,-0.0311,-0.0009,0.0028,-0.0008,0.003,0.031,75,15.612,0.0,0.12,0.0,0.0,ON,0.0
2026-03-25 20:01:46.039,POSCTL,False,0.904,3.169,20.505,-0.0034,-0.0026,-0.0024,0.2646,-1.0977,-0.0281,-0.0017,0.0012,0.0031,0.002,0.028,76,15.635,0.0,0.12,0.0,0.0,ON,0.0
2026-03-25 20:01:47.047,POSCTL,True,0.97,3.196,20.903,-0.001,0.0011,-0.0011,0.2814,-1.1,-0.0327,-0.0022,-0.0031,-0.0078,0.004,0.033,76,15.64,0.0,0.12,0.0,0.0,ON,0.0
2026-03-25 20:01:48.052,POSCTL,False,1.015,3.211,21.365,0.002,-0.0011,0.0022,0.2939,-1.0999,-0.0368,-0.0047,-0.0045,-0.0105,0.007,0.037,76,15.656,0.0,0.12,0.0,0.0,ON,0.0
2026-03-25 20:01:49.058,POSCTL,False,1.056,3.185,21.713,-0.0014,-0.0017,-0.0018,0.307,-1.099,-0.0352,-0.0033,-0.0008,-0.0067,0.003,0.035,77,15.672,0.0,0.12,0.0,0.0,ON,0.0
2026-03-25 20:01:50.066,POSCTL,False,1.12,3.178,22.006,-0.0015,-0.0008,-0.0023,0.317,-1.0985,-0.0285,-0.0048,-0.0003,0.0048,0.005,0.029,77,15.692,0.0,0.12,0.0,0.0,ON,0.0
2026-03-25 20:01:51.072,POSCTL,False,1.171,3.163,22.3,0.0043,-0.003,-0.0015,0.3313,-1.1,-0.0281,0.0021,-0.0028,-0.0023,0.004,0.028,77,15.7,0.0,0.12,0.0,0.0,ON,0.0
2026-03-25 20:01:52.079,POSCTL,False,1.236,3.157,22.583,-0.0015,0.0004,0.0002,0.3394,-1.0979,-0.033,-0.0028,0.0011,-0.0056,0.003,0.033,77,15.704,0.0,0.12,0.0,0.0,ON,0.0
2026-03-25 20:01:53.087,POSCTL,False,1.246,3.192,22.751,-0.0011,0.0013,-0.0021,0.3483,-1.099,-0.0328,-0.0015,-0.0033,-0.0043,0.004,0.033,77,15.7,0.0,0.12,0.0,0.0,ON,0.0
2026-03-25 20:01:54.093,POSCTL,False,1.291,3.198,22.951,-0.0011,0.0026,-0.0031,0.3573,-1.1,-0.0326,-0.0035,-0.0035,-0.004,0.005,0.033,77,15.705,0.0,0.12,0.0,0.0,ON,0.0
2026-03-25 20:01:55.098,POSCTL,False,1.325,3.19,23.12,0.0029,-0.0011,0.0001,0.3656,-1.1006,-0.0315,-0.0018,-0.0072,-0.0009,0.007,0.032,77,15.709,0.0,0.12,0.0,0.0,ON,0.0
2026-03-25 20:01:56.103,POSCTL,False,1.384,3.169,23.301,0.0138,-0.0034,-0.0002,0.3753,-1.0994,-0.0341,-0.0007,-0.0033,-0.0078,0.003,0.034,77,15.713,0.0,0.12,0.0,0.0,ON,0.0
2026-03-25 20:01:57.113,POSCTL,False,1.449,3.152,23.423,-0.0048,-0.0016,-0.0022,0.3832,-1.0991,-0.0343,0.0004,-0.0026,-0.0062,0.003,0.034,78,15.738,0.0,0.12,0.0,0.0,ON,0.0
2026-03-25 20:01:58.118,POSCTL,False,1.506,3.148,23.522,-0.001,-0.0036,-0.003,0.389,-1.0983,-0.034,-0.0042,-0.0016,-0.007,0.004,0.034,78,15.748,0.0,0.12,0.0,0.0,ON,0.0
2026-03-25 20:01:59.125,POSCTL,False,1.568,3.121,23.605,-0.0,-0.0021,-0.0038,0.3961,-1.0968,-0.0326,-0.003,0.002,-0.003,0.004,0.033,78,15.752,0.0,0.12,0.0,0.0,ON,0.0
2026-03-25 20:02:00.130,POSCTL,False,1.595,3.106,23.752,-0.0061,-0.0017,-0.002,0.403,-1.0974,-0.0289,-0.0036,0.0009,0.0013,0.004,0.029,78,15.757,0.0,0.12,0.0,0.0,ON,0.0
2026-03-25 20:02:01.138,POSCTL,False,1.617,3.099,23.826,0.0106,-0.001,-0.0024,0.4113,-1.098,-0.0285,-0.0023,-0.0008,0.0011,0.002,0.029,78,15.765,0.0,0.12,0.0,0.0,ON,0.0
2026-03-25 20:02:02.146,POSCTL,False,1.661,3.111,23.874,0.0013,-0.0016,-0.0044,0.4183,-1.099,-0.0297,0.0018,-0.0034,-0.0013,0.004,0.03,79,15.773,0.0,0.12,0.0,0.0,ON,0.0
2026-03-25 20:02:03.155,POSCTL,False,1.722,3.13,23.893,-0.0032,0.0015,-0.0007,0.4228,-1.0989,-0.0338,0.001,-0.0027,-0.0084,0.003,0.034,78,15.763,0.0,0.12,0.0,0.0,ON,0.0
2026-03-25 20:02:04.167,POSCTL,False,1.762,3.146,23.988,-0.0061,-0.0024,-0.0006,0.4265,-1.0972,-0.0366,-0.0049,0.0005,-0.0086,0.005,0.037,79,15.773,0.0,0.12,0.0,0.0,ON,0.0
2026-03-25 20:02:05.174,POSCTL,False,1.807,3.147,24.104,0.0007,-0.0007,-0.0005,0.4335,-1.0974,-0.0338,-0.0046,0.0009,-0.004,0.005,0.034,79,15.77,0.0,0.12,0.0,0.0,ON,0.0
2026-03-25 20:02:06.180,POSCTL,False,1.808,3.151,24.193,0.0096,0.0033,-0.002,0.4398,-1.0975,-0.0311,-0.0047,-0.0004,-0.0021,0.005,0.031,79,15.783,0.0,0.12,0.0,0.0,ON,0.0
2026-03-25 20:02:07.186,POSCTL,False,1.839,3.14,24.296,-0.0002,0.0008,-0.0009,0.4485,-1.0981,-0.0318,-0.0016,-0.002,-0.0033,0.003,0.032,79,15.786,0.0,0.12,0.0,0.0,ON,0.0
2026-03-25 20:02:08.194,POSCTL,False,1.868,3.125,24.37,-0.0009,0.0003,-0.0006,0.4533,-1.097,-0.0312,-0.0065,0.0008,0.0004,0.007,0.031,79,15.792,0.0,0.12,0.0,0.0,ON,0.0
2026-03-25 20:02:09.199,POSCTL,False,1.917,3.119,24.515,-0.0027,0.0053,-0.0027,0.461,-1.097,-0.0274,-0.0019,-0.0003,0.0029,0.002,0.027,79,15.795,0.0,0.12,0.0,0.0,ON,0.0
2026-03-25 20:02:10.209,POSCTL,False,1.934,3.14,24.631,-0.0014,-0.0005,-0.0009,0.4687,-1.0967,-0.0315,0.0012,-0.0002,-0.0057,0.001,0.032,79,15.782,0.0,0.12,0.0,0.0,ON,0.0
2026-03-25 20:02:11.212,POSCTL,False,1.938,3.156,24.722,0.0013,0.0007,-0.0009,0.4711,-1.097,-0.033,0.0002,-0.0028,-0.0042,0.003,0.033,79,15.779,0.0,0.12,0.0,0.0,ON,0.0
2026-03-25 20:02:12.217,POSCTL,False,1.982,3.185,24.9,-0.0017,-0.0012,-0.0013,0.4802,-1.0981,-0.0341,-0.0033,-0.0039,-0.0058,0.005,0.034,79,15.781,0.0,0.12,0.0,0.0,ON,0.0
2026-03-25 20:02:13.222,POSCTL,False,2.016,3.169,24.978,-0.0053,0.0028,-0.0023,0.4835,-1.0974,-0.0334,-0.003,-0.0025,-0.0046,0.004,0.033,79,15.778,0.0,0.12,0.0,0.0,ON,0.0
2026-03-25 20:02:14.228,POSCTL,False,2.054,3.154,25.027,-0.0032,-0.0005,-0.0045,0.4879,-1.0966,-0.0331,-0.0023,-0.0015,-0.0071,0.003,0.033,79,15.781,0.0,0.12,0.0,0.0,ON,0.0
2026-03-25 20:02:15.234,POSCTL,False,2.081,3.132,25.174,-0.0023,0.0002,-0.0013,0.4962,-1.0969,-0.0364,0.0005,0.0007,-0.0115,0.001,0.036,79,15.785,0.0,0.12,0.0,0.0,ON,0.0
2026-03-25 20:02:16.241,POSCTL,False,2.11,3.123,25.251,0.001,0.0009,0.0021,0.5008,-1.0968,-0.0371,0.0011,-0.0001,-0.0125,0.001,0.037,79,15.788,0.0,0.12,0.0,0.0,ON,0.0
2026-03-25 20:02:17.257,POSCTL,False,2.12,3.137,25.34,0.0098,-0.0007,-0.0006,0.5036,-1.0965,-0.0388,-0.0006,0.001,-0.0159,0.001,0.039,79,15.798,0.0,0.12,0.0,0.0,ON,0.0
2026-03-25 20:02:18.264,POSCTL,False,2.12,3.151,25.422,-0.0003,-0.0011,-0.0004,0.5087,-1.0981,-0.0367,-0.0012,-0.0033,-0.0107,0.004,0.037,80,15.846,0.0,0.12,0.0,0.0,ON,0.0
2026-03-25 20:02:19.270,POSCTL,False,2.137,3.148,25.488,0.0007,-0.0014,-0.0017,0.5116,-1.0974,-0.0356,-0.0032,-0.0006,-0.0104,0.003,0.036,81,15.876,0.0,0.12,0.0,0.0,ON,0.0
2026-03-25 20:02:20.277,POSCTL,False,2.156,3.143,25.594,-0.0011,-0.002,-0.0005,0.5165,-1.0981,-0.0341,-0.0038,-0.0006,-0.0057,0.004,0.034,81,15.891,0.0,0.12,0.0,0.0,ON,0.0
2026-03-25 20:02:21.283,POSCTL,False,2.141,3.131,25.705,-0.0005,0.0,-0.001,0.5197,-1.0975,-0.0308,-0.0035,-0.0005,-0.0006,0.004,0.031,81,15.899,0.0,0.12,0.0,0.0,ON,0.0
2026-03-25 20:02:22.290,POSCTL,False,2.163,3.139,25.714,0.0024,0.0,0.0001,0.5248,-1.0983,-0.0289,-0.0008,-0.0025,-0.0027,0.003,0.029,81,15.9,0.0,0.12,0.0,0.0,ON,0.0
2026-03-25 20:02:23.302,POSCTL,False,0.0,0.0,0.0,0,0,0,0.5286,-1.0983,-0.0332,-0.0002,-0.0032,-0.006,0.003,0.033,81,15.904,0.0,0.12,0.0,0.0,ON,0.0
2026-03-25 20:02:24.309,POSCTL,False,2.202,3.165,25.771,-0.0004,-0.0007,-0.005,0.5305,-1.0983,-0.0348,0.0012,-0.0045,-0.0082,0.005,0.035,81,15.902,0.0,0.12,0.0,0.0,ON,0.0
2026-03-25 20:02:25.313,POSCTL,False,2.223,3.16,25.947,-0.0039,-0.0041,-0.0038,0.5337,-1.0986,-0.0346,-0.003,-0.0024,-0.0057,0.004,0.035,81,15.903,0.0,0.12,0.0,0.0,ON,0.0
2026-03-25 20:02:26.318,POSCTL,False,2.227,3.153,26.026,0.0016,-0.0016,-0.0017,0.537,-1.0972,-0.0325,-0.0031,0.0,-0.004,0.003,0.033,82,15.913,0.0,0.12,0.0,0.0,ON,0.0
2026-03-25 20:02:27.322,POSCTL,False,2.252,3.126,26.125,-0.0009,0.001,-0.0009,0.541,-1.0976,-0.028,-0.0011,-0.0018,0.0047,0.002,0.028,81,15.906,0.0,0.12,0.0,0.0,ON,0.0
2026-03-25 20:02:28.331,POSCTL,False,2.289,3.129,26.22,0.0006,-0.0006,-0.0015,0.5464,-1.0973,-0.0288,-0.0005,-0.0004,-0.0008,0.001,0.029,81,15.904,0.0,0.12,0.0,0.0,ON,0.0
2026-03-25 20:02:29.336,POSCTL,False,2.315,3.125,26.273,0.0012,0.0002,-0.0019,0.5503,-1.0974,-0.0319,0.0034,-0.001,-0.005,0.004,0.032,81,15.907,0.0,0.12,0.0,0.0,ON,0.0
2026-03-25 20:02:30.341,POSCTL,False,2.324,3.137,26.321,0.0013,0.0011,0.0,0.5506,-1.0978,-0.0343,-0.0007,0.0,-0.0083,0.001,0.034,82,15.915,0.0,0.12,0.0,0.0,ON,0.0
2026-03-25 20:02:31.347,POSCTL,False,2.354,3.159,26.437,-0.0017,-0.0006,-0.0,0.5517,-1.0986,-0.0337,-0.0048,-0.0008,-0.0019,0.005,0.034,82,15.912,0.0,0.12,0.0,0.0,ON,0.0
2026-03-25 20:02:32.353,POSCTL,False,2.352,3.138,26.446,0.0025,-0.0014,-0.0006,0.5546,-1.0982,-0.0279,0.0006,-0.002,0.0002,0.002,0.028,82,15.921,0.0,0.12,0.0,0.0,ON,0.0
2026-03-25 20:02:33.362,POSCTL,False,2.402,3.169,26.543,-0.0024,0.0005,-0.0013,0.559,-1.0977,-0.0331,-0.0002,0.0007,-0.0098,0.001,0.033,82,15.918,0.0,0.12,0.0,0.0,ON,0.0
2026-03-25 20:02:34.368,POSCTL,False,2.412,3.173,26.589,-0.0032,0.0005,-0.0025,0.5601,-1.098,-0.0376,-0.0007,-0.0004,-0.0128,0.001,0.038,82,15.922,0.0,0.12,0.0,0.0,ON,0.0
2026-03-25 20:02:35.379,POSCTL,False,2.402,3.182,26.652,0.0026,-0.004,-0.0019,0.5624,-1.0977,-0.0379,-0.0041,-0.0002,-0.01,0.004,0.038,82,15.912,0.0,0.12,0.0,0.0,ON,0.0
