timestamp,mode,armed,roll_deg,pitch_deg,yaw_deg,rollspeed,pitchspeed,yawspeed,x,y,z,vx,vy,vz,speed_h,altitude_agl,battery_pct,battery_v,current_a0,current_a1,voltage_s1,voltage_s2,relay,distance_m
2026-03-26 17:50:43.586,POSCTL,False,0.013,-2.231,350.536,-0.0003,-0.0002,-0.0002,0.0004,-0.0012,-0.0306,-0.0005,0.0003,-0.0012,0.001,0.031,64,15.056,0.0,0.0,0.0,0.03,ON,0.01
2026-03-26 17:50:44.593,POSCTL,True,0.012,-2.233,350.477,0.0011,0.001,0.0012,0.0003,-0.001,-0.0305,-0.0001,0.0006,-0.0003,0.001,0.03,64,15.056,0.0,0.0,0.0,0.03,ON,0.01
2026-03-26 17:50:45.599,POSCTL,True,0.012,-2.233,350.477,0.0011,0.001,0.0012,0.0003,-0.001,-0.0305,-0.0001,0.0006,-0.0003,0.001,0.03,64,15.056,0.0,0.0,0.0,0.03,ON,0.01
2026-03-26 17:50:46.610,POSCTL,True,0.012,-2.233,350.477,0.0011,0.001,0.0012,0.0003,-0.001,-0.0305,-0.0001,0.0006,-0.0003,0.001,0.03,64,15.066,0.0,0.0,0.0,0.03,ON,0.01
2026-03-26 17:50:47.617,POSCTL,True,0.019,-2.234,350.259,0.0009,0.007,0.0056,0.0007,-0.0016,-0.0307,0.0002,0.0,-0.0014,0.0,0.031,64,15.066,0.0,0.0,0.0,0.03,ON,0.01
2026-03-26 17:50:48.627,AUTO.SUB_0,True,0.042,-2.268,350.26,-0.0398,0.0285,-0.0159,0.0005,-0.0017,-0.0307,0.0018,0.004,-0.0012,0.004,0.031,64,15.066,0.0,0.0,0.0,0.03,ON,0.47
2026-03-26 17:50:49.638,AUTO.SUB_0,True,-0.024,-0.974,341.038,-0.0559,-0.0367,-0.0558,-0.0703,-0.0041,-1.0986,-0.0177,0.0558,-0.3855,0.059,1.099,64,15.066,0.0,0.0,0.0,0.03,ON,1.18
2026-03-26 17:50:50.643,AUTO.SUB_0,True,-0.432,-1.672,332.969,0.0138,0.0156,-0.0166,-0.1218,0.0945,-1.4189,0.0216,-0.0093,-0.1834,0.024,1.419,54,14.475,0.0,0.0,0.0,0.03,ON,1.41
2026-03-26 17:50:51.662,AUTO.SUB_0,True,-0.102,-1.962,330.465,-0.0265,0.0258,0.0086,-0.1673,0.1696,-1.5282,0.0554,-0.0769,-0.1094,0.095,1.528,54,14.475,0.0,0.0,0.0,0.03,ON,1.51
2026-03-26 17:50:52.672,AUTO.SUB_0,True,-0.396,-2.019,343.476,0.0045,-0.0149,-0.0285,-0.1964,0.2533,-1.6063,0.0912,-0.2004,-0.0552,0.22,1.606,52,14.368,0.0,0.0,0.0,0.03,ON,1.61
2026-03-26 17:50:53.676,AUTO.SUB_0,True,0.349,-1.442,343.432,-0.0105,0.0155,-0.0028,-0.1358,0.1767,-1.6541,0.0888,-0.233,-0.0304,0.249,1.654,52,14.368,0.0,0.0,0.0,0.03,ON,1.65
2026-03-26 17:50:54.682,AUTO.SUB_0,True,1.249,-1.117,343.913,-0.0046,0.0033,-0.0046,-0.0829,0.0275,-1.6736,0.0627,-0.1804,-0.0112,0.191,1.674,52,14.368,0.0,0.0,0.0,0.03,ON,1.66
2026-03-26 17:50:55.693,AUTO.SUB_0,True,2.381,0.505,343.678,-0.0298,-0.0697,-0.0201,-0.0686,-0.0391,-1.662,-0.0281,0.0381,0.0636,0.047,1.662,52,14.368,0.0,0.0,0.0,0.03,ON,1.66
2026-03-26 17:50:56.710,OFFBOARD,True,1.38,-1.287,343.479,0.0059,-0.0421,-0.009,-0.1421,0.0176,-1.6138,-0.1026,0.1686,0.0158,0.197,1.614,50,14.265,0.0,0.0,0.0,0.03,ON,1.61
2026-03-26 17:50:57.717,OFFBOARD,True,0.788,-1.518,343.415,0.0181,0.0087,0.0048,-0.1888,0.1001,-1.6072,-0.0519,0.152,-0.0038,0.161,1.607,50,14.265,0.0,0.0,0.0,0.03,ON,1.61
2026-03-26 17:50:58.723,OFFBOARD,True,0.429,-1.784,343.077,-0.0285,-0.0213,-0.003,-0.2187,0.206,-1.6029,-0.015,0.0897,0.0083,0.091,1.603,49,14.222,0.0,0.0,0.0,0.03,ON,1.59
2026-03-26 17:50:59.727,OFFBOARD,True,0.383,-1.74,342.924,0.0036,-0.0034,-0.0071,-0.2264,0.2764,-1.6011,0.0071,0.0155,-0.0085,0.017,1.601,49,14.222,0.0,0.0,0.0,0.03,ON,1.6
2026-03-26 17:51:00.735,OFFBOARD,True,0.684,-1.455,343.213,-0.0119,0.0137,0.0096,-0.2091,0.2739,-1.6042,0.0088,-0.037,-0.0061,0.038,1.604,49,14.222,0.0,0.0,0.0,0.03,ON,1.59
2026-03-26 17:51:01.740,OFFBOARD,True,0.789,-1.431,343.293,0.0288,-0.0102,0.0045,-0.2002,0.2532,-1.6016,-0.0096,-0.0243,-0.0069,0.026,1.602,49,14.222,0.0,0.0,0.0,0.03,ON,1.59
2026-03-26 17:51:02.786,OFFBOARD,True,1.126,-1.51,343.247,-0.0322,0.0058,0.005,-0.2068,0.2164,-1.603,-0.0083,-0.0252,-0.0108,0.027,1.603,49,14.222,0.0,0.0,0.0,0.03,ON,1.61
2026-03-26 17:51:03.793,OFFBOARD,True,0.925,-1.521,343.543,0.0067,0.0406,0.016,-0.2131,0.1891,-1.6052,0.0093,0.0478,0.0012,0.049,1.605,49,14.222,0.0,0.0,0.0,0.03,ON,1.6
2026-03-26 17:51:04.801,OFFBOARD,True,0.798,-1.526,343.685,0.0005,-0.0466,-0.007,-0.214,0.2158,-1.6077,0.0061,0.0589,0.0017,0.059,1.608,47,14.127,0.0,0.0,0.0,0.03,ON,1.6
2026-03-26 17:51:05.809,OFFBOARD,True,0.537,-1.813,343.15,-0.0019,-0.0295,-0.0082,-0.2142,0.2414,-1.6106,0.0104,0.0538,0.0012,0.055,1.611,47,14.127,0.0,0.0,0.0,0.03,ON,1.61
2026-03-26 17:51:06.815,OFFBOARD,True,0.469,-1.509,342.907,0.0026,0.0441,-0.0009,-0.1951,0.2617,-1.6119,0.0132,0.003,0.01,0.014,1.612,46,14.113,0.0,0.0,0.0,0.03,ON,1.61
2026-03-26 17:51:07.819,OFFBOARD,True,0.728,-1.306,342.798,-0.0043,0.0404,0.0248,-0.1842,0.2475,-1.6101,-0.0047,-0.0142,-0.0013,0.015,1.61,46,14.113,0.0,0.0,0.0,0.03,ON,1.61
2026-03-26 17:51:08.826,OFFBOARD,True,0.834,-1.549,342.944,0.0004,0.0015,-0.0183,-0.1876,0.2296,-1.6082,-0.006,0.0016,0.0028,0.006,1.608,46,14.082,0.0,0.0,0.0,0.03,ON,1.6
2026-03-26 17:51:09.829,OFFBOARD,True,0.737,-1.596,343.636,-0.0375,-0.008,0.0083,-0.2013,0.2324,-1.6039,-0.0064,0.0033,-0.0024,0.007,1.604,46,14.082,0.0,0.0,0.0,0.03,ON,1.6
2026-03-26 17:51:10.834,OFFBOARD,True,0.907,-1.606,343.649,0.0375,0.05,0.0155,-0.2183,0.23,-1.612,0.0031,0.0036,-0.0011,0.005,1.612,46,14.071,0.0,0.0,0.0,0.03,ON,1.61
2026-03-26 17:51:11.842,OFFBOARD,True,0.968,-1.752,343.837,0.0047,0.0518,0.0142,-0.2338,0.2373,-1.6155,0.0171,0.0057,0.0044,0.018,1.615,46,14.071,0.0,0.0,0.0,0.03,ON,1.61
2026-03-26 17:51:12.852,POSCTL,True,2.437,-1.384,343.678,0.1971,-0.015,-0.009,-0.2754,0.1619,-1.6092,-0.0506,-0.1718,-0.0039,0.179,1.609,45,14.049,0.0,0.0,0.0,0.03,ON,1.6
2026-03-26 17:51:13.856,POSCTL,True,-1.209,-1.625,343.68,0.055,0.0211,0.0366,-0.304,0.1191,-1.5959,-0.0509,-0.1653,0.007,0.173,1.596,45,14.049,0.0,0.0,0.0,0.03,ON,1.58
2026-03-26 17:51:14.860,POSCTL,True,-0.107,-1.391,344.894,-0.077,0.0582,0.0573,-0.3377,0.0448,-1.5848,0.0072,-0.0116,0.0046,0.014,1.585,45,14.03,0.0,0.0,0.0,0.03,ON,1.57
2026-03-26 17:51:15.865,POSCTL,True,1.607,-1.437,345.957,0.0137,-0.0048,0.0065,-0.3923,-0.0732,-1.5718,-0.0127,-0.1151,-0.0089,0.116,1.572,45,14.03,0.0,0.0,0.0,0.03,ON,1.56
2026-03-26 17:51:16.870,POSCTL,True,0.76,-1.392,345.178,0.0052,-0.0324,-0.0208,-0.4273,-0.144,-1.5693,-0.0039,-0.0646,0.001,0.065,1.569,44,14.016,0.0,0.0,0.0,0.03,ON,1.56
2026-03-26 17:51:17.883,POSCTL,True,1.182,-1.348,345.049,-0.23,0.0494,0.0097,-0.47,-0.2509,-1.5666,0.0005,-0.0334,-0.0126,0.033,1.567,44,14.016,0.0,0.0,0.0,0.03,ON,1.56
2026-03-26 17:51:18.891,POSCTL,True,0.085,-2.223,344.448,0.3074,-0.0934,-0.0374,0,0,0,0,0,0,0.0,0,44,14.003,0.0,0.0,0.0,0.03,ON,1.57
2026-03-26 17:51:19.897,POSCTL,True,0.99,-1.252,344.474,0.0074,0.0367,0.0111,-0.4638,-0.2226,-1.5708,0.0091,0.0185,0.0031,0.021,1.571,44,14.003,0.0,0.0,0.0,0.03,ON,1.56
2026-03-26 17:51:20.901,POSCTL,True,0.496,-1.459,344.324,-0.0166,0.0135,-0.0144,-0.4529,-0.18,-1.8089,-0.006,0.0082,-0.2204,0.01,1.809,43,13.966,0.0,0.0,0.0,0.03,ON,1.81
2026-03-26 17:51:21.910,POSCTL,True,0.348,-1.453,344.45,-0.0025,0.0548,-0.004,-0.4483,-0.1797,-1.8778,-0.011,0.0003,-0.2663,0.011,1.878,43,13.966,0.0,0.0,0.0,0.03,ON,1.93
2026-03-26 17:51:22.917,POSCTL,True,1.683,-2.701,344.954,-0.1315,0.231,0.0085,-0.4125,-0.2087,-1.9415,0.0225,-0.0399,-0.0069,0.046,1.942,43,13.958,0.0,0.0,0.0,0.03,ON,1.93
2026-03-26 17:51:23.922,POSCTL,True,0.655,0.37,344.896,-0.0154,-0.0678,-0.012,-0.3319,-0.2254,-1.9349,0.0347,0.0035,0.0054,0.035,1.935,43,13.958,0.0,0.0,0.0,0.03,ON,1.93
2026-03-26 17:51:24.929,POSCTL,True,0.791,-1.267,344.592,0.0316,0.0233,0.0047,-0.3112,-0.2422,-1.9292,-0.0094,0.0187,-0.0046,0.021,1.929,43,13.958,0.0,0.0,0.0,0.03,ON,1.92
2026-03-26 17:51:25.935,AUTO.SUB_0,True,0.899,-1.248,344.165,-0.0446,0.0191,-0.0092,-0.31,-0.2558,-1.6606,0.0134,0.0024,0.614,0.014,1.661,43,13.958,0.0,0.0,0.0,0.03,ON,1.91
2026-03-26 17:51:26.943,AUTO.SUB_0,True,1.227,-1.266,343.287,0.0232,0.0026,0.0092,-0.3281,-0.317,-1.0867,0.0074,0.0182,0.591,0.02,1.087,43,13.944,0.0,0.0,0.0,0.03,ON,1.04
2026-03-26 17:51:27.954,AUTO.SUB_0,True,1.195,-1.174,343.941,0.0192,0.0421,0.0104,-0.3431,-0.3405,-0.4869,0.0182,0.029,0.5919,0.034,0.487,43,13.944,0.0,0.0,0.0,0.03,ON,0.45
2026-03-26 17:51:28.959,AUTO.SUB_0,True,0.52,-1.807,347.455,0.2226,0.7736,-0.2016,-0.3245,-0.3221,-0.0578,-0.022,-0.1471,0.0521,0.149,0.058,43,13.944,0.0,0.0,0.0,0.03,ON,0.01
2026-03-26 17:51:29.964,AUTO.SUB_0,True,2.138,-2.125,358.127,0.002,-0.0098,0.0019,-0.3278,-0.4024,-0.1132,-0.0312,0.0407,-0.0569,0.051,0.113,43,13.944,0.0,0.0,0.0,0.03,ON,0.01
2026-03-26 17:51:30.973,AUTO.SUB_0,True,2.156,-2.652,1.423,0.002,-0.0022,0.0007,-0.2743,-0.3387,-0.0491,-0.0022,0.0334,-0.0655,0.033,0.049,52,14.487,0.0,0.0,0.0,0.03,ON,0.01
2026-03-26 17:51:31.979,AUTO.SUB_0,True,2.155,-2.719,2.049,0.0,-0.0028,0.001,-0.265,-0.3386,-0.0584,0.0007,0.0242,-0.0666,0.024,0.058,52,14.487,0.0,0.0,0.0,0.03,ON,0.01
2026-03-26 17:51:32.985,AUTO.SUB_0,True,2.09,-2.882,4.74,0.0018,0.0011,-0.0014,-0.2302,-0.3425,-0.0461,0.0052,0.0107,-0.0126,0.012,0.046,52,14.487,0.0,0.0,0.0,0.03,ON,0.01
2026-03-26 17:51:33.993,POSCTL,False,2.009,-3.013,6.171,-0.0031,0.0012,-0.0004,-0.2168,-0.3417,-0.0274,0.002,0.0013,-0.0005,0.002,0.027,52,14.487,0.0,0.0,0.0,0.03,ON,0.01
2026-03-26 17:51:35.002,POSCTL,False,1.985,-3.053,6.575,-0.0005,-0.0006,-0.0014,-0.2136,-0.3413,-0.0307,0.0001,-0.001,-0.0044,0.001,0.031,56,14.687,0.0,0.0,0.0,0.03,ON,0.01
2026-03-26 17:51:36.007,POSCTL,False,1.978,-3.091,6.811,0.0012,0.0018,0.0004,-0.2115,-0.3391,-0.032,0.0009,0.0014,-0.0043,0.002,0.032,56,14.687,0.0,0.0,0.0,0.03,ON,0.01
2026-03-26 17:51:37.016,POSCTL,False,1.953,-3.121,6.925,-0.0004,-0.0006,0.0002,-0.2095,-0.3379,-0.0319,0.0021,0.0018,-0.0038,0.003,0.032,57,14.729,0.0,0.0,0.0,0.03,ON,0.01
2026-03-26 17:51:38.021,POSCTL,False,1.931,-3.138,6.986,0.0002,0.0006,0.0006,-0.2091,-0.3377,-0.0323,0.0016,-0.0004,-0.0056,0.002,0.032,57,14.729,0.0,0.0,0.0,0.03,ON,0.01
2026-03-26 17:51:39.029,POSCTL,False,1.923,-3.17,7.011,0.0012,-0.0015,-0.0017,-0.2077,-0.338,-0.0343,0.0025,-0.0011,-0.008,0.003,0.034,57,14.755,0.0,0.0,0.0,0.03,ON,0.01
2026-03-26 17:51:40.036,POSCTL,False,1.905,-3.181,7.016,-0.0012,-0.0001,-0.0017,-0.2079,-0.3373,-0.0354,-0.0005,0.0002,-0.0082,0.001,0.035,57,14.755,0.0,0.0,0.0,0.03,ON,0.01
2026-03-26 17:51:41.053,POSCTL,False,1.886,-3.2,7.008,-0.0002,0.0017,0.0003,-0.2079,-0.3369,-0.0332,0.0002,0.0005,-0.0045,0.001,0.033,58,14.774,0.0,0.0,0.0,0.03,ON,0.0
2026-03-26 17:51:42.058,POSCTL,False,1.874,-3.22,6.99,-0.0004,-0.0019,0.0006,-0.2079,-0.3364,-0.0317,-0.0004,0.0014,-0.0021,0.001,0.032,58,14.774,0.0,0.0,0.0,0.03,ON,0.01
2026-03-26 17:51:43.067,POSCTL,False,1.845,-3.256,6.941,0.0015,0.0005,-0.0005,-0.2081,-0.337,-0.0299,0.0016,-0.0002,-0.0022,0.002,0.03,58,14.774,0.0,0.0,0.0,0.03,ON,0.01
2026-03-26 17:51:44.076,POSCTL,False,1.834,-3.262,6.896,-0.0013,0.0006,0.0004,-0.2078,-0.3371,-0.0314,-0.0018,0.0004,-0.0022,0.002,0.031,58,14.774,0.0,0.0,0.0,0.03,ON,0.01
2026-03-26 17:51:45.086,POSCTL,False,1.82,-3.301,6.839,-0.0007,0.0007,-0.0011,-0.2081,-0.3368,-0.0297,0.0002,-0.0008,0.0006,0.001,0.03,58,14.788,0.0,0.0,0.0,0.03,ON,0.01
2026-03-26 17:51:46.099,POSCTL,False,1.814,-3.32,6.772,0.0017,0.0005,-0.0003,-0.2083,-0.3367,-0.0295,0.0003,0.0003,0.0011,0.0,0.029,58,14.788,0.0,0.0,0.0,0.03,ON,0.01
2026-03-26 17:51:47.109,POSCTL,False,1.83,-3.341,6.706,0.0015,-0.0018,-0.0005,0,0,0,0,0,0,0.0,0,58,14.785,0.0,0.0,0.0,0.03,ON,0.01
2026-03-26 17:51:48.123,POSCTL,False,1.821,-3.355,6.645,0.0002,-0.0017,-0.0021,-0.2088,-0.3359,-0.0315,-0.0002,0.0009,-0.0026,0.001,0.032,58,14.785,0.0,0.0,0.0,0.03,ON,0.01
2026-03-26 17:51:49.130,POSCTL,False,1.816,-3.362,6.583,0.0013,-0.0003,0.0,-0.2089,-0.3366,-0.0324,-0.0,-0.0001,-0.0044,0.0,0.032,59,14.813,0.0,0.0,0.0,0.03,ON,0.01
2026-03-26 17:51:50.137,POSCTL,False,1.827,-3.388,6.518,0.0002,0.0009,0.0015,-0.2087,-0.3366,-0.0331,0.0016,0.0005,-0.0054,0.002,0.033,59,14.813,0.0,0.0,0.0,0.03,ON,0.01
2026-03-26 17:51:51.143,POSCTL,False,1.803,-3.385,6.462,0.0035,0.0135,0.0006,-0.2089,-0.3361,-0.0315,0.0022,0.0012,-0.0028,0.003,0.032,59,14.83,0.0,0.0,0.0,0.03,ON,0.01
2026-03-26 17:51:52.148,POSCTL,False,3.151,-7.456,21.576,-0.0038,-0.0492,0.2906,-0.06,-0.3921,-0.1353,0.6472,-0.1023,-0.2103,0.655,0.135,59,14.83,0.0,0.0,0.0,0.03,ON,0.16
2026-03-26 17:51:53.154,POSCTL,False,4.826,-5.486,29.573,-0.1374,0.055,-0.188,0.3929,-0.2872,0.0856,0.1412,0.0479,0.2005,0.149,-0.086,59,14.85,0.0,0.0,0.0,0.03,ON,0.08
2026-03-26 17:51:54.163,POSCTL,False,1.694,-4.008,30.077,0.0025,-0.0064,0.0004,0,0,0,0,0,0,0.0,0,59,14.85,0.0,0.0,0.0,0.03,ON,0.0
2026-03-26 17:51:55.171,POSCTL,False,1.694,-3.488,32.231,-0.0011,0.0008,-0.0016,0.0162,0.0071,-0.0806,0.017,0.0016,-0.0502,0.017,0.081,60,14.885,0.0,0.0,0.0,0.03,ON,0.0
2026-03-26 17:51:56.177,POSCTL,False,1.758,-3.284,33.739,-0.0001,0.0033,-0.002,0.0016,0.0032,-0.0415,-0.0015,-0.0026,-0.0067,0.003,0.042,60,14.885,0.0,0.0,0.0,0.03,ON,0.01
2026-03-26 17:51:57.187,POSCTL,False,1.834,-3.207,34.552,0.0012,0.0001,0.0013,-0.0013,0.0026,-0.0271,-0.0046,-0.0011,0.0009,0.005,0.027,60,14.896,0.0,0.0,0.0,0.03,ON,0.0
2026-03-26 17:51:58.192,POSCTL,False,1.896,-3.122,35.236,-0.0015,0.0003,0.0003,-0.0009,0.0018,-0.0284,-0.0039,-0.0021,-0.0031,0.004,0.028,60,14.896,0.0,0.0,0.0,0.03,ON,0.02
2026-03-26 17:51:59.199,POSCTL,False,1.968,-3.051,35.812,-0.0082,-0.002,0.0055,-0.0009,0.001,-0.0319,-0.0045,-0.0034,-0.0069,0.006,0.032,60,14.903,0.0,0.0,0.0,0.03,ON,0.02
2026-03-26 17:52:00.205,POSCTL,False,2.063,-2.967,36.379,-0.0,0.0012,0.0003,-0.0015,0.0009,-0.0315,-0.0047,-0.0035,-0.004,0.006,0.032,60,14.903,0.0,0.0,0.0,0.03,ON,0.02
2026-03-26 17:52:01.213,POSCTL,False,2.142,-2.904,36.846,0.0009,-0.0004,0.0025,-0.0021,0.0015,-0.0324,-0.0067,-0.001,-0.0053,0.007,0.032,61,14.915,0.0,0.0,0.0,0.03,ON,0.02
2026-03-26 17:52:02.219,POSCTL,False,2.182,-2.846,37.244,-0.001,0.0002,0.001,-0.0022,0.0015,-0.0329,-0.007,-0.0008,-0.0055,0.007,0.033,61,14.915,0.0,0.0,0.0,0.03,ON,0.02
2026-03-26 17:52:03.227,POSCTL,False,2.209,-2.795,37.603,-0.0001,-0.0008,-0.0003,-0.0019,0.001,-0.0323,-0.0051,-0.0024,-0.0046,0.006,0.032,61,14.915,0.0,0.0,0.0,0.03,ON,0.0
2026-03-26 17:52:04.233,POSCTL,False,2.26,-2.748,37.888,0.0007,-0.0018,-0.0007,0.0002,0.0009,-0.0332,-0.0,-0.0038,-0.0076,0.004,0.033,61,14.915,0.0,0.0,0.0,0.03,ON,0.02
2026-03-26 17:52:05.239,POSCTL,False,2.306,-2.692,38.191,0.0006,0.0022,-0.0015,-0.0015,0.0004,-0.0332,-0.0053,-0.0034,-0.0036,0.006,0.033,61,14.915,0.0,0.0,0.0,0.03,ON,0.02
2026-03-26 17:52:06.246,POSCTL,False,2.335,-2.672,38.348,-0.0006,-0.0007,-0.0004,-0.0018,0.001,-0.031,-0.0034,-0.001,-0.003,0.004,0.031,61,14.915,0.0,0.0,0.0,0.03,ON,0.02
2026-03-26 17:52:07.255,POSCTL,False,2.382,-2.589,38.724,0.0002,-0.0003,0.0008,-0.0015,0.0004,-0.0322,-0.0024,-0.0042,-0.0041,0.005,0.032,61,14.933,0.0,0.0,0.0,0.03,ON,0.02
2026-03-26 17:52:08.264,POSCTL,False,2.418,-2.541,38.948,0.0004,-0.0002,0.0004,-0.0024,-0.0001,-0.0318,-0.0045,-0.0043,-0.0022,0.006,0.032,61,14.933,0.0,0.0,0.0,0.03,ON,0.02
2026-03-26 17:52:09.275,POSCTL,False,2.452,-2.512,39.153,-0.0009,-0.0004,-0.0011,-0.0028,-0.0005,-0.0303,-0.006,-0.0037,-0.0007,0.007,0.03,61,14.937,0.0,0.0,0.0,0.03,ON,0.02
2026-03-26 17:52:10.283,POSCTL,False,2.483,-2.483,39.342,-0.0015,-0.0021,-0.0029,-0.0025,0.0006,-0.0295,-0.0051,-0.0028,-0.0001,0.006,0.029,61,14.937,0.0,0.0,0.0,0.03,ON,0.02
2026-03-26 17:52:11.289,POSCTL,False,2.499,-2.446,39.503,-0.0018,0.0002,0.0003,-0.0022,-0.0,-0.0299,-0.0031,-0.003,-0.0007,0.004,0.03,61,14.945,0.0,0.0,0.0,0.03,ON,0.02
2026-03-26 17:52:12.295,POSCTL,False,2.512,-2.409,39.712,-0.0002,0.001,0.0006,-0.0021,-0.0004,-0.0304,-0.0013,-0.0028,0.0,0.003,0.03,61,14.945,0.0,0.0,0.0,0.03,ON,0.02
2026-03-26 17:52:13.301,POSCTL,False,2.555,-2.365,39.899,-0.001,0.0007,0.0021,-0.0022,-0.0004,-0.0303,-0.0047,-0.0028,-0.0008,0.005,0.03,61,14.945,0.0,0.0,0.0,0.03,ON,0.02
2026-03-26 17:52:14.308,POSCTL,False,2.559,-2.335,40.032,-0.0005,-0.0005,-0.0007,-0.0035,0.0001,-0.0307,-0.0055,-0.0028,-0.0008,0.006,0.031,61,14.945,0.0,0.0,0.0,0.03,ON,0.02
2026-03-26 17:52:15.313,POSCTL,False,2.565,-2.3,40.155,0.0022,-0.0001,0.0002,-0.003,0.0,-0.0308,-0.0022,-0.001,-0.0021,0.002,0.031,62,14.959,0.0,0.0,0.0,0.03,ON,0.02
2026-03-26 17:52:16.319,POSCTL,False,2.578,-2.26,40.283,-0.0022,-0.0021,0.0024,-0.0029,-0.0001,-0.0331,-0.0017,-0.0011,-0.006,0.002,0.033,62,14.959,0.0,0.0,0.0,0.03,ON,0.02
2026-03-26 17:52:17.327,POSCTL,False,2.573,-2.217,40.388,0.0,-0.0021,-0.0003,-0.003,-0.0001,-0.0336,-0.0035,-0.001,-0.0062,0.004,0.034,62,14.959,0.0,0.0,0.0,0.03,ON,0.02
2026-03-26 17:52:18.337,POSCTL,False,2.574,-2.186,40.482,0.0002,-0.0007,0.0019,-0.0022,-0.0007,-0.0346,-0.0001,-0.0027,-0.0075,0.003,0.035,62,14.959,0.0,0.0,0.0,0.03,ON,0.02
2026-03-26 17:52:19.343,POSCTL,False,2.595,-2.156,40.518,-0.0003,0.001,-0.0014,-0.0046,-0.0005,-0.0345,-0.0065,0.0003,-0.0068,0.007,0.035,62,14.957,0.0,0.0,0.0,0.03,ON,0.02
2026-03-26 17:52:20.348,POSCTL,False,2.588,-2.131,40.575,-0.0002,-0.0016,0.0004,-0.0043,-0.0007,-0.0335,-0.0029,-0.0012,-0.0049,0.003,0.034,62,14.957,0.0,0.0,0.0,0.03,ON,0.02
2026-03-26 17:52:21.356,POSCTL,False,2.589,-2.104,40.626,0.0009,0.0013,0.0,-0.0038,-0.0006,-0.0324,-0.0014,-0.0011,-0.0055,0.002,0.032,62,14.965,0.0,0.0,0.0,0.03,ON,0.02
2026-03-26 17:52:22.365,POSCTL,False,2.578,-2.07,40.68,-0.0018,0.0006,0.0017,-0.0049,-0.0006,-0.033,-0.0027,-0.0009,-0.0053,0.003,0.033,62,14.965,0.0,0.0,0.0,0.03,ON,0.02
2026-03-26 17:52:23.373,POSCTL,False,2.583,-2.06,40.723,0.0024,-0.0002,0.0016,-0.0043,-0.0008,-0.0326,-0.0045,0.0001,-0.0034,0.005,0.033,62,14.977,0.0,0.0,0.0,0.03,ON,0.02
2026-03-26 17:52:24.381,POSCTL,False,2.564,-2.041,40.771,0.0006,0.0013,-0.0003,-0.0052,-0.001,-0.0309,-0.0041,-0.0016,-0.002,0.004,0.031,62,14.977,0.0,0.0,0.0,0.03,ON,0.02
2026-03-26 17:52:25.393,POSCTL,False,2.553,-2.011,40.799,0.0032,-0.0014,0.0016,-0.0049,-0.001,-0.0302,-0.0019,-0.0012,-0.0009,0.002,0.03,62,14.987,0.0,0.0,0.0,0.03,ON,0.02
2026-03-26 17:52:26.407,POSCTL,False,2.549,-2.003,40.821,0.0006,0.0001,0.0004,-0.0048,-0.0017,-0.0289,-0.0022,-0.0018,0.0017,0.003,0.029,62,14.987,0.0,0.0,0.0,0.03,ON,0.02
2026-03-26 17:52:27.412,POSCTL,False,2.549,-1.988,40.833,0.0003,-0.0007,-0.0013,-0.0045,-0.0017,-0.0281,-0.0018,-0.0013,0.0024,0.002,0.028,62,14.973,0.0,0.0,0.0,0.03,ON,0.02
2026-03-26 17:52:28.420,POSCTL,False,2.561,-1.957,40.837,-0.0006,-0.0002,0.0004,-0.0049,-0.0012,-0.0294,-0.0007,-0.0012,-0.0004,0.001,0.029,62,14.973,0.0,0.0,0.0,0.03,ON,0.02
2026-03-26 17:52:29.426,POSCTL,False,2.572,-1.92,40.841,0.0011,0.0003,-0.0011,-0.0042,-0.0008,-0.0318,0.0003,-0.0006,-0.0047,0.001,0.032,62,14.989,0.0,0.0,0.0,0.03,ON,0.02
2026-03-26 17:52:30.432,POSCTL,False,2.576,-1.893,40.847,0.0015,0.0019,-0.0,-0.0056,-0.0008,-0.0336,-0.0038,-0.0002,-0.0046,0.004,0.034,62,14.989,0.0,0.0,0.0,0.03,ON,0.02
2026-03-26 17:52:31.440,POSCTL,False,2.568,-1.884,40.823,0.0002,0.0,0.0014,-0.0051,-0.0017,-0.0323,-0.0015,-0.001,-0.0037,0.002,0.032,62,14.992,0.0,0.0,0.0,0.03,ON,0.02
2026-03-26 17:52:32.447,POSCTL,False,2.569,-1.869,40.835,0.0003,-0.0003,-0.0011,-0.0053,-0.0011,-0.0322,-0.0021,-0.0002,-0.0031,0.002,0.032,62,14.996,0.0,0.0,0.0,0.03,ON,0.02
2026-03-26 17:52:33.459,POSCTL,False,2.564,-1.838,40.841,0.001,-0.0005,-0.0001,-0.004,-0.0016,-0.0323,-0.0009,-0.0018,-0.0038,0.002,0.032,62,14.996,0.0,0.0,0.0,0.03,ON,0.02
2026-03-26 17:52:34.468,POSCTL,False,2.568,-1.829,40.827,0.0002,-0.0013,0.0009,-0.0056,-0.0015,-0.0314,-0.0024,-0.0004,-0.0016,0.002,0.031,62,14.997,0.0,0.0,0.0,0.03,ON,0.02
2026-03-26 17:52:35.483,POSCTL,False,2.57,-1.808,40.825,-0.0,0.0022,0.001,-0.0047,-0.0014,-0.0304,-0.0011,-0.0009,-0.0018,0.001,0.03,62,14.997,0.0,0.0,0.0,0.03,ON,0.02
2026-03-26 17:52:36.492,POSCTL,False,0.0,0.0,0.0,0,0,0,-0.0055,-0.0011,-0.0311,-0.0025,0.0007,-0.0021,0.003,0.031,62,14.997,0.0,0.0,0.0,0.03,ON,0.02
2026-03-26 17:52:37.502,POSCTL,False,0.0,0.0,0.0,0,0,0,-0.0047,-0.0014,-0.0317,-0.0018,-0.0003,-0.0032,0.002,0.032,62,14.997,0.0,0.0,0.0,0.03,ON,0.02
2026-03-26 17:52:38.514,POSCTL,False,2.572,-1.753,40.802,-0.0008,0.0011,-0.0004,-0.0047,-0.0018,-0.0312,-0.0003,-0.0007,-0.0024,0.001,0.031,63,15.003,0.0,0.0,0.0,0.03,ON,0.02
2026-03-26 17:52:39.520,POSCTL,False,2.57,-1.732,40.769,-0.0002,-0.0013,0.0002,-0.0047,-0.0022,-0.0328,-0.0005,-0.0016,-0.0053,0.002,0.033,63,15.003,0.0,0.0,0.0,0.03,ON,0.02
2026-03-26 17:52:40.525,POSCTL,False,2.574,-1.713,40.763,-0.0001,0.0003,-0.0009,-0.005,-0.0022,-0.0336,-0.0019,-0.0002,-0.0061,0.002,0.034,63,15.005,0.0,0.0,0.0,0.03,ON,0.02
2026-03-26 17:52:41.531,POSCTL,False,2.565,-1.707,40.743,0.0007,0.0002,0.0014,-0.0057,-0.0025,-0.033,-0.002,-0.0015,-0.0047,0.003,0.033,63,15.005,0.0,0.0,0.0,0.03,ON,0.02
2026-03-26 17:52:42.535,POSCTL,False,2.571,-1.708,40.706,0.0005,-0.0001,-0.0001,-0.0058,-0.0021,-0.0313,-0.0015,0.0003,-0.0017,0.002,0.031,63,15.014,0.0,0.0,0.0,0.03,ON,0.02
2026-03-26 17:52:43.539,POSCTL,False,2.584,-1.693,40.672,0.0014,-0.001,-0.0004,-0.0048,-0.0016,-0.0315,0.0017,0.0017,-0.0034,0.002,0.032,63,15.014,0.0,0.0,0.0,0.03,ON,0.02
2026-03-26 17:52:44.543,POSCTL,False,2.59,-1.67,40.639,0.0007,0.0011,0.0031,-0.0057,-0.0016,-0.0325,-0.0031,0.0018,-0.004,0.004,0.033,63,15.003,0.0,0.0,0.0,0.03,ON,0.02
2026-03-26 17:52:45.553,POSCTL,False,2.566,-1.661,40.621,-0.0032,0.0011,-0.0011,-0.0054,-0.0026,-0.0326,0.0007,-0.0005,-0.0029,0.001,0.033,63,15.003,0.0,0.0,0.0,0.03,ON,0.02
2026-03-26 17:52:46.558,POSCTL,False,2.556,-1.642,40.601,0.0001,0.0013,-0.0003,-0.0048,-0.0029,-0.0305,0.0019,-0.0014,-0.0015,0.002,0.03,63,15.016,0.0,0.0,0.0,0.03,ON,0.02
2026-03-26 17:52:47.568,POSCTL,False,2.579,-1.626,40.56,0.0011,-0.0005,0.0011,-0.0052,-0.0028,-0.0319,0.0005,-0.0001,-0.0036,0.001,0.032,63,15.016,0.0,0.0,0.0,0.03,ON,0.02
2026-03-26 17:52:48.575,POSCTL,False,2.571,-1.599,40.524,-0.0005,-0.0016,-0.0006,-0.0058,-0.0018,-0.0326,-0.0007,0.0006,-0.0039,0.001,0.033,63,15.024,0.0,0.0,0.0,0.03,ON,0.02
2026-03-26 17:52:49.582,POSCTL,False,2.571,-1.591,40.508,-0.0002,0.0004,0.001,-0.0067,-0.003,-0.0316,-0.0029,-0.0006,-0.0017,0.003,0.032,63,15.024,0.0,0.0,0.0,0.03,ON,0.02
2026-03-26 17:52:50.606,POSCTL,False,2.562,-1.567,40.499,0.0015,-0.0,0.0019,-0.0058,-0.0033,-0.0309,-0.0008,-0.0016,-0.002,0.002,0.031,63,15.025,0.0,0.0,0.0,0.03,ON,0.02
2026-03-26 17:52:51.618,POSCTL,False,2.566,-1.56,40.473,0.0029,-0.0026,-0.0029,-0.0058,-0.0038,-0.031,-0.0008,-0.0019,-0.0013,0.002,0.031,63,15.025,0.0,0.0,0.0,0.03,ON,0.02
2026-03-26 17:52:52.629,POSCTL,False,2.57,-1.55,40.451,0.0004,0.0015,0.0009,-0.0063,-0.0028,-0.0303,-0.0006,0.0007,-0.0011,0.001,0.03,63,15.025,0.0,0.0,0.0,0.03,ON,0.0
2026-03-26 17:52:53.638,POSCTL,False,2.571,-1.528,40.431,0.0004,0.0012,0.0025,-0.0067,-0.0032,-0.0304,-0.0016,-0.001,-0.0019,0.002,0.03,63,15.025,0.0,0.0,0.0,0.03,ON,0.02
2026-03-26 17:52:54.645,POSCTL,False,2.574,-1.507,40.402,-0.0003,0.0011,-0.0015,-0.0067,-0.0038,-0.0301,-0.0022,-0.001,-0.0005,0.002,0.03,63,15.03,0.0,0.0,0.0,0.03,ON,0.02
2026-03-26 17:52:55.650,POSCTL,False,2.571,-1.495,40.382,0.0007,-0.002,-0.0031,-0.0064,-0.0034,-0.0307,-0.0005,-0.0004,-0.0025,0.001,0.031,63,15.03,0.0,0.0,0.0,0.03,ON,0.02
2026-03-26 17:52:56.657,POSCTL,False,2.567,-1.468,40.355,-0.0009,0.0009,-0.0024,-0.0067,-0.0033,-0.0315,-0.0018,-0.0004,-0.0018,0.002,0.032,63,15.029,0.0,0.0,0.0,0.03,ON,0.02
2026-03-26 17:52:57.663,POSCTL,False,2.553,-1.476,40.334,0.0007,0.0019,-0.0001,-0.0064,-0.0038,-0.0315,-0.0016,-0.0025,-0.0022,0.003,0.032,63,15.029,0.0,0.0,0.0,0.03,ON,0.02
2026-03-26 17:52:58.670,POSCTL,False,2.544,-1.466,40.318,0.0017,-0.001,0.0015,-0.0059,-0.0038,-0.0308,-0.0005,-0.0015,-0.0002,0.002,0.031,63,15.029,0.0,0.0,0.0,0.03,ON,0.02
2026-03-26 17:52:59.672,POSCTL,False,2.549,-1.465,40.315,-0.0015,0.0003,-0.0004,-0.0057,-0.0042,-0.0296,-0.0002,-0.0014,0.0005,0.001,0.03,63,15.029,0.0,0.0,0.0,0.03,ON,0.02
2026-03-26 17:53:00.698,POSCTL,False,2.559,-1.462,40.291,-0.0009,-0.0014,-0.0017,-0.0049,-0.0033,-0.0293,0.0019,0.0003,-0.0005,0.002,0.029,63,15.028,0.0,0.0,0.0,0.03,ON,0.02
2026-03-26 17:53:01.703,POSCTL,False,2.558,-1.449,40.296,-0.0004,-0.0005,0.0001,-0.0064,-0.0034,-0.0299,-0.0008,0.0008,0.0002,0.001,0.03,63,15.028,0.0,0.0,0.0,0.03,ON,0.02
2026-03-26 17:53:02.705,POSCTL,False,2.538,-1.429,40.297,-0.0006,0.0025,-0.0015,-0.0063,-0.0039,-0.0295,0.0012,-0.0007,0.0005,0.001,0.029,63,15.034,0.0,0.0,0.0,0.03,ON,0.02
2026-03-26 17:53:03.709,POSCTL,False,2.549,-1.421,40.267,-0.0002,-0.001,0.0009,-0.0073,-0.0049,-0.0282,-0.0032,-0.0028,0.0032,0.004,0.028,63,15.034,0.0,0.0,0.0,0.03,ON,0.02
2026-03-26 17:53:04.712,POSCTL,False,2.558,-1.416,40.255,-0.0007,0.0007,0.0023,-0.0057,-0.0038,-0.0285,0.0007,0.0015,0.0019,0.002,0.029,63,15.032,0.0,0.0,0.0,0.03,ON,0.02
2026-03-26 17:53:05.716,POSCTL,False,2.555,-1.404,40.225,0.0006,-0.0007,-0.0002,-0.0061,-0.0045,-0.0299,0.0012,-0.0011,-0.0006,0.002,0.03,63,15.032,0.0,0.0,0.0,0.03,ON,0.02
2026-03-26 17:53:06.719,POSCTL,False,2.566,-1.385,40.204,-0.0013,0.0004,-0.0001,-0.0064,-0.0041,-0.0308,-0.0011,0.0009,-0.0013,0.001,0.031,63,15.019,0.0,0.0,0.0,0.03,ON,0.02
2026-03-26 17:53:07.722,POSCTL,False,2.55,-1.366,40.189,-0.0004,0.0012,0.0001,-0.0053,-0.0042,-0.0322,0.0043,-0.0014,-0.0047,0.005,0.032,63,15.019,0.0,0.0,0.0,0.03,ON,0.02
2026-03-26 17:53:08.728,POSCTL,False,2.559,-1.332,40.165,0.0001,-0.0015,0.0015,-0.0066,-0.0047,-0.0332,-0.0018,-0.0013,-0.0032,0.002,0.033,63,15.025,0.0,0.0,0.0,0.03,ON,0.02
2026-03-26 17:53:09.731,POSCTL,False,2.551,-1.337,40.161,-0.0004,-0.0011,0.0009,-0.0073,-0.0053,-0.0299,-0.0016,-0.0031,0.0005,0.003,0.03,63,15.025,0.0,0.0,0.0,0.03,ON,0.02
2026-03-26 17:53:10.734,POSCTL,False,2.561,-1.336,40.152,-0.0023,0.001,0.0002,-0.0062,-0.0051,-0.0296,-0.0006,-0.0013,0.0007,0.001,0.03,63,15.027,0.0,0.0,0.0,0.03,ON,0.02
2026-03-26 17:53:11.737,POSCTL,False,2.557,-1.325,40.138,-0.0007,-0.0,-0.0014,-0.0067,-0.0044,-0.0295,-0.0015,-0.0004,0.0007,0.002,0.029,63,15.027,0.0,0.0,0.0,0.03,ON,0.02
2026-03-26 17:53:12.739,POSCTL,False,2.556,-1.322,40.12,-0.0017,-0.0003,0.0004,-0.0066,-0.0047,-0.0297,-0.001,0.0003,0.0006,0.001,0.03,63,15.035,0.0,0.0,0.0,0.03,ON,0.02
2026-03-26 17:53:13.742,POSCTL,False,2.54,-1.318,40.102,-0.0002,-0.0002,-0.0026,-0.0063,-0.0047,-0.0287,-0.0007,0.0004,0.0018,0.001,0.029,63,15.035,0.0,0.0,0.0,0.03,ON,0.02
2026-03-26 17:53:14.744,POSCTL,False,2.536,-1.314,40.088,-0.0011,-0.0011,0.0001,-0.0059,-0.0054,-0.0279,0.0003,-0.0021,0.0039,0.002,0.028,63,15.041,0.0,0.0,0.0,0.03,ON,0.02
2026-03-26 17:53:15.746,POSCTL,False,2.54,-1.314,40.079,-0.0016,0.001,-0.001,-0.0063,-0.0057,-0.028,-0.0009,-0.0012,0.0027,0.001,0.028,63,15.041,0.0,0.0,0.0,0.03,ON,0.02
2026-03-26 17:53:16.750,POSCTL,False,2.532,-1.303,40.078,0.0003,0.0007,0.0006,-0.0054,-0.005,-0.0298,0.0015,-0.0014,-0.0018,0.002,0.03,63,15.037,0.0,0.0,0.0,0.03,ON,0.02
2026-03-26 17:53:17.754,POSCTL,False,2.542,-1.291,40.083,-0.0014,-0.0017,0.0005,-0.0056,-0.0058,-0.0312,0.0019,-0.002,-0.002,0.003,0.031,63,15.037,0.0,0.0,0.0,0.03,ON,0.02
2026-03-26 17:53:18.758,POSCTL,False,2.549,-1.273,40.078,-0.0,0.0003,-0.0007,-0.0064,-0.0052,-0.0316,-0.0012,-0.0003,-0.0008,0.001,0.032,63,15.041,0.0,0.0,0.0,0.03,ON,0.02
2026-03-26 17:53:19.761,POSCTL,False,2.54,-1.258,40.073,-0.0,0.0005,-0.0019,-0.0061,-0.0056,-0.0307,0.0016,-0.0005,-0.0012,0.002,0.031,63,15.041,0.0,0.0,0.0,0.03,ON,0.02
2026-03-26 17:53:20.763,POSCTL,False,2.54,-1.234,40.058,-0.0005,0.0003,0.0013,-0.0059,-0.0065,-0.0297,0.0024,-0.0017,0.0007,0.003,0.03,63,15.034,0.0,0.0,0.0,0.03,ON,0.02
2026-03-26 17:53:21.766,POSCTL,False,2.548,-1.23,40.046,0.0008,-0.0004,0.0018,-0.006,-0.0062,-0.0307,-0.0001,-0.0018,-0.0028,0.002,0.031,63,15.034,0.0,0.0,0.0,0.03,ON,0.02
2026-03-26 17:53:22.769,POSCTL,False,2.559,-1.229,40.032,-0.0002,-0.0001,-0.0006,-0.0075,-0.0062,-0.0314,-0.0018,-0.0021,-0.0016,0.003,0.031,63,15.037,0.0,0.0,0.0,0.03,ON,0.02
2026-03-26 17:53:23.772,POSCTL,False,2.55,-1.219,40.02,-0.0011,-0.0009,-0.0026,-0.0075,-0.0062,-0.0314,-0.0018,-0.0021,-0.0016,0.003,0.031,63,15.037,0.0,0.0,0.0,0.03,ON,0.02
2026-03-26 17:53:24.775,POSCTL,False,2.542,-1.216,40.005,-0.0014,-0.0003,0.0015,-0.0066,-0.0059,-0.0289,-0.0011,-0.0022,0.0035,0.002,0.029,63,15.037,0.0,0.0,0.0,0.03,ON,0.02
2026-03-26 17:53:25.777,POSCTL,False,2.545,-1.225,39.98,-0.0015,0.0008,0.0005,-0.0069,-0.006,-0.0275,-0.0019,0.0003,0.0033,0.002,0.028,63,15.037,0.0,0.0,0.0,0.03,ON,0.02
2026-03-26 17:53:26.780,POSCTL,False,2.547,-1.224,39.967,-0.0015,-0.001,-0.0018,-0.0068,-0.0059,-0.0278,-0.0015,-0.0005,0.0035,0.002,0.028,63,15.037,0.0,0.0,0.0,0.03,ON,0.02
2026-03-26 17:53:27.783,POSCTL,False,2.553,-1.219,39.963,0.0009,-0.0011,0.0015,-0.0068,-0.0059,-0.0278,-0.0015,-0.0005,0.0035,0.002,0.028,63,15.037,0.0,0.0,0.0,0.03,ON,0.02
2026-03-26 17:53:28.786,POSCTL,False,2.552,-1.211,39.951,-0.0007,-0.0023,-0.0001,-0.0062,-0.0065,-0.0302,-0.0001,-0.0005,-0.0005,0.001,0.03,63,15.039,0.0,0.0,0.0,0.03,ON,0.02
2026-03-26 17:53:29.788,POSCTL,False,2.567,-1.191,39.944,0.0014,-0.0018,0.0022,-0.0061,-0.006,-0.0308,0.0005,0.0007,-0.0021,0.001,0.031,63,15.039,0.0,0.0,0.0,0.03,ON,0.02
2026-03-26 17:53:30.791,POSCTL,False,2.566,-1.187,39.943,-0.0009,0.0019,-0.0006,-0.0071,-0.0067,-0.0314,-0.0005,-0.0011,-0.0015,0.001,0.031,63,15.041,0.0,0.0,0.0,0.03,ON,0.02
2026-03-26 17:53:31.794,POSCTL,False,2.565,-1.182,39.942,-0.0012,0.0026,-0.0006,-0.0058,-0.0059,-0.0304,0.001,0.0008,-0.0002,0.001,0.03,63,15.041,0.0,0.0,0.0,0.03,ON,0.02
2026-03-26 17:53:32.796,POSCTL,False,2.561,-1.163,39.943,-0.0022,0.0017,-0.0009,-0.0069,-0.0064,-0.0299,-0.0023,-0.0005,0.0009,0.002,0.03,62,14.998,0.0,0.0,0.0,0.03,ON,0.02
2026-03-26 17:53:33.800,POSCTL,False,2.554,-1.176,39.929,-0.0011,-0.0004,0.0016,-0.0073,-0.007,-0.0298,-0.0012,0.0001,-0.0003,0.001,0.03,62,14.998,0.0,0.0,0.0,0.03,ON,0.02
2026-03-26 17:53:34.803,POSCTL,True,2.544,-1.172,39.926,-0.0039,-0.0007,0.001,-0.0069,-0.0065,-0.0299,-0.0009,-0.0002,0.0008,0.001,0.03,62,14.998,0.0,0.0,0.0,0.03,ON,0.02
2026-03-26 17:53:35.809,POSCTL,False,0.0,0.0,0.0,0,0,0,-0.006,-0.0073,-0.029,0.0006,-0.0024,0.0026,0.002,0.029,62,14.998,0.0,0.0,0.0,0.03,ON,0.02
2026-03-26 17:53:36.812,POSCTL,False,2.541,-1.179,39.897,0.0004,-0.0024,0.0002,-0.0069,-0.0058,-0.0273,-0.001,0.0012,0.0058,0.002,0.027,62,14.981,0.0,0.0,0.0,0.03,ON,0.02
2026-03-26 17:53:37.816,POSCTL,False,2.526,-1.169,39.895,0.0001,-0.0003,0.0004,-0.0069,-0.0068,-0.0259,-0.0016,-0.0002,0.005,0.002,0.026,62,14.981,0.0,0.0,0.0,0.03,ON,0.02
2026-03-26 17:53:38.820,POSCTL,False,2.531,-1.165,39.895,-0.0007,-0.0028,0.0011,-0.0052,-0.007,-0.0275,0.0031,0.0009,0.0026,0.003,0.028,62,14.981,0.0,0.0,0.0,0.03,ON,0.02
2026-03-26 17:53:39.822,POSCTL,False,2.544,-1.147,39.904,0.0011,0.0,-0.0003,-0.0059,-0.0074,-0.0291,0.0011,-0.002,0.0017,0.002,0.029,62,14.981,0.0,0.0,0.0,0.03,ON,0.02
2026-03-26 17:53:40.826,POSCTL,False,2.548,-1.133,39.881,-0.0008,-0.0009,-0.0002,-0.0063,-0.007,-0.0299,0.0012,0.0007,0.0,0.001,0.03,63,15.02,0.0,0.0,0.0,0.03,ON,0.02
2026-03-26 17:53:41.829,POSCTL,False,2.55,-1.12,39.868,-0.0004,0.0004,-0.0014,-0.0075,-0.0065,-0.0299,-0.0028,0.0018,0.0014,0.003,0.03,63,15.02,0.0,0.0,0.0,0.03,ON,0.02
2026-03-26 17:53:42.831,POSCTL,False,2.554,-1.116,39.861,0.0017,-0.0006,-0.0008,-0.0073,-0.008,-0.0294,-0.002,-0.0006,0.0021,0.002,0.029,63,15.025,0.0,0.0,0.0,0.03,ON,0.02
2026-03-26 17:53:43.833,POSCTL,False,2.553,-1.115,39.85,-0.0007,0.0001,0.0,-0.0066,-0.008,-0.0279,-0.0015,-0.0009,0.0057,0.002,0.028,63,15.025,0.0,0.0,0.0,0.03,ON,0.02
2026-03-26 17:53:44.835,POSCTL,False,2.552,-1.119,39.848,0.0008,0.0002,0.0017,-0.0068,-0.0075,-0.027,-0.0026,0.0004,0.0044,0.003,0.027,63,15.025,0.0,0.0,0.0,0.03,ON,0.02
2026-03-26 17:53:45.838,POSCTL,False,2.54,-1.107,39.836,-0.0,0.0009,-0.0013,-0.0035,-0.0075,-0.0282,0.0036,-0.0003,0.002,0.004,0.028,63,15.025,0.0,0.0,0.0,0.03,ON,0.02
2026-03-26 17:53:46.841,POSCTL,False,2.543,-1.086,39.828,0.0015,-0.0001,0.0001,-0.0049,-0.0079,-0.0286,0.0015,-0.0011,0.0035,0.002,0.029,63,15.019,0.0,0.0,0.0,0.03,ON,0.02
2026-03-26 17:53:47.843,POSCTL,False,2.552,-1.075,39.819,0.002,-0.006,-0.0107,-0.0057,-0.008,-0.0283,0.0003,-0.0031,0.0024,0.003,0.028,63,15.019,0.0,0.0,0.0,0.03,ON,0.02
2026-03-26 17:53:48.847,POSCTL,False,2.541,-1.067,39.816,0.0007,0.0013,0.001,-0.0054,-0.0082,-0.0308,0.0009,-0.0018,-0.0013,0.002,0.031,63,15.019,0.0,0.0,0.0,0.03,ON,0.02
2026-03-26 17:53:49.849,POSCTL,False,2.554,-1.056,39.807,0.0016,-0.0008,-0.0037,-0.0049,-0.0077,-0.0313,0.0029,-0.0008,-0.0011,0.003,0.031,63,15.019,0.0,0.0,0.0,0.03,ON,0.02
2026-03-26 17:53:50.852,POSCTL,False,2.561,-1.049,39.805,0.0012,-0.0005,0.0008,-0.0057,-0.0074,-0.0294,-0.0001,0.0006,0.0029,0.001,0.029,63,15.006,0.0,0.0,0.0,0.03,ON,0.02
2026-03-26 17:53:51.854,POSCTL,False,2.551,-1.06,39.801,0.0016,0.0011,0.0009,-0.0059,-0.0076,-0.0269,-0.0019,-0.0003,0.0055,0.002,0.027,63,15.006,0.0,0.0,0.0,0.03,ON,0.02
2026-03-26 17:53:52.858,POSCTL,False,2.543,-1.054,39.793,0.0005,0.0029,0.0027,-0.0055,-0.0083,-0.0262,-0.001,-0.0009,0.0066,0.001,0.026,63,15.003,0.0,0.0,0.0,0.03,ON,0.02
2026-03-26 17:53:53.861,POSCTL,False,2.549,-1.057,39.784,0.0022,0.0016,0.0002,-0.0044,-0.0081,-0.0275,0.0001,-0.0005,0.0023,0.001,0.028,63,15.003,0.0,0.0,0.0,0.03,ON,0.02
2026-03-26 17:53:54.863,POSCTL,False,2.553,-1.057,39.785,0.0028,-0.0001,0.0006,-0.005,-0.008,-0.0291,-0.0004,-0.0006,0.0026,0.001,0.029,63,15.003,0.0,0.0,0.0,0.03,ON,0.02
2026-03-26 17:53:55.868,POSCTL,False,2.541,-1.051,39.781,0.0015,0.0013,0.0009,-0.0051,-0.0081,-0.028,-0.001,-0.001,0.0054,0.001,0.028,63,15.003,0.0,0.0,0.0,0.03,ON,0.02
2026-03-26 17:53:56.871,POSCTL,False,2.548,-1.045,39.769,0.0014,0.0014,-0.0013,-0.0042,-0.0081,-0.0261,0.0015,0.0008,0.0064,0.002,0.026,63,15.027,0.0,0.0,0.0,0.03,ON,0.02
2026-03-26 17:53:57.874,POSCTL,False,2.553,-1.046,39.754,-0.0011,-0.0004,0.0006,-0.0042,-0.0079,-0.0278,0.0002,0.002,0.0028,0.002,0.028,63,15.027,0.0,0.0,0.0,0.03,ON,0.02
2026-03-26 17:53:58.878,POSCTL,False,2.556,-1.04,39.73,0.0023,0.0003,-0.0006,-0.0033,-0.0083,-0.0289,0.0027,0.0008,0.0017,0.003,0.029,63,15.036,0.0,0.0,0.0,0.03,ON,0.02
2026-03-26 17:53:59.883,POSCTL,False,2.575,-1.031,39.719,0.0005,-0.0012,-0.0006,-0.0045,-0.0081,-0.0299,-0.0002,0.001,0.0003,0.001,0.03,63,15.036,0.0,0.0,0.0,0.03,ON,0.02
2026-03-26 17:54:00.887,POSCTL,False,2.579,-1.022,39.717,-0.0012,0.0005,-0.0009,-0.0044,-0.0083,-0.0293,-0.0027,0.0006,0.0034,0.003,0.029,64,15.053,0.0,0.0,0.0,0.03,ON,0.02
2026-03-26 17:54:01.890,POSCTL,False,2.568,-1.024,39.711,0.0006,-0.0017,-0.0016,-0.0042,-0.0086,-0.0274,-0.0001,0.0006,0.005,0.001,0.027,64,15.053,0.0,0.0,0.0,0.03,ON,0.02
2026-03-26 17:54:02.894,POSCTL,False,2.566,-1.018,39.713,-0.0005,0.0002,-0.0012,-0.0042,-0.0086,-0.0265,-0.0009,0.0005,0.0057,0.001,0.026,63,15.043,0.0,0.0,0.0,0.03,ON,0.02
2026-03-26 17:54:03.906,POSCTL,False,2.562,-1.008,39.7,-0.0002,0.0021,-0.0004,-0.0029,-0.0087,-0.0275,0.0027,0.0005,0.0032,0.003,0.028,63,15.043,0.0,0.0,0.0,0.03,ON,0.02
2026-03-26 17:54:04.909,POSCTL,False,2.568,-1.013,39.694,0.0003,-0.0005,-0.0006,-0.0041,-0.0091,-0.0291,-0.0009,0.0003,0.0011,0.001,0.029,63,14.999,0.0,0.0,0.0,0.03,ON,0.02
2026-03-26 17:54:05.910,POSCTL,False,2.553,-1.004,39.687,0.0008,0.0007,-0.0006,-0.0036,-0.0094,-0.0293,-0.0009,-0.0003,0.0029,0.001,0.029,63,14.999,0.0,0.0,0.0,0.03,ON,0.02
2026-03-26 17:54:06.913,POSCTL,False,2.546,-1.003,39.691,-0.0035,-0.0007,0.0005,-0.0038,-0.0093,-0.0285,-0.0006,0.0011,0.0033,0.001,0.029,63,14.999,0.0,0.0,0.0,0.03,ON,0.02
2026-03-26 17:54:07.919,POSCTL,False,2.546,-1.003,39.691,-0.0035,-0.0007,0.0005,-0.0038,-0.0093,-0.0285,-0.0006,0.0011,0.0033,0.001,0.029,63,14.999,0.0,0.0,0.0,0.03,ON,0.02
2026-03-26 17:54:08.923,POSCTL,False,2.546,-1.003,39.691,-0.0035,-0.0007,0.0005,-0.0038,-0.0093,-0.0285,-0.0006,0.0011,0.0033,0.001,0.029,63,14.999,0.0,0.0,0.0,0.03,ON,0.02
2026-03-26 17:54:09.924,POSCTL,False,2.546,-1.003,39.691,-0.0035,-0.0007,0.0005,-0.0038,-0.0093,-0.0285,-0.0006,0.0011,0.0033,0.001,0.029,63,14.999,0.0,0.0,0.0,0.03,ON,0.02
2026-03-26 17:54:10.927,POSCTL,False,2.546,-1.003,39.691,-0.0035,-0.0007,0.0005,-0.0038,-0.0093,-0.0285,-0.0006,0.0011,0.0033,0.001,0.029,63,14.999,0.0,0.0,0.0,0.03,ON,0.02
2026-03-26 17:54:11.930,POSCTL,False,2.546,-1.003,39.691,-0.0035,-0.0007,0.0005,-0.0038,-0.0093,-0.0285,-0.0006,0.0011,0.0033,0.001,0.029,63,14.999,0.0,0.0,0.0,0.03,ON,0.02
2026-03-26 17:54:12.932,POSCTL,False,2.546,-1.003,39.691,-0.0035,-0.0007,0.0005,-0.0038,-0.0093,-0.0285,-0.0006,0.0011,0.0033,0.001,0.029,63,14.999,0.0,0.0,0.0,0.03,ON,0.02
2026-03-26 17:54:13.933,POSCTL,False,2.546,-1.003,39.691,-0.0035,-0.0007,0.0005,-0.0038,-0.0093,-0.0285,-0.0006,0.0011,0.0033,0.001,0.029,63,14.999,0.0,0.0,0.0,0.03,ON,0.02
2026-03-26 17:54:14.939,POSCTL,False,2.546,-1.003,39.691,-0.0035,-0.0007,0.0005,-0.0038,-0.0093,-0.0285,-0.0006,0.0011,0.0033,0.001,0.029,63,14.999,0.0,0.0,0.0,0.03,ON,0.02
2026-03-26 17:54:15.942,POSCTL,False,0.089,-2.483,359.998,-0.0001,0.0,-0.001,-0.0057,-0.001,0.0019,-0.0049,-0.0014,0.002,0.005,-0.002,63,14.999,0.0,0.0,0.0,0.03,ON,0.02
2026-03-26 17:54:16.944,POSCTL,False,0.091,-2.472,359.997,0.0003,-0.0001,-0.001,-0.0005,0.0004,-0.0017,0.0017,0.0006,-0.003,0.002,0.002,63,14.999,0.0,0.0,0.0,0.03,ON,0.02
2026-03-26 17:54:17.946,POSCTL,False,0.09,-2.468,359.998,0.0006,-0.0001,-0.0003,-0.0014,0.0008,-0.0016,-0.0002,0.0018,-0.0037,0.002,0.002,64,15.055,0.0,0.0,0.0,0.03,ON,0.02
2026-03-26 17:54:18.948,POSCTL,False,0.079,-2.475,354.438,-0.0002,-0.0007,0.0004,-0.0,0.0004,-0.0309,0.0002,0.0007,-0.0019,0.001,0.031,64,15.055,0.0,0.0,0.0,0.03,ON,0.02
2026-03-26 17:54:19.954,POSCTL,False,0.076,-2.464,354.604,0.0003,-0.0006,0.0006,0.0006,0.0001,-0.0305,-0.0004,0.0001,-0.0011,0.0,0.03,63,15.029,0.0,0.0,0.0,0.03,ON,0.02
2026-03-26 17:54:20.958,POSCTL,False,0.075,-2.468,354.497,0.0,0.0008,0.0006,-0.0001,-0.0,-0.0301,-0.0002,-0.0,-0.0003,0.0,0.03,63,15.029,0.0,0.0,0.0,0.03,ON,0.02
2026-03-26 17:54:21.960,POSCTL,False,0.066,-2.47,354.388,-0.0003,0.0001,-0.001,0.0006,0.0001,-0.0304,0.0005,-0.0007,-0.0012,0.001,0.03,63,15.002,0.0,0.0,0.0,0.03,ON,0.02
