timestamp,mode,armed,roll_deg,pitch_deg,yaw_deg,rollspeed,pitchspeed,yawspeed,x,y,z,vx,vy,vz,speed_h,altitude_agl,battery_pct,battery_v,current_a0,current_a1,voltage_s1,voltage_s2,relay,distance_m
2026-03-26 19:00:20.016,PX4_0,False,0.058,-2.721,350.25,-0.0002,-0.0003,-0.0002,-0.0008,-0.0049,-0.03,-0.0002,-0.0006,-0.0002,0.001,0.03,64,15.092,0.0,0.0,0.0,0.03,ON,0.01
2026-03-26 19:00:21.021,PX4_0,False,0.055,-2.727,350.196,-0.0047,0.004,-0.0392,-0.0007,-0.0051,-0.0304,0.0012,0.002,-0.0008,0.002,0.03,64,15.073,0.0,0.0,0.0,0.03,ON,0.01
2026-03-26 19:00:22.024,PX4_0,False,0.055,-2.727,350.173,-0.0033,-0.0064,-0.0264,-0.0008,-0.005,-0.0305,-0.0009,-0.0005,-0.0004,0.001,0.03,64,15.056,0.0,0.0,0.0,0.03,ON,0.01
2026-03-26 19:00:23.030,PX4_0,False,0.058,-2.721,350.274,0.0047,0.0045,-0.0053,-0.0007,-0.005,-0.0304,0.0012,0.0026,-0.0002,0.003,0.03,64,15.053,0.0,0.0,0.0,0.03,ON,0.01
2026-03-26 19:00:24.034,PX4_0,False,0.06,-2.721,350.201,0.0075,-0.0047,-0.0165,-0.0009,-0.0055,-0.0301,0.0003,0.0003,-0.0,0.0,0.03,64,15.063,0.0,0.0,0.0,0.03,ON,0.01
2026-03-26 19:00:25.038,PX4_0,False,-0.604,-0.588,344.83,0.0389,0.0435,-0.0828,-0.0255,0.0178,-0.5677,-0.0658,0.0305,-1.1884,0.073,0.568,52,14.395,0.0,0.0,0.0,0.03,ON,0.56
2026-03-26 19:00:26.039,PX4_0,False,-0.232,-1.03,340.353,-0.0284,-0.0178,-0.0763,-0.0525,0.014,-1.0932,-0.0255,0.0459,-0.377,0.053,1.093,47,14.147,0.0,0.0,0.0,0.03,ON,1.09
2026-03-26 19:00:27.041,PX4_0,False,-0.499,-1.455,332.146,-0.0054,0.0487,0.0046,-0.0953,0.089,-1.3795,-0.0013,0.006,-0.2042,0.006,1.379,44,14.0,0.0,0.0,0.0,0.03,ON,1.37
2026-03-26 19:00:28.043,PX4_0,False,-0.571,-1.87,328.017,-0.0545,0.0594,-0.0231,-0.1078,0.1603,-1.5246,0.0516,-0.0503,-0.1146,0.072,1.525,42,13.928,0.0,0.0,0.0,0.03,ON,1.51
2026-03-26 19:00:29.044,PX4_0,False,-0.308,-1.299,343.407,-0.047,0.0369,-0.0301,-0.0981,0.1672,-1.5837,0.0538,-0.1349,-0.0695,0.145,1.584,42,13.893,0.0,0.0,0.0,0.03,ON,1.58
2026-03-26 19:00:30.050,PX4_0,False,-0.017,-0.877,343.162,0.0313,-0.0944,-0.0355,-0.0477,0.0969,-1.6297,0.0553,-0.1231,-0.0482,0.135,1.63,41,13.858,0.0,0.0,0.0,0.03,ON,1.62
2026-03-26 19:00:31.052,PX4_0,False,0.371,-1.028,343.099,0.076,-0.0684,-0.0053,-0.0451,0.011,-1.6529,0.0087,-0.0671,-0.0221,0.068,1.653,40,13.823,0.0,0.0,0.0,0.03,ON,1.64
2026-03-26 19:00:32.057,PX4_0,False,2.393,-1.012,344.889,0.0086,-0.0891,0.1276,-0.0575,-0.0858,-1.6542,0.0122,0.0155,0.0251,0.02,1.654,40,13.806,0.0,0.0,0.0,0.03,ON,1.65
2026-03-26 19:00:33.059,PX4_0,False,0.127,-1.607,350.375,-0.101,0.0243,0.0409,-0.0453,-0.0312,-1.6046,0.0569,0.1941,0.0266,0.202,1.605,39,13.778,0.0,0.0,0.0,0.03,ON,1.59
2026-03-26 19:00:34.060,PX4_0,False,-0.419,-1.146,352.494,-0.0579,0.0793,0.0432,0.0463,0.0751,-1.5868,0.0762,0.038,0.0082,0.085,1.587,39,13.744,0.0,0.0,0.0,0.03,ON,1.58
2026-03-26 19:00:35.062,PX4_0,False,-0.152,-0.739,353.557,0.0262,0.0879,0.0338,0.1357,0.0623,-1.5876,0.0289,-0.0787,-0.0091,0.084,1.588,38,13.722,0.0,0.0,0.0,0.03,ON,1.59
2026-03-26 19:00:36.065,PX4_0,False,0.708,-0.904,353.165,0.1054,0.054,0.0176,0.1652,-0.0097,-1.6022,-0.029,-0.0712,-0.0013,0.077,1.602,38,13.72,0.0,0.0,0.0,0.03,ON,1.6
2026-03-26 19:00:37.069,PX4_0,False,0.777,-1.09,352.877,-0.0653,-0.0138,-0.0416,0.1507,-0.0734,-1.615,-0.0425,0.0129,-0.4921,0.044,1.615,34,13.454,0.0,0.0,0.0,0.03,ON,1.61
2026-03-26 19:00:38.072,PX4_0,False,0.861,-1.623,353.836,-0.0463,-0.0964,-0.0314,0.1299,-0.0634,-2.4406,-0.0235,0.0326,-1.3968,0.04,2.441,36,13.615,0.0,0.0,0.0,0.03,ON,2.9
2026-03-26 19:00:39.074,PX4_0,False,0.574,-1.759,354.427,-0.0297,-0.0499,-0.0148,0.0649,-0.0689,-3.344,0.0225,0.0586,-0.1959,0.063,3.344,38,13.7,0.0,0.0,0.0,0.03,ON,3.34
2026-03-26 19:00:40.077,PX4_0,False,-0.632,-1.729,353.708,-0.0312,-0.0017,-0.0358,0.1219,0.0214,-3.4441,0.1055,-0.0364,-0.0485,0.112,3.444,37,13.686,0.0,0.0,0.0,0.03,ON,3.29
2026-03-26 19:00:41.085,PX4_0,False,-0.663,-0.205,354.106,0.0904,0.0141,0.0166,0.2754,0.007,-3.3947,0.0372,-0.1145,-0.1138,0.12,3.395,37,13.653,0.0,0.0,0.0,0.03,ON,3.62
2026-03-26 19:00:42.088,PX4_0,False,0.753,-0.843,354.85,0.1063,0.0429,0.0574,0.3206,-0.0714,-3.6029,-0.0699,-0.1583,0.0516,0.173,3.603,37,13.686,0.0,0.0,0.0,0.03,ON,3.67
2026-03-26 19:00:43.090,PX4_0,False,1.156,-1.513,356.322,-0.0039,-0.0324,0.0057,0.2209,-0.2606,-3.5383,-0.083,-0.0357,0.0681,0.09,3.538,37,13.675,0.0,0.0,0.0,0.03,ON,3.48
2026-03-26 19:00:44.092,PX4_0,False,0.225,-2.149,356.116,-0.0251,0.0657,-0.0186,0.1273,-0.2109,-3.4608,0.0048,0.0149,-0.0217,0.016,3.461,36,13.627,0.0,0.0,0.0,0.03,ON,3.42
2026-03-26 19:00:45.094,PX4_0,False,-0.069,-1.878,356.054,-0.0051,0.0269,0.0039,0.1447,-0.1693,-3.4611,0.0944,-0.0426,-0.0322,0.104,3.461,36,13.602,0.0,0.0,0.0,0.03,ON,3.46
2026-03-26 19:00:46.100,PX4_0,False,0.049,-1.297,356.808,0.0135,0.0843,0.0107,0.1894,-0.1812,-3.4799,0.1067,-0.0726,-0.0111,0.129,3.48,36,13.595,0.0,0.0,0.0,0.03,ON,3.48
2026-03-26 19:00:47.105,PX4_0,False,0.635,-0.837,357.337,0.061,-0.0321,-0.0055,0.2635,-0.2411,-3.4921,0.0805,-0.0922,-0.0113,0.122,3.492,35,13.592,0.0,0.0,0.0,0.03,ON,3.5
2026-03-26 19:00:48.108,PX4_0,False,1.471,-1.216,357.634,0.0437,-0.0139,0.029,0.2932,-0.3923,-3.4959,-0.008,0.0111,0.0187,0.014,3.496,35,13.579,0.0,0.0,0.0,0.03,ON,3.49
2026-03-26 19:00:49.109,PX4_0,False,0.573,-1.319,357.905,-0.0139,-0.0349,-0.0032,0.2667,-0.3625,-3.4874,0.0088,0.065,-0.0018,0.066,3.487,35,13.573,0.0,0.0,0.0,0.03,ON,3.48
2026-03-26 19:00:50.116,PX4_0,False,0.086,-1.261,358.152,-0.0464,0.0148,-0.0142,0.2791,-0.303,-3.4891,0.0119,0.0356,-0.0064,0.038,3.489,35,13.555,0.0,0.0,0.0,0.03,ON,3.48
2026-03-26 19:00:51.120,PX4_0,False,0.558,-1.06,358.218,-0.1151,0.0047,-0.016,0.3192,-0.319,-3.4918,-0.0051,-0.055,-0.0037,0.055,3.492,35,13.557,0.0,0.0,0.0,0.03,ON,3.5
2026-03-26 19:00:52.125,OFFBOARD,True,0.0,0.0,0.0,0,0,0,0.3318,-0.376,-3.4979,-0.0205,-0.0239,0.0027,0.031,3.498,35,13.548,0.0,0.0,0.0,0.03,ON,3.5
2026-03-26 19:00:53.127,PX4_0,False,0.55,-1.484,357.973,0.0201,-0.0472,-0.0028,0.3139,-0.3895,-3.4971,-0.0313,0.0026,0.0155,0.031,3.497,34,13.526,0.0,0.0,0.0,0.03,ON,3.48
2026-03-26 19:00:54.131,PX4_0,False,0.464,-1.351,357.908,0.0332,-0.034,0.0167,0.2837,-0.4059,-3.4855,0.0018,0.0087,-0.0066,0.009,3.486,34,13.51,0.0,0.0,0.0,0.03,ON,3.49
2026-03-26 19:00:55.137,PX4_0,False,0.371,-0.953,358.044,0.087,0.0011,0.0295,0.302,-0.4052,-3.4894,0.0234,-0.0065,-0.0013,0.024,3.489,34,13.505,0.0,0.0,0.0,0.03,ON,3.51
2026-03-26 19:00:56.142,PX4_0,False,0.518,-1.132,358.504,0.0986,0.0367,0.02,0.3227,-0.4359,-3.5051,-0.0044,-0.0383,0.0053,0.039,3.505,34,13.496,0.0,0.0,0.0,0.03,ON,3.5
2026-03-26 19:00:57.145,PX4_0,False,0.639,-1.365,358.254,0.0711,-0.0438,-0.0306,0.3087,-0.4687,-3.4952,-0.0087,-0.0332,0.0004,0.034,3.495,33,13.483,0.0,0.0,0.0,0.03,ON,3.47
2026-03-26 19:00:58.148,PX4_0,False,0.48,-1.677,358.486,0.1186,0.0723,0.0512,0.2564,-0.4694,-3.4825,0.0184,-0.0278,-0.0146,0.033,3.482,33,13.475,0.0,0.0,0.0,0.03,ON,3.46
2026-03-26 19:00:59.152,PX4_0,False,0.301,-1.868,358.361,-0.0852,-0.058,-0.0419,0.2398,-0.4801,-3.478,0.0562,-0.0229,-0.0219,0.061,3.478,33,13.467,0.0,0.0,0.0,0.03,ON,3.47
2026-03-26 19:01:00.156,PX4_0,False,0.546,-1.471,358.572,-0.0798,-0.014,-0.0104,0.2818,-0.5158,-3.4974,0.0873,-0.0284,-0.0145,0.092,3.497,33,13.453,0.0,0.0,0.0,0.03,ON,3.51
2026-03-26 19:01:01.159,PX4_0,False,0.426,-0.906,358.939,-0.0363,0.0504,-0.0132,0,0,0,0,0,0,0.0,0,33,13.449,0.0,0.0,0.0,0.03,ON,3.52
2026-03-26 19:01:02.165,OFFBOARD,True,0.499,-0.967,358.502,-0.0266,0.0079,-0.0239,0.3785,-0.5492,-3.5182,0.0113,-0.0009,0.0199,0.011,3.518,32,13.439,0.0,0.0,0.0,0.03,ON,3.52
2026-03-26 19:01:03.168,PX4_0,False,0.632,-1.559,358.39,0.0914,-0.046,-0.0039,0.3562,-0.5734,-3.505,-0.0325,-0.0187,0.0107,0.037,3.505,32,13.421,0.0,0.0,0.0,0.03,ON,3.49
2026-03-26 19:01:04.170,PX4_0,False,0.944,-1.095,358.097,0.016,-0.0188,0.0069,0.3657,-0.6221,-3.4952,-0.0044,0.0224,-0.0054,0.023,3.495,32,13.417,0.0,0.0,0.0,0.03,ON,3.5
2026-03-26 19:01:05.176,PX4_0,False,0.166,-0.825,358.481,-0.0108,0.019,0.0267,0.4049,-0.5742,-3.507,-0.0323,0.0204,0.0066,0.038,3.507,32,13.409,0.0,0.0,0.0,0.03,ON,3.5
2026-03-26 19:01:06.179,PX4_0,False,0.062,-1.015,358.447,-0.0641,-0.0328,-0.0419,0.4055,-0.5563,-3.4946,-0.0524,-0.0373,0.0105,0.064,3.495,32,13.399,0.0,0.0,0.0,0.03,ON,3.47
2026-03-26 19:01:07.182,PX4_0,False,0.289,-0.925,358.803,-0.0334,-0.0444,-0.02,0.4204,-0.5887,-3.4828,-0.0646,-0.0636,-0.007,0.091,3.483,31,13.395,0.0,0.0,0.0,0.03,ON,3.48
2026-03-26 19:01:08.187,PX4_0,False,0.381,-0.646,358.432,0.0153,0.0771,-0.0,0.4688,-0.622,-3.49,-0.1137,-0.0587,-0.0046,0.128,3.49,31,13.373,0.0,0.0,0.0,0.03,ON,3.5
2026-03-26 19:01:09.193,PX4_0,False,0.702,-0.945,359.318,0.054,0.0455,0.025,0.4384,-0.6652,-3.4913,-0.1558,-0.0362,-0.0068,0.16,3.491,31,13.366,0.0,0.0,0.0,0.03,ON,3.49
2026-03-26 19:01:10.196,PX4_0,False,0.704,-1.251,359.496,0.0242,-0.0217,0.0156,0.3933,-0.6963,-3.4961,-0.1006,-0.0101,-0.0014,0.101,3.496,31,13.359,0.0,0.0,0.0,0.03,ON,3.48
2026-03-26 19:01:11.203,PX4_0,False,0.216,-1.102,359.741,0.0086,-0.0637,0.0026,0.3994,-0.6803,-3.4954,-0.0839,0.0129,-0.0049,0.085,3.495,31,13.361,0.0,0.0,0.0,0.03,ON,3.49
2026-03-26 19:01:12.208,PX4_0,False,0.172,-1.126,359.607,-0.0244,-0.059,-0.0314,0.399,-0.6623,-3.4981,-0.0973,-0.0076,-0.0035,0.098,3.498,31,13.356,0.0,0.0,0.0,0.03,ON,3.49
2026-03-26 19:01:13.210,PX4_0,False,0.809,-0.673,359.66,-0.0899,-0.0903,-0.0109,0.421,-0.7391,-3.4941,-0.1223,-0.0362,-0.0096,0.128,3.494,31,13.35,0.0,0.0,0.0,0.03,ON,3.48
2026-03-26 19:01:14.213,PX4_0,False,0.753,-1.306,359.754,-0.0333,0.0413,0.0048,0.3841,-0.7653,-3.4992,-0.1255,0.0068,0.0029,0.126,3.499,30,13.346,0.0,0.0,0.0,0.03,ON,3.49
2026-03-26 19:01:15.216,PX4_0,False,0.426,-1.798,359.262,0.057,0.0174,0.0064,0.3229,-0.741,-3.4912,-0.0891,0.0127,0.0031,0.09,3.491,30,13.336,0.0,0.0,0.0,0.03,ON,3.48
2026-03-26 19:01:16.221,PX4_0,False,0.166,-1.431,359.459,0.0321,0.0959,0.059,0.3154,-0.7269,-3.4939,-0.004,-0.0061,-0.0139,0.007,3.494,30,13.326,0.0,0.0,0.0,0.03,ON,3.49
2026-03-26 19:01:17.224,PX4_0,False,-0.057,-0.808,359.775,-0.0649,-0.0029,-0.0468,0.3768,-0.7117,-3.4942,-0.0088,-0.0493,0.0012,0.05,3.494,30,13.313,0.0,0.0,0.0,0.03,ON,3.5
2026-03-26 19:01:18.226,PX4_0,False,0.803,-1.197,359.278,-0.0042,-0.0123,0.0167,0.3943,-0.7905,-3.493,-0.0764,-0.0643,0.0073,0.1,3.493,30,13.304,0.0,0.0,0.0,0.03,ON,3.47
2026-03-26 19:01:19.228,PX4_0,False,0.993,-1.662,0.13,-0.046,-0.0853,-0.0081,0.3466,-0.859,-3.4786,-0.0522,0.02,-0.0149,0.056,3.479,29,13.287,0.0,0.0,0.0,0.03,ON,3.47
2026-03-26 19:01:20.232,PX4_0,False,0.483,-2.02,359.922,-0.0743,0.0653,0.0052,0.2951,-0.8466,-3.4848,0.005,0.0396,-0.0129,0.04,3.485,29,13.282,0.0,0.0,0.0,0.03,ON,3.47
2026-03-26 19:01:21.234,PX4_0,False,0.097,-1.44,359.733,0.0895,0.0606,0.0085,0.32,-0.7978,-3.4931,0.0488,-0.0033,-0.014,0.049,3.493,29,13.276,0.0,0.0,0.0,0.03,ON,3.5
2026-03-26 19:01:22.238,PX4_0,False,0.469,-1.067,359.964,0.0247,-0.0703,0.0285,0.3897,-0.8187,-3.5045,0.0143,-0.0639,-0.007,0.065,3.505,29,13.271,0.0,0.0,0.0,0.03,ON,3.51
2026-03-26 19:01:23.240,PX4_0,False,0.86,-1.072,0.382,0.0573,0.0208,0.0138,0.428,-0.8517,-3.5108,-0.0465,-0.0423,-0.0065,0.063,3.511,29,13.275,0.0,0.0,0.0,0.03,ON,3.51
2026-03-26 19:01:24.242,PX4_0,False,1.097,-1.016,0.656,-0.0114,0.094,0.0052,0.4229,-0.9039,-3.501,-0.064,0.0029,0.0078,0.064,3.501,29,13.266,0.0,0.0,0.0,0.03,ON,3.49
2026-03-26 19:01:25.244,OFFBOARD,True,0.702,-1.606,0.638,-0.0479,0.033,0.0012,0.3866,-0.9014,-3.4866,-0.0471,0.0379,0.001,0.06,3.487,29,13.253,0.0,0.0,0.0,0.03,ON,3.47
2026-03-26 19:01:26.247,OFFBOARD,True,0.478,-1.637,0.63,-0.0022,0.0641,0.0035,0.3625,-0.873,-3.4854,-0.0064,0.0161,-0.0197,0.017,3.485,28,13.251,0.0,0.0,0.0,0.03,ON,3.49
2026-03-26 19:01:27.251,PX4_0,False,0.219,-1.456,359.943,0.0375,-0.0599,-0.002,0.369,-0.8272,-3.5017,0.0081,-0.0623,-0.0063,0.063,3.502,29,13.253,0.0,0.0,0.0,0.03,ON,3.5
2026-03-26 19:01:28.254,PX4_0,False,0.778,-1.329,0.049,0.0294,-0.0584,-0.0127,0.3985,-0.8994,-3.4951,-0.0028,-0.0534,0.0016,0.053,3.495,28,13.246,0.0,0.0,0.0,0.03,ON,3.49
2026-03-26 19:01:29.257,PX4_0,False,0.0,0.0,0.0,0,0,0,0.4176,-0.9229,-3.4926,-0.018,-0.0275,-0.0073,0.033,3.493,28,13.237,0.0,0.0,0.0,0.03,ON,3.49
2026-03-26 19:01:30.260,PX4_0,False,0.0,0.0,0.0,0,0,0,0.4113,-0.9117,-3.4936,-0.031,-0.0168,0.0064,0.035,3.494,28,13.23,0.0,0.0,0.0,0.03,ON,3.49
2026-03-26 19:01:31.262,PX4_0,False,0.526,-1.367,0.15,-0.0115,-0.0085,-0.0019,0.4271,-0.9428,-3.4913,-0.0301,-0.0401,-0.0021,0.05,3.491,28,13.219,0.0,0.0,0.0,0.03,ON,3.5
2026-03-26 19:01:32.268,PX4_0,False,0.696,-1.189,0.163,-0.0085,0.0012,-0.0185,0.4569,-0.9717,-3.4979,-0.038,-0.0526,0.005,0.065,3.498,28,13.211,0.0,0.0,0.0,0.03,ON,3.5
2026-03-26 19:01:33.273,OFFBOARD,True,0.778,-1.607,359.445,-0.0608,0.0452,0.0012,0.4336,-1.0041,-3.4987,-0.0619,-0.0288,-0.003,0.068,3.499,28,13.205,0.0,0.0,0.0,0.03,ON,3.49
2026-03-26 19:01:34.275,PX4_0,False,0.397,-1.695,359.391,-0.0285,-0.0717,-0.0314,0.4109,-1.0072,-3.4857,-0.0194,-0.03,-0.0099,0.036,3.486,28,13.205,0.0,0.0,0.0,0.03,ON,3.48
2026-03-26 19:01:35.278,OFFBOARD,True,0.285,-1.673,359.741,0.0099,-0.067,-0.0049,0.4123,-1.0101,-3.4953,0.0064,-0.0434,-0.0101,0.044,3.495,27,13.183,0.0,0.0,0.0,0.03,ON,3.5
2026-03-26 19:01:36.281,PX4_0,False,0.374,-1.618,0.027,0.0563,-0.0031,0.0207,0.4152,-1.0194,-3.4965,0.0073,-0.0697,-0.0005,0.07,3.497,27,13.184,0.0,0.0,0.0,0.03,ON,3.49
2026-03-26 19:01:37.286,PX4_0,False,0.862,-1.66,0.618,0.0307,-0.0369,-0.0126,0.4085,-1.0686,-3.4977,0.0253,-0.0645,-0.0021,0.069,3.498,27,13.178,0.0,0.0,0.0,0.03,ON,3.49
2026-03-26 19:01:38.289,PX4_0,False,0.329,-1.821,0.665,-0.0887,0.0665,0.0216,0.3871,-1.0895,-3.4893,0.0367,-0.014,-0.0095,0.039,3.489,27,13.171,0.0,0.0,0.0,0.03,ON,3.48
2026-03-26 19:01:39.294,PX4_0,False,0.412,-1.732,1.222,-0.0188,0.0316,-0.0046,0.4003,-1.0951,-3.486,0.0711,-0.0511,-0.0092,0.088,3.486,27,13.165,0.0,0.0,0.0,0.03,ON,3.48
2026-03-26 19:01:40.306,PX4_0,False,0.553,-1.285,1.69,-0.0258,0.0094,-0.0091,0.4568,-1.1157,-3.4868,0.0593,-0.0555,-0.0133,0.081,3.487,27,13.157,0.0,0.0,0.0,0.03,ON,3.47
2026-03-26 19:01:41.309,PX4_0,False,0.495,-1.196,1.312,0.0187,-0.0536,-0.0189,0.5112,-1.1285,-3.4829,0.0073,-0.0407,-0.0135,0.041,3.483,26,13.153,0.0,0.0,0.0,0.03,ON,3.47
2026-03-26 19:01:42.316,PX4_0,False,0.542,-1.716,1.247,0.0861,-0.0187,0.0147,0.5008,-1.1533,-3.4852,-0.0356,-0.0502,-0.0064,0.062,3.485,26,13.147,0.0,0.0,0.0,0.03,ON,3.47
2026-03-26 19:01:43.324,PX4_0,False,0.553,-1.68,1.056,0.0505,0.0393,0.022,0.4894,-1.1765,-3.486,0.0001,-0.0279,-0.0114,0.028,3.486,26,13.15,0.0,0.0,0.0,0.03,ON,3.49
2026-03-26 19:01:44.327,PX4_0,False,0.596,-1.476,0.6,0.0189,-0.0557,-0.0117,0.5115,-1.1915,-3.4943,0.001,-0.0319,0.0026,0.032,3.494,26,13.138,0.0,0.0,0.0,0.03,ON,3.49
2026-03-26 19:01:45.335,PX4_0,False,0.356,-1.06,0.304,0.0237,-0.0779,-0.0066,0.56,-1.1648,-3.5036,-0.0223,0.0052,0.0022,0.023,3.504,26,13.133,0.0,0.0,0.0,0.03,ON,3.49
2026-03-26 19:01:46.337,PX4_0,False,0.044,-1.404,0.29,-0.101,0.0415,0.0161,0.5495,-1.1493,-3.4994,-0.0493,-0.0259,0.0066,0.056,3.499,26,13.127,0.0,0.0,0.0,0.03,ON,3.48
2026-03-26 19:01:47.343,PX4_0,False,0.0,0.0,0.0,0,0,0,0.5299,-1.1685,-3.4768,-0.0211,-0.0759,-0.0083,0.079,3.477,26,13.118,0.0,0.0,0.0,0.03,ON,3.46
2026-03-26 19:01:48.346,PX4_0,False,0.436,-1.45,1.162,0.0233,0.0967,0.0289,0.5431,-1.2153,-3.4774,-0.028,-0.0604,-0.0181,0.067,3.477,25,13.103,0.0,0.0,0.0,0.03,ON,3.48
2026-03-26 19:01:49.349,OFFBOARD,True,0.543,-1.153,1.358,0.005,0.1158,0.0122,0.5703,-1.256,-3.4913,-0.0389,-0.0491,-0.0111,0.063,3.491,25,13.098,0.0,0.0,0.0,0.03,ON,3.49
2026-03-26 19:01:50.353,PX4_0,False,0.753,-0.809,0.929,0.0294,-0.0959,-0.0241,0.6163,-1.3043,-3.4912,-0.0734,-0.0135,-0.0,0.075,3.491,25,13.089,0.0,0.0,0.0,0.03,ON,3.49
2026-03-26 19:01:51.360,PX4_0,False,0.639,-1.677,1.391,0.0837,0.0529,0.0317,0.5418,-1.3226,-3.49,-0.0987,0.0177,-0.0006,0.1,3.49,25,13.101,0.0,0.0,0.0,0.03,ON,3.47
2026-03-26 19:01:52.362,OFFBOARD,True,0.158,-1.577,1.05,-0.001,0.0855,0.0206,0.5079,-1.2914,-3.4792,-0.0246,0.0084,0.0042,0.026,3.479,25,13.077,0.0,0.0,0.0,0.03,ON,3.49
2026-03-26 19:01:53.371,OFFBOARD,True,0.508,-0.957,1.19,-0.0094,0.0632,0.0151,0.5578,-1.3056,-3.5028,-0.0321,-0.0404,-0.001,0.052,3.503,25,13.07,0.0,0.0,0.0,0.03,ON,3.51
2026-03-26 19:01:54.372,OFFBOARD,True,0.6,-1.501,1.123,-0.0382,0.0766,-0.0052,0.5429,-1.3219,-3.5095,-0.0676,-0.0485,0.0226,0.083,3.51,24,13.055,0.0,0.0,0.0,0.03,ON,3.5
2026-03-26 19:01:55.375,PX4_0,False,0.88,-1.38,0.704,-0.036,0.0244,0.0013,0.5223,-1.3669,-3.495,-0.0313,-0.03,-0.0103,0.043,3.495,24,13.047,0.0,0.0,0.0,0.03,ON,3.49
2026-03-26 19:01:56.378,OFFBOARD,True,0.418,-1.683,1.394,-0.0008,-0.0533,-0.0284,0.5035,-1.3452,-3.4972,-0.0062,-0.0221,-0.0011,0.023,3.497,24,13.041,0.0,0.0,0.0,0.03,ON,3.49
2026-03-26 19:01:57.381,OFFBOARD,True,0.545,-1.329,1.041,0.0194,0.0572,0.0083,0.5039,-1.3531,-3.4991,0.0151,-0.0557,-0.0043,0.058,3.499,24,13.047,0.0,0.0,0.0,0.03,ON,3.5
2026-03-26 19:01:58.387,OFFBOARD,True,0.687,-1.29,0.626,0.0126,-0.1099,-0.0096,0.5349,-1.3857,-3.5021,0.0005,-0.0493,-0.0045,0.049,3.502,24,13.051,0.0,0.0,0.0,0.03,ON,3.5
2026-03-26 19:01:59.389,PX4_0,False,0.189,-1.81,0.807,0.0196,0.0582,0.0364,0.4791,-1.3767,-3.4975,-0.0124,-0.0332,0.004,0.035,3.498,24,13.038,0.0,0.0,0.0,0.03,ON,3.5
2026-03-26 19:02:00.391,PX4_0,False,0.304,-1.861,1.423,0.014,-0.0763,-0.0334,0.4543,-1.389,-3.4979,0.0529,-0.0622,-0.012,0.082,3.498,24,13.029,0.0,0.0,0.0,0.03,ON,3.51
2026-03-26 19:02:01.395,OFFBOARD,True,0.617,-1.641,1.426,-0.0156,-0.0889,-0.0533,0.4735,-1.4438,-3.5204,0.058,-0.0391,0.0114,0.07,3.52,24,13.028,0.0,0.0,0.0,0.03,ON,3.53
2026-03-26 19:02:02.401,OFFBOARD,True,0.684,-1.553,0.773,-0.0578,-0.0558,-0.0293,0.5059,-1.4676,-3.513,0.0573,-0.0273,0.0168,0.063,3.513,24,13.017,0.0,0.0,0.0,0.03,ON,3.5
2026-03-26 19:02:03.404,OFFBOARD,True,0.274,-1.312,1.221,-0.0278,0.0493,-0.0,0.5396,-1.4553,-3.5054,0.0381,-0.0351,0.0075,0.052,3.505,24,13.015,0.0,0.0,0.0,0.03,ON,3.5
2026-03-26 19:02:04.406,PX4_0,False,0.536,-1.236,1.096,0.0619,0.0128,-0.0028,0.5452,-1.4772,-3.4982,0.0143,-0.0687,-0.0019,0.07,3.498,24,13.012,0.0,0.0,0.0,0.03,ON,3.49
2026-03-26 19:02:05.410,OFFBOARD,True,0.895,-1.521,1.024,0.0847,-0.1054,-0.0222,0.5298,-1.5219,-3.4879,0.0147,-0.0524,-0.0016,0.054,3.488,23,13.003,0.0,0.0,0.0,0.03,ON,3.48
2026-03-26 19:02:06.415,OFFBOARD,True,0.612,-1.475,0.742,0.0308,0.0218,0.0276,0.5266,-1.5341,-3.483,0.0255,-0.0068,-0.0048,0.026,3.483,23,12.997,0.0,0.0,0.0,0.03,ON,3.48
2026-03-26 19:02:07.423,PX4_0,False,0.309,-1.175,0.513,0.0531,0.1256,0.0241,0.5644,-1.5052,-3.4975,0.0341,-0.0546,-0.0044,0.064,3.498,23,12.984,0.0,0.0,0.0,0.03,ON,3.5
2026-03-26 19:02:08.428,OFFBOARD,True,0.843,-0.943,1.274,-0.0468,0.1078,0.0229,0.6029,-1.5499,-3.5014,-0.0198,-0.0655,0.0102,0.068,3.501,23,12.98,0.0,0.0,0.0,0.03,ON,3.5
2026-03-26 19:02:09.434,OFFBOARD,True,0.783,-1.203,1.509,0.0402,0.0235,0.0293,0.5895,-1.5689,-3.4932,-0.0578,-0.01,-0.001,0.059,3.493,23,12.973,0.0,0.0,0.0,0.03,ON,3.47
2026-03-26 19:02:10.440,OFFBOARD,True,0.619,-1.868,2.132,-0.0107,-0.0597,-0.0249,0.529,-1.5722,-3.4808,-0.0221,-0.0181,-0.0163,0.029,3.481,23,12.969,0.0,0.0,0.0,0.03,ON,3.46
2026-03-26 19:02:11.444,OFFBOARD,True,0.703,-1.313,1.789,0.0835,0.0433,0.0178,0.5649,-1.5831,-3.4925,0.0226,-0.0266,-0.0271,0.035,3.493,23,12.967,0.0,0.0,0.0,0.03,ON,3.5
2026-03-26 19:02:12.446,OFFBOARD,True,0.711,-0.693,1.465,-0.0106,-0.0398,0.0055,0.6244,-1.5894,-3.5075,-0.0316,-0.02,-0.005,0.037,3.507,23,12.971,0.0,0.0,0.0,0.03,ON,3.5
2026-03-26 19:02:13.450,OFFBOARD,True,0.525,-1.307,0.953,-0.0291,0.0678,0.0229,0.5966,-1.5892,-3.5026,-0.0758,-0.0114,0.0087,0.077,3.503,23,12.973,0.0,0.0,0.0,0.03,ON,3.48
2026-03-26 19:02:14.455,OFFBOARD,True,0.654,-1.586,1.137,-0.0822,-0.0355,-0.0229,0.5608,-1.601,-3.4839,-0.0379,-0.0337,-0.0069,0.051,3.484,22,12.953,0.0,0.0,0.0,0.03,ON,3.47
2026-03-26 19:02:15.458,OFFBOARD,True,0.685,-1.258,1.504,-0.0454,0.014,-0.0002,0.5619,-1.6243,-3.4894,-0.02,-0.028,-0.0096,0.034,3.489,22,12.939,0.0,0.0,0.0,0.03,ON,3.48
2026-03-26 19:02:16.460,OFFBOARD,True,0.377,-1.501,1.649,-0.0563,0.0548,0.0108,0.5619,-1.6243,-3.4894,-0.02,-0.028,-0.0096,0.034,3.489,22,12.924,0.0,0.0,0.0,0.03,ON,3.49
2026-03-26 19:02:17.466,OFFBOARD,True,0.348,-1.265,1.171,-0.0577,-0.0999,-0.0337,0.5291,-1.6164,-3.4995,0.0456,-0.0471,-0.0076,0.066,3.499,22,12.928,0.0,0.0,0.0,0.03,ON,3.5
2026-03-26 19:02:18.468,OFFBOARD,True,0.41,-1.449,1.027,0.03,0.0673,0.0226,0.5533,-1.623,-3.5067,0.0259,-0.0652,0.0042,0.07,3.507,22,12.932,0.0,0.0,0.0,0.03,ON,3.51
2026-03-26 19:02:19.475,OFFBOARD,True,0.148,-1.161,1.346,-0.1094,0.018,0.003,0.5911,-1.6249,-3.5116,0.0029,-0.0644,0.0153,0.064,3.512,22,12.933,0.0,0.0,0.0,0.03,ON,3.49
2026-03-26 19:02:20.477,PX4_0,False,0.57,-1.203,1.372,-0.0264,0.0736,-0.0087,0.6057,-1.6495,-3.5018,-0.0113,-0.1133,0.0032,0.114,3.502,22,12.929,0.0,0.0,0.0,0.03,ON,3.47
2026-03-26 19:02:21.479,OFFBOARD,True,0.871,-1.04,1.147,-0.0255,0.0189,0.0,0.6356,-1.7389,-3.4725,-0.0689,-0.0605,-0.0124,0.092,3.473,21,12.893,0.0,0.0,0.0,0.03,ON,3.45
2026-03-26 19:02:22.481,OFFBOARD,True,0.914,-1.324,1.312,-0.0648,-0.1078,-0.0295,0.6184,-1.7599,-3.4787,-0.0819,-0.0249,-0.0158,0.086,3.479,21,12.895,0.0,0.0,0.0,0.03,ON,3.47
2026-03-26 19:02:23.483,OFFBOARD,True,0.637,-1.673,1.496,-0.0639,-0.0169,-0.0104,0.579,-1.7611,-3.4874,-0.0496,-0.0128,-0.0121,0.051,3.487,21,12.889,0.0,0.0,0.0,0.03,ON,3.48
2026-03-26 19:02:24.487,OFFBOARD,True,0.526,-1.443,2.098,0.0402,-0.0219,0.0353,0.565,-1.755,-3.4911,-0.0184,-0.0132,-0.0095,0.023,3.491,21,12.886,0.0,0.0,0.0,0.03,ON,3.5
2026-03-26 19:02:25.490,OFFBOARD,True,0.32,-1.546,1.334,0.0293,0.1001,0.0173,0.5676,-1.7551,-3.5019,-0.0027,-0.0213,-0.0043,0.021,3.502,21,12.901,0.0,0.0,0.0,0.03,ON,3.5
2026-03-26 19:02:26.492,OFFBOARD,True,0.625,-1.312,1.824,0.0437,0.047,0.0418,0.5903,-1.8031,-3.5008,-0.0015,-0.0225,-0.0002,0.023,3.501,21,12.885,0.0,0.0,0.0,0.03,ON,3.5
2026-03-26 19:02:27.498,OFFBOARD,True,0.939,-1.122,1.888,0.0636,0.0759,0.0124,0.5941,-1.8175,-3.4986,-0.0052,-0.0249,-0.0027,0.025,3.499,21,12.883,0.0,0.0,0.0,0.03,ON,3.49
2026-03-26 19:02:28.502,OFFBOARD,True,0.687,-1.419,1.505,0.0086,-0.0125,-0.0079,0.5939,-1.8448,-3.4928,-0.0222,-0.0016,-0.0012,0.022,3.493,21,12.873,0.0,0.0,0.0,0.03,ON,3.49
2026-03-26 19:02:29.504,OFFBOARD,True,0.527,-1.442,1.357,-0.0186,0.0417,0.0246,0.5762,-1.841,-3.4899,-0.006,0.0073,0.0019,0.009,3.49,21,12.871,0.0,0.0,0.0,0.03,ON,3.49
2026-03-26 19:02:30.510,PX4_0,False,0.238,-1.604,1.688,-0.0429,0.0134,-0.0166,0.5725,-1.8236,-3.4966,0.0128,-0.0144,-0.0064,0.019,3.497,20,12.862,0.0,0.0,0.0,0.03,ON,3.5
2026-03-26 19:02:31.512,OFFBOARD,True,0.186,-1.388,1.736,0.0513,-0.0673,0.0009,0.5822,-1.8143,-3.5096,0.0203,-0.0605,-0.0017,0.064,3.51,21,12.868,0.0,0.0,0.0,0.03,ON,3.51
2026-03-26 19:02:32.514,OFFBOARD,True,0.858,-1.455,1.349,-0.0325,0.0113,0.0186,0.5915,-1.88,-3.5021,0.0078,-0.0521,0.0075,0.053,3.502,20,12.858,0.0,0.0,0.0,0.03,ON,3.5
2026-03-26 19:02:33.517,OFFBOARD,True,0.754,-1.341,1.666,-0.0102,-0.0569,-0.0127,0.5962,-1.9054,-3.4954,0.0252,-0.0309,-0.0024,0.04,3.495,20,12.845,0.0,0.0,0.0,0.03,ON,3.49
2026-03-26 19:02:34.523,OFFBOARD,True,0.067,-1.337,1.569,0.0135,-0.0713,-0.0047,0.6119,-1.8692,-3.4779,0.0136,-0.0173,-0.0024,0.022,3.478,20,12.826,0.0,0.0,0.0,0.03,ON,3.46
2026-03-26 19:02:35.527,OFFBOARD,True,0.498,-1.231,2.072,0.0428,-0.0631,-0.003,0.6446,-1.8957,-3.4713,-0.0018,-0.0551,-0.0231,0.055,3.471,20,12.819,0.0,0.0,0.0,0.03,ON,3.45
2026-03-26 19:02:36.530,OFFBOARD,True,0.975,-1.21,2.239,0.0087,0.0455,0.0092,0.6479,-1.9607,-3.4829,-0.0281,-0.0454,-0.0301,0.053,3.483,20,12.818,0.0,0.0,0.0,0.03,ON,3.47
2026-03-26 19:02:37.534,OFFBOARD,True,0.512,-1.422,2.488,-0.0299,0.1251,0.0125,0.6348,-1.9514,-3.4761,-0.0047,0.0016,-0.0127,0.005,3.476,20,12.822,0.0,0.0,0.0,0.03,ON,3.46
2026-03-26 19:02:38.537,OFFBOARD,True,0.0,0.0,0.0,0,0,0,0.6335,-1.933,-3.4693,0.0024,-0.0045,-0.0054,0.005,3.469,20,12.818,0.0,0.0,0.0,0.03,ON,3.45
2026-03-26 19:02:39.542,OFFBOARD,True,0.0,0.0,0.0,0,0,0,0.6551,-1.9247,-3.4848,0.0069,-0.1004,-0.0327,0.101,3.485,19,12.809,0.0,0.0,0.0,0.03,ON,3.49
2026-03-26 19:02:40.545,OFFBOARD,True,0.958,-1.28,1.514,0.0202,-0.0051,-0.0147,0.6636,-2.0093,-3.4968,-0.0287,-0.0451,0.0045,0.053,3.497,19,12.802,0.0,0.0,0.0,0.03,ON,3.49
2026-03-26 19:02:41.549,OFFBOARD,True,0.635,-1.467,1.452,0.0283,-0.0502,-0.0033,0.6589,-2.0194,-3.4946,-0.0332,0.012,-0.0071,0.035,3.495,19,12.795,0.0,0.0,0.0,0.03,ON,3.48
2026-03-26 19:02:42.554,OFFBOARD,True,0.116,-1.524,2.162,0.0125,-0.0726,0.006,0.6351,-1.9889,-3.4929,-0.0088,0.0063,-0.0188,0.011,3.493,19,12.791,0.0,0.0,0.0,0.03,ON,3.49
2026-03-26 19:02:43.559,OFFBOARD,True,0.329,-1.084,1.77,-0.023,-0.0673,-0.0181,0.6789,-1.994,-3.5013,-0.0039,-0.0426,-0.0128,0.043,3.501,19,12.794,0.0,0.0,0.0,0.03,ON,3.51
2026-03-26 19:02:44.562,OFFBOARD,True,0.977,-1.412,2.01,-0.016,0.0717,0.0102,0.6705,-2.0735,-3.5013,-0.0545,-0.0302,0.0076,0.062,3.501,19,12.786,0.0,0.0,0.0,0.03,ON,3.5
2026-03-26 19:02:45.566,OFFBOARD,True,0.619,-1.827,2.328,0.0144,-0.0204,0.0105,0.6445,-2.0819,-3.4914,-0.0321,0.0155,-0.0076,0.036,3.491,19,12.785,0.0,0.0,0.0,0.03,ON,3.48
2026-03-26 19:02:46.569,OFFBOARD,True,0.051,-1.588,2.207,0.0205,-0.0003,0.0199,0.6556,-2.0535,-3.4931,-0.0022,0.0016,-0.006,0.003,3.493,19,12.781,0.0,0.0,0.0,0.03,ON,0.0
2026-03-26 19:02:47.574,PX4_0,False,0.61,-1.248,2.342,-0.0074,0.0377,0.0005,0.6626,-2.0817,-3.498,-0.0214,-0.0185,0.0041,0.028,3.498,19,12.784,0.0,0.0,0.0,0.03,ON,3.49
2026-03-26 19:02:48.578,OFFBOARD,True,0.672,-1.398,2.001,0.0636,0.0141,-0.0059,0.6624,-2.1091,-3.4937,-0.0136,-0.0062,0.0005,0.015,3.494,19,12.775,0.0,0.0,0.0,0.03,ON,3.48
2026-03-26 19:02:49.583,OFFBOARD,True,0.542,-1.664,1.746,0.094,0.03,0.0191,0.6456,-2.1102,-3.4896,-0.014,-0.009,0.0003,0.017,3.49,19,12.773,0.0,0.0,0.0,0.03,ON,3.49
2026-03-26 19:02:50.601,OFFBOARD,True,0.896,-1.688,1.642,0.0186,-0.0512,0.0006,0.6302,-2.1248,-3.5017,0.0294,-0.0081,-0.0146,0.03,3.502,19,12.775,0.0,0.0,0.0,0.03,ON,3.51
2026-03-26 19:02:51.617,PX4_0,False,0.695,-1.496,1.371,-0.0185,0.0639,-0.0022,0.6283,-2.1273,-3.5089,0.0306,0.0076,0.0055,0.032,3.509,19,12.776,0.0,0.0,0.0,0.03,ON,0.0
2026-03-26 19:02:52.626,PX4_0,False,0.588,-1.461,1.596,-0.0595,0.0338,0.0022,0.6473,-2.119,-3.5183,0.0469,0.0015,0.0107,0.047,3.518,19,12.77,0.0,0.0,0.0,0.03,ON,3.53
2026-03-26 19:02:53.632,OFFBOARD,True,0.294,-1.871,1.821,-0.0428,0.0957,0.0176,0.6253,-2.0939,-3.5029,0.0579,-0.0793,0.0055,0.098,3.503,18,12.767,0.0,0.0,0.0,0.03,ON,3.49
2026-03-26 19:02:54.636,OFFBOARD,True,0.898,-1.557,1.935,-0.006,0.0556,-0.0037,0.6386,-2.1531,-3.4894,0.0756,-0.0545,0.0073,0.093,3.489,18,12.755,0.0,0.0,0.0,0.03,ON,3.49
2026-03-26 19:02:55.640,PX4_0,False,0.777,-1.602,1.675,-0.0164,-0.0267,-0.0154,0.6614,-2.1781,-3.4998,0.0662,-0.0262,-0.0099,0.071,3.5,18,12.756,0.0,0.0,0.0,0.03,ON,3.51
2026-03-26 19:02:56.642,OFFBOARD,True,0.634,-1.336,1.756,-0.0519,-0.0246,-0.0155,0.6618,-2.1686,-3.5125,0.0445,-0.0144,0.008,0.047,3.513,18,12.759,0.0,0.0,0.0,0.03,ON,3.51
2026-03-26 19:02:57.644,OFFBOARD,True,0.713,-2.2,1.755,0.0203,-0.0514,0.0025,0.6154,-2.1742,-3.5037,0.0815,-0.0351,0.0034,0.089,3.504,18,12.748,0.0,0.0,0.0,0.03,ON,3.5
2026-03-26 19:02:58.645,OFFBOARD,True,0.527,-1.563,1.939,-0.0085,-0.0681,-0.0261,0.6635,-2.178,-3.4984,0.1157,-0.0263,-0.0138,0.119,3.498,18,12.739,0.0,0.0,0.0,0.03,ON,3.5
2026-03-26 19:02:59.647,OFFBOARD,True,0.288,-1.172,1.843,0.0641,-0.0708,-0.0076,0.7379,-2.1759,-3.5143,0.0498,-0.0501,-0.0024,0.071,3.514,18,12.734,0.0,0.0,0.0,0.03,ON,3.51
2026-03-26 19:03:00.657,PX4_0,False,0.742,-1.338,1.422,0.0058,0.0391,0.0318,0.7548,-2.2218,-3.5089,0.0171,-0.0591,0.0066,0.062,3.509,18,12.73,0.0,0.0,0.0,0.03,ON,3.49
2026-03-26 19:03:01.662,OFFBOARD,True,0.773,-1.33,2.576,0.0172,0.1094,0.0434,0.7405,-2.251,-3.4984,0.0046,-0.0077,-0.0078,0.009,3.498,18,12.728,0.0,0.0,0.0,0.03,ON,3.49
2026-03-26 19:03:02.664,OFFBOARD,True,0.663,-1.277,1.443,-0.06,-0.0347,-0.0163,0.7432,-2.2435,-3.4919,0.0014,-0.0068,-0.0053,0.007,3.492,18,12.722,0.0,0.0,0.0,0.03,ON,3.49
2026-03-26 19:03:03.668,OFFBOARD,True,0.5,-1.196,1.963,-0.0834,0.0548,0.0163,0.759,-2.2361,-3.493,-0.016,-0.0156,0.003,0.022,3.493,17,12.711,0.0,0.0,0.0,0.03,ON,3.48
2026-03-26 19:03:04.679,OFFBOARD,True,1.074,-1.211,2.292,0.0032,0.0783,-0.0021,0.7565,-2.252,-3.4886,-0.0292,-0.0498,0.007,0.058,3.489,17,12.703,0.0,0.0,0.0,0.03,ON,3.48
2026-03-26 19:03:05.683,OFFBOARD,True,0.773,-1.58,2.25,-0.0142,-0.0091,-0.0178,0.7405,-2.2642,-3.4833,-0.0041,-0.0255,-0.0208,0.026,3.483,17,12.703,0.0,0.0,0.0,0.03,ON,3.49
2026-03-26 19:03:06.686,OFFBOARD,True,0.972,-0.92,1.972,0.0467,0.0117,0.0459,0.7574,-2.2786,-3.4987,-0.0093,-0.0247,-0.0034,0.026,3.499,17,12.706,0.0,0.0,0.0,0.03,ON,3.51
2026-03-26 19:03:07.688,OFFBOARD,True,0.955,-1.115,2.366,0.0595,-0.0166,0.0145,0.7801,-2.2915,-3.5068,-0.0298,-0.0314,0.0015,0.043,3.507,17,12.698,0.0,0.0,0.0,0.03,ON,3.5
2026-03-26 19:03:08.690,OFFBOARD,True,0.712,-1.116,1.945,0.0628,-0.0523,-0.0149,0.8011,-2.2981,-3.506,-0.0669,-0.0081,0.0182,0.067,3.506,17,12.696,0.0,0.0,0.0,0.03,ON,3.51
2026-03-26 19:03:09.692,PX4_0,False,0.848,-1.64,1.501,0.0708,0.0999,0.0535,0.7558,-2.317,-3.4994,-0.0823,0.0098,0.0129,0.083,3.499,17,12.697,0.0,0.0,0.0,0.03,ON,3.48
2026-03-26 19:03:10.693,OFFBOARD,True,0.579,-1.56,2.154,0.0317,-0.0139,0.0105,0.7578,-2.3342,-3.4859,-0.0339,0.0198,-0.0028,0.039,3.486,17,12.686,0.0,0.0,0.0,0.03,ON,3.47
2026-03-26 19:03:11.695,OFFBOARD,True,1.215,-1.391,2.173,0.0116,0.0405,-0.0383,0.7673,-2.3509,-3.492,-0.03,-0.0133,-0.0083,0.033,3.492,17,12.681,0.0,0.0,0.0,0.03,ON,3.49
2026-03-26 19:03:12.698,PX4_0,False,0.821,-0.926,1.589,-0.0691,0.0546,0.006,0.8043,-2.3452,-3.4931,-0.0396,0.0094,0.0081,0.041,3.493,16,12.669,0.0,0.0,0.0,0.03,ON,3.49
2026-03-26 19:03:13.701,PX4_0,False,0.768,-1.269,1.613,-0.062,0.0617,0.0028,0.8008,-2.3396,-3.4915,-0.0859,-0.006,-0.0145,0.086,3.491,16,12.654,0.0,0.0,0.0,0.03,ON,3.48
2026-03-26 19:03:14.703,OFFBOARD,True,0.861,-1.26,2.343,-0.0497,0.0264,0.0237,0.7817,-2.3562,-3.4876,-0.0726,-0.0091,-0.0158,0.073,3.488,16,12.659,0.0,0.0,0.0,0.03,ON,3.46
2026-03-26 19:03:15.706,OFFBOARD,True,0.506,-1.562,2.123,-0.0022,0.016,0.0014,0.755,-2.3491,-3.4766,-0.0533,-0.0212,-0.0233,0.057,3.477,16,12.664,0.0,0.0,0.0,0.03,ON,3.46
2026-03-26 19:03:16.709,OFFBOARD,True,0.57,-1.24,1.794,0.0597,-0.0171,0.0098,0.7714,-2.352,-3.4767,-0.0333,-0.0377,-0.0144,0.05,3.477,16,12.655,0.0,0.0,0.0,0.03,ON,3.48
2026-03-26 19:03:17.711,OFFBOARD,True,0.723,-1.391,1.936,0.0533,-0.0878,-0.0012,0.7998,-2.3964,-3.5004,-0.0639,-0.042,0.0096,0.076,3.5,16,12.646,0.0,0.0,0.0,0.03,ON,3.5
2026-03-26 19:03:18.714,OFFBOARD,True,0.8,-1.353,2.147,-0.0526,0.0237,-0.0145,0.7992,-2.4304,-3.4978,-0.0705,-0.0182,0.0053,0.073,3.498,16,12.638,0.0,0.0,0.0,0.03,ON,3.5
2026-03-26 19:03:19.718,OFFBOARD,True,0.65,-1.224,2.05,-0.0401,-0.0296,0.0049,0.8047,-2.4462,-3.4963,-0.0634,0.0057,-0.0018,0.064,3.496,16,12.633,0.0,0.0,0.0,0.03,ON,3.49
2026-03-26 19:03:20.722,OFFBOARD,True,0.084,-1.102,2.232,-0.0784,-0.0582,-0.0415,0.8054,-2.4021,-3.4942,-0.0797,-0.0076,0.0013,0.08,3.494,16,12.626,0.0,0.0,0.0,0.03,ON,3.49
2026-03-26 19:03:21.725,OFFBOARD,True,0.404,-1.381,2.529,-0.0011,-0.0448,-0.0154,0.7839,-2.4287,-3.4994,-0.0796,-0.0855,-0.0047,0.117,3.499,16,12.634,0.0,0.0,0.0,0.03,ON,3.5
2026-03-26 19:03:22.727,OFFBOARD,True,0.835,-1.556,1.114,-0.07,0.0555,-0.0389,0.7563,-2.4836,-3.4925,-0.0395,-0.0612,-0.0018,0.073,3.493,16,12.623,0.0,0.0,0.0,0.03,ON,3.49
2026-03-26 19:03:23.728,OFFBOARD,True,0.846,-1.15,1.596,-0.0558,0.0413,0.0196,0.7962,-2.5003,-3.5061,-0.0297,-0.0384,-0.0156,0.049,3.506,16,12.627,0.0,0.0,0.0,0.03,ON,3.51
2026-03-26 19:03:24.730,OFFBOARD,True,0.919,-1.139,1.512,0.0571,-0.0224,0.0152,0.8037,-2.5133,-3.5103,-0.0605,-0.0323,0.0055,0.069,3.51,15,12.621,0.0,0.0,0.0,0.03,ON,3.52
2026-03-26 19:03:25.732,OFFBOARD,True,0.725,-1.515,1.95,-0.024,-0.012,0.0038,0.7684,-2.5251,-3.4933,-0.0619,0.0044,0.0147,0.062,3.493,15,12.607,0.0,0.0,0.0,0.03,ON,3.47
2026-03-26 19:03:26.734,OFFBOARD,True,0.338,-1.552,2.016,0.0446,0.0608,0.0427,0.7479,-2.5065,-3.4737,-0.0034,-0.0148,-0.0042,0.015,3.474,15,12.573,0.0,0.0,0.0,0.03,ON,3.48
2026-03-26 19:03:27.736,OFFBOARD,True,0.091,-1.699,2.39,0.0019,-0.0606,-0.0066,0.7448,-2.4936,-3.4886,0.0035,-0.0617,-0.0142,0.062,3.489,15,12.575,0.0,0.0,0.0,0.03,ON,3.5
2026-03-26 19:03:28.738,OFFBOARD,True,0.383,-1.765,2.517,-0.0228,-0.0054,0.0021,0.7499,-2.5189,-3.5025,0.0102,-0.1013,0.0067,0.102,3.502,15,12.589,0.0,0.0,0.0,0.03,ON,3.51
2026-03-26 19:03:29.744,OFFBOARD,True,0.652,-1.42,2.763,-0.0112,0.0876,0.0071,0.7958,-2.5811,-3.5103,0.0147,-0.0617,0.0036,0.063,3.51,15,12.585,0.0,0.0,0.0,0.03,ON,3.51
2026-03-26 19:03:30.747,OFFBOARD,True,0.373,-1.47,2.156,-0.0151,0.0824,0.0237,0.8199,-2.5775,-3.5097,0.0007,-0.0285,-0.001,0.029,3.51,15,12.577,0.0,0.0,0.0,0.03,ON,3.51
2026-03-26 19:03:31.750,OFFBOARD,True,0.025,-1.486,2.567,0.0037,-0.0548,-0.0407,0.819,-2.5684,-3.5138,-0.0079,-0.0427,-0.0025,0.043,3.514,14,12.574,0.0,0.0,0.0,0.03,ON,3.53
2026-03-26 19:03:32.752,OFFBOARD,True,0.608,-2.025,1.333,-0.0305,-0.025,0.0096,0.766,-2.6347,-3.5116,0.0275,-0.0568,0.0217,0.063,3.512,14,12.572,0.0,0.0,0.0,0.03,ON,3.51
2026-03-26 19:03:33.754,OFFBOARD,True,0.498,-1.858,2.713,0.0294,-0.1172,-0.02,0.7784,-2.6602,-3.5046,0.0636,-0.0155,0.0162,0.065,3.505,14,12.567,0.0,0.0,0.0,0.03,ON,3.51
2026-03-26 19:03:34.757,OFFBOARD,True,0.208,-1.479,2.761,0.0716,0.0844,0.0072,0.826,-2.6349,-3.5076,0.0601,-0.0225,0.0134,0.064,3.508,14,12.56,0.0,0.0,0.0,0.03,ON,3.51
2026-03-26 19:03:35.759,OFFBOARD,True,0.301,-1.433,3.019,0.0508,0.0603,0.0181,0.8839,-2.6493,-3.4978,0.0307,-0.0679,0.0024,0.075,3.498,14,12.56,0.0,0.0,0.0,0.03,ON,3.48
2026-03-26 19:03:36.761,OFFBOARD,True,0.493,-1.32,2.295,0.0198,0.0123,-0.0194,0.9076,-2.6855,-3.4889,-0.0036,-0.0539,-0.0092,0.054,3.489,14,12.564,0.0,0.0,0.0,0.03,ON,3.48
2026-03-26 19:03:37.763,OFFBOARD,True,0.459,-1.352,2.427,-0.0211,0.0692,0.0043,0.9025,-2.7126,-3.4946,-0.0344,-0.0486,-0.022,0.06,3.495,14,12.563,0.0,0.0,0.0,0.03,ON,3.48
2026-03-26 19:03:38.765,OFFBOARD,True,-0.002,-1.668,2.282,-0.0385,0.0094,-0.0102,0.8783,-2.6976,-3.4888,-0.015,-0.0124,-0.0104,0.019,3.489,14,12.543,0.0,0.0,0.0,0.03,ON,3.49
2026-03-26 19:03:39.768,OFFBOARD,True,0.031,-1.294,2.69,-0.0429,-0.0778,-0.022,0.9082,-2.7018,-3.4897,-0.0076,-0.0491,0.0068,0.05,3.49,14,12.539,0.0,0.0,0.0,0.03,ON,3.49
2026-03-26 19:03:40.773,PX4_0,False,0.338,-0.925,2.827,0.0606,0.1284,0.0268,0.9403,-2.7322,-3.5044,-0.0363,-0.0641,0.0027,0.074,3.504,14,12.546,0.0,0.0,0.0,0.03,ON,3.51
2026-03-26 19:03:41.776,OFFBOARD,True,0.35,-1.258,2.47,0.0147,-0.065,0.0213,0.9415,-2.7714,-3.5114,-0.0729,-0.0235,0.0076,0.077,3.511,14,12.544,0.0,0.0,0.0,0.03,ON,3.5
2026-03-26 19:03:42.781,OFFBOARD,True,0.333,-1.678,2.351,-0.0043,0.0881,0.0057,0.8985,-2.7901,-3.5018,-0.025,-0.0139,0.0121,0.029,3.502,14,12.545,0.0,0.0,0.0,0.03,ON,3.51
2026-03-26 19:03:43.783,PX4_0,False,0.363,-1.452,2.563,-0.0474,-0.0513,-0.0202,0.8908,-2.7951,-3.5014,-0.0015,-0.0392,0.0045,0.039,3.501,14,12.525,0.0,0.0,0.0,0.03,ON,3.5
2026-03-26 19:03:44.786,OFFBOARD,True,0.267,-1.242,2.066,-0.0821,-0.0102,-0.0565,0.9115,-2.7977,-3.5057,0.0078,-0.021,0.012,0.022,3.506,13,12.52,0.0,0.0,0.0,0.03,ON,3.52
2026-03-26 19:03:45.790,OFFBOARD,True,0.464,-1.047,1.965,-0.0242,-0.0537,-0.0197,0.9315,-2.8107,-3.517,-0.0135,-0.0418,0.0223,0.044,3.517,13,12.522,0.0,0.0,0.0,0.03,ON,3.53
2026-03-26 19:03:46.791,OFFBOARD,True,0.66,-0.982,2.692,0.0061,-0.0053,0.0019,0.9611,-2.841,-3.5147,-0.0396,-0.024,0.0293,0.046,3.515,13,12.509,0.0,0.0,0.0,0.03,ON,3.52
2026-03-26 19:03:47.793,PX4_0,False,0.374,-1.206,2.288,0.0557,-0.0563,0.0029,0.9494,-2.8374,-3.5071,-0.0488,-0.0139,0.0054,0.051,3.507,13,12.505,0.0,0.0,0.0,0.03,ON,3.5
2026-03-26 19:03:48.795,OFFBOARD,True,-0.165,-1.511,2.482,-0.0549,-0.1406,-0.0295,0.9171,-2.8205,-3.4988,-0.0468,-0.0153,0.0084,0.049,3.499,13,12.5,0.0,0.0,0.0,0.03,ON,3.49
2026-03-26 19:03:49.798,OFFBOARD,True,0.385,-1.626,2.949,0.0327,-0.0159,0.0239,0.9103,-2.8467,-3.4956,-0.0005,-0.0765,-0.0018,0.077,3.496,13,12.503,0.0,0.0,0.0,0.03,ON,3.49
2026-03-26 19:03:50.800,OFFBOARD,True,0.66,-1.338,2.939,-0.0514,-0.1192,-0.0532,0.9358,-2.8957,-3.506,-0.0075,-0.036,-0.0077,0.037,3.506,13,12.502,0.0,0.0,0.0,0.03,ON,3.51
2026-03-26 19:03:51.803,OFFBOARD,True,0.732,-1.631,2.613,-0.0663,0.1152,-0.0037,0.9359,-2.9212,-3.5204,-0.0075,-0.007,0.0035,0.01,3.52,13,12.497,0.0,0.0,0.0,0.03,ON,3.52
2026-03-26 19:03:52.808,OFFBOARD,True,0.343,-1.556,1.906,-0.0897,-0.0866,-0.0347,0.9285,-2.9076,-3.5086,-0.0061,0.0306,0.0132,0.031,3.509,13,12.504,0.0,0.0,0.0,0.03,ON,3.51
2026-03-26 19:03:53.810,OFFBOARD,True,0.195,-1.489,2.173,0.022,-0.0383,0.0015,0.9387,-2.887,-3.5058,0.0084,0.0054,0.0139,0.01,3.506,13,12.5,0.0,0.0,0.0,0.03,ON,3.51
2026-03-26 19:03:54.812,OFFBOARD,True,0.481,-1.296,2.483,0.0341,0.0457,0.0273,0.955,-2.9152,-3.5134,0.0099,-0.0135,0.0258,0.017,3.513,13,12.493,0.0,0.0,0.0,0.03,ON,3.52
2026-03-26 19:03:55.814,OFFBOARD,True,0.631,-1.309,2.313,-0.0354,-0.0451,-0.0314,0.962,-2.9316,-3.509,0.0013,-0.0103,0.0191,0.01,3.509,13,12.49,0.0,0.0,0.0,0.03,ON,3.49
2026-03-26 19:03:56.816,PX4_0,False,0.404,-1.61,2.628,0.0032,0.1239,0.043,0.9535,-2.936,-3.4944,-0.0067,0.0135,-0.007,0.015,3.494,12,12.471,0.0,0.0,0.0,0.03,ON,3.48
2026-03-26 19:03:57.819,PX4_0,False,0.242,-1.316,2.601,-0.0315,-0.0574,-0.0221,0.9646,-2.942,-3.4839,0.0019,0.0045,-0.0077,0.005,3.484,12,12.471,0.0,0.0,0.0,0.03,ON,3.48
2026-03-26 19:03:58.820,OFFBOARD,True,0.353,-1.125,2.556,-0.0302,0.0198,-0.0166,0.9995,-2.9429,-3.4952,-0.0099,-0.0131,0.0005,0.016,3.495,12,12.464,0.0,0.0,0.0,0.03,ON,3.5
2026-03-26 19:03:59.822,OFFBOARD,True,0.382,-1.279,2.351,-0.0563,0.0394,-0.0138,0.991,-2.9529,-3.4973,-0.0339,-0.0228,0.0049,0.041,3.497,12,12.461,0.0,0.0,0.0,0.03,ON,3.49
2026-03-26 19:04:00.823,PX4_0,False,0.377,-1.243,2.726,-0.0311,-0.0301,-0.0099,1.0017,-2.9781,-3.4902,-0.0202,-0.014,0.0002,0.025,3.49,12,12.459,0.0,0.0,0.0,0.03,ON,3.5
2026-03-26 19:04:01.825,PX4_0,False,0.465,-1.038,2.532,0.0509,0.0073,-0.0032,1.021,-2.9828,-3.5081,-0.0443,0.0043,-0.0001,0.045,3.508,12,12.46,0.0,0.0,0.0,0.03,ON,3.52
2026-03-26 19:04:02.827,PX4_0,False,0.424,-1.074,2.452,-0.0289,-0.1245,-0.0161,1.0163,-2.9799,-3.5123,-0.0471,-0.0205,0.0097,0.051,3.512,12,12.462,0.0,0.0,0.0,0.03,ON,3.51
2026-03-26 19:04:03.829,OFFBOARD,True,0.501,-1.333,2.434,-0.0215,0.0147,0.0108,0.9948,-2.9941,-3.5056,-0.0402,-0.029,0.0107,0.05,3.506,12,12.453,0.0,0.0,0.0,0.03,ON,3.5
2026-03-26 19:04:04.831,PX4_0,False,0.353,-1.093,2.904,0.0211,0.0189,0.0391,1.0074,-3.0059,-3.508,-0.0266,-0.0076,0.0083,0.028,3.508,12,12.461,0.0,0.0,0.0,0.03,ON,3.51
2026-03-26 19:04:05.833,OFFBOARD,True,-0.048,-1.409,2.169,-0.0318,-0.0245,-0.0065,0.9853,-2.977,-3.5109,-0.0471,0.0075,0.0172,0.048,3.511,12,12.442,0.0,0.0,0.0,0.03,ON,3.51
2026-03-26 19:04:06.834,OFFBOARD,True,-0.224,-1.574,2.46,-0.0246,-0.0453,-0.0107,0.9628,-2.9643,-3.4969,-0.0037,-0.0421,0.0204,0.042,3.497,12,12.431,0.0,0.0,0.0,0.03,ON,3.5
2026-03-26 19:04:07.836,PX4_0,False,-0.075,-1.491,2.197,-0.0588,-0.0789,-0.04,0.9832,-2.987,-3.4953,0.0213,-0.0726,-0.002,0.076,3.495,12,12.431,0.0,0.0,0.0,0.03,ON,3.5
2026-03-26 19:04:08.839,OFFBOARD,True,0.19,-1.366,2.326,0.0631,-0.0422,-0.0039,0.9923,-3.0232,-3.4954,0.0074,-0.0691,-0.0019,0.069,3.495,11,12.423,0.0,0.0,0.0,0.03,ON,3.5
2026-03-26 19:04:09.843,PX4_0,False,0.375,-1.31,2.653,-0.0602,0.0063,-0.0035,1.0138,-3.0591,-3.499,-0.0031,-0.0589,0.0039,0.059,3.499,11,12.421,0.0,0.0,0.0,0.03,ON,3.5
2026-03-26 19:04:10.846,OFFBOARD,True,0.193,-1.405,3.1,-0.0469,0.0348,0.0046,1.0205,-3.0793,-3.5059,-0.0208,-0.0167,-0.0012,0.027,3.506,11,12.419,0.0,0.0,0.0,0.03,ON,3.51
2026-03-26 19:04:11.848,PX4_0,False,0.036,-1.429,2.751,0.029,0.071,0.0095,1.0146,-3.0756,-3.5123,-0.014,-0.0263,0.0103,0.03,3.512,11,12.409,0.0,0.0,0.0,0.03,ON,3.52
2026-03-26 19:04:12.851,OFFBOARD,True,0.082,-1.625,2.649,0.0331,0.0258,0.0165,1.0109,-3.0883,-3.5168,-0.005,-0.049,0.0117,0.049,3.517,11,12.404,0.0,0.0,0.0,0.03,ON,3.52
2026-03-26 19:04:13.854,PX4_0,False,0.394,-1.56,2.343,0.0329,0.0562,0.028,1.0323,-3.1198,-3.5078,-0.0048,-0.0355,0.0148,0.036,3.508,11,12.41,0.0,0.0,0.0,0.03,ON,3.5
2026-03-26 19:04:14.856,OFFBOARD,True,0.495,-1.174,2.647,-0.0373,-0.0855,-0.0169,1.0569,-3.1308,-3.498,-0.0122,-0.0206,0.003,0.024,3.498,11,12.402,0.0,0.0,0.0,0.03,ON,3.49
2026-03-26 19:04:15.858,OFFBOARD,True,0.323,-1.742,2.646,-0.0281,0.0006,-0.0146,1.0524,-3.1395,-3.495,-0.028,-0.0108,-0.0057,0.03,3.495,11,12.41,0.0,0.0,0.0,0.03,ON,3.5
2026-03-26 19:04:16.860,OFFBOARD,True,-0.039,-1.543,2.913,-0.0195,0.0497,-0.0038,1.0492,-3.0958,-3.4981,-0.0184,-0.0205,0.0071,0.028,3.498,11,12.403,0.0,0.0,0.0,0.03,ON,3.5
2026-03-26 19:04:17.865,PX4_0,False,0.187,-1.379,2.516,-0.0305,-0.0291,-0.0195,1.0459,-3.0908,-3.5031,-0.0039,-0.0668,0.0134,0.067,3.503,11,12.4,0.0,0.0,0.0,0.03,ON,3.5
2026-03-26 19:04:18.867,OFFBOARD,True,0.689,-1.544,2.624,-0.0071,0.029,0.004,1.0676,-3.1644,-3.4885,-0.0036,-0.0671,0.004,0.067,3.489,11,12.381,0.0,0.0,0.0,0.03,ON,3.48
2026-03-26 19:04:19.871,PX4_0,False,0.482,-1.368,2.814,0.0215,0.1052,0.035,1.0741,-3.171,-3.4948,-0.0012,-0.0416,-0.0127,0.042,3.495,11,12.379,0.0,0.0,0.0,0.03,ON,3.5
2026-03-26 19:04:20.874,PX4_0,False,0.412,-1.507,3.085,0.0583,-0.0432,0.0149,1.0935,-3.1789,-3.5064,-0.0219,-0.039,-0.0024,0.045,3.506,11,12.38,0.0,0.0,0.0,0.03,ON,3.51
2026-03-26 19:04:21.876,PX4_0,False,0.288,-1.698,3.097,-0.0017,-0.0901,-0.0015,1.0685,-3.1716,-3.4946,-0.0233,-0.0346,-0.0017,0.042,3.495,10,12.376,0.0,0.0,0.0,0.03,ON,3.48
2026-03-26 19:04:22.879,PX4_0,False,0.223,-1.441,2.66,0.0041,0.0843,0.0042,1.0623,-3.1777,-3.4872,0.014,-0.0388,-0.0196,0.041,3.487,10,12.375,0.0,0.0,0.0,0.03,ON,3.49
2026-03-26 19:04:23.881,PX4_0,False,0.572,-1.026,2.431,-0.0434,-0.071,-0.0468,1.1255,-3.2116,-3.5013,-0.0038,-0.0322,-0.006,0.032,3.501,10,12.37,0.0,0.0,0.0,0.03,ON,3.51
2026-03-26 19:04:24.882,PX4_0,False,0.383,-1.083,2.158,-0.0698,0.0701,0.009,1.1356,-3.2318,-3.5081,-0.0491,0.0009,0.0209,0.049,3.508,10,12.366,0.0,0.0,0.0,0.03,ON,3.5
2026-03-26 19:04:25.885,PX4_0,False,0.183,-2.004,3.006,0.0051,-0.0502,-0.0153,1.0694,-3.2317,-3.4889,-0.0488,-0.005,-0.0045,0.049,3.489,10,12.355,0.0,0.0,0.0,0.03,ON,3.48
2026-03-26 19:04:26.889,PX4_0,False,0.188,-1.633,2.553,0.0051,0.0265,-0.0199,1.0602,-3.2327,-3.4869,0.0122,-0.0256,-0.0117,0.028,3.487,10,12.357,0.0,0.0,0.0,0.03,ON,3.49
2026-03-26 19:04:27.891,PX4_0,False,0.693,-1.537,2.288,0.0674,0.0883,0.0337,1.0925,-3.2546,-3.5141,0.0095,-0.0381,-0.0129,0.039,3.514,10,12.354,0.0,0.0,0.0,0.03,ON,3.52
2026-03-26 19:04:28.895,PX4_0,False,0.338,-1.48,2.437,0.0476,-0.0061,0.0028,1.1295,-3.2618,-3.5104,0.0015,0.0056,0.0085,0.006,3.51,10,12.347,0.0,0.0,0.0,0.03,ON,3.51
2026-03-26 19:04:29.898,PX4_0,False,0.451,-1.338,2.128,-0.0761,0.0983,-0.007,1.1417,-3.2613,-3.5119,-0.0449,-0.0186,0.0049,0.049,3.512,10,12.347,0.0,0.0,0.0,0.03,ON,3.5
2026-03-26 19:04:30.905,PX4_0,False,0.558,-2.044,2.886,-0.0785,-0.0825,-0.0223,1.0854,-3.2885,-3.5055,-0.0388,-0.0056,0.0149,0.039,3.506,10,12.345,0.0,0.0,0.0,0.03,ON,3.49
2026-03-26 19:04:31.907,PX4_0,False,0.712,-1.848,3.324,0.0169,0.0637,0.0101,1.0848,-3.3024,-3.4947,0.0235,0.0277,0.0044,0.036,3.495,9,12.329,0.0,0.0,0.0,0.03,ON,3.49
2026-03-26 19:04:32.909,PX4_0,False,0.276,-1.477,3.045,0.0834,0.1067,0.0312,1.114,-3.2611,-3.5043,0.0169,0.0242,0.0195,0.03,3.504,9,12.328,0.0,0.0,0.0,0.03,ON,3.51
2026-03-26 19:04:33.911,PX4_0,False,0.49,-1.67,2.488,0.0266,-0.0303,-0.0056,1.1352,-3.2677,-3.5079,-0.0191,-0.002,-0.002,0.019,3.508,10,12.339,0.0,0.0,0.0,0.03,ON,3.51
2026-03-26 19:04:34.914,PX4_0,False,0.382,-2.069,2.757,0.0245,0.0804,0.029,1.0928,-3.2724,-3.5028,-0.0007,0.0047,0.0044,0.005,3.503,9,12.328,0.0,0.0,0.0,0.03,ON,3.49
2026-03-26 19:04:35.916,PX4_0,False,-0.069,-1.602,2.959,-0.0781,0.066,0.0047,1.1024,-3.2378,-3.4951,0.0404,-0.0121,0.005,0.042,3.495,9,12.317,0.0,0.0,0.0,0.03,ON,3.5
2026-03-26 19:04:36.921,PX4_0,False,0.5,-1.49,2.202,-0.06,-0.0282,-0.0417,1.1131,-3.2549,-3.4954,0.0341,-0.0594,0.0075,0.068,3.495,9,12.306,0.0,0.0,0.0,0.03,ON,3.49
2026-03-26 19:04:37.923,PX4_0,False,0.715,-1.331,1.795,-0.0225,0.0454,0.0182,1.14,-3.2934,-3.4942,0.0216,-0.041,0.0127,0.046,3.494,9,12.3,0.0,0.0,0.0,0.03,ON,3.49
2026-03-26 19:04:38.926,PX4_0,False,0.268,-1.365,2.658,0.0424,-0.0456,0.0253,1.164,-3.2748,-3.4866,-0.0094,-0.0077,-0.0055,0.012,3.487,9,12.285,0.0,0.0,0.0,0.03,ON,3.48
2026-03-26 19:04:39.930,PX4_0,False,0.029,-1.244,2.976,0.0664,0.108,0.0402,1.1662,-3.2384,-3.4835,-0.0328,-0.04,-0.013,0.052,3.483,8,12.271,0.0,0.0,0.0,0.03,ON,3.47
2026-03-26 19:04:40.936,PX4_0,False,0.39,-1.515,3.158,0.0814,0.0969,0.0206,1.1523,-3.2912,-3.4839,-0.0461,-0.0565,-0.0108,0.073,3.484,8,12.253,0.0,0.0,0.0,0.03,ON,3.49
2026-03-26 19:04:41.939,PX4_0,False,0.516,-1.566,3.106,-0.0024,0.1024,0.0501,1.1447,-3.3185,-3.4996,-0.0441,-0.0227,0.0064,0.05,3.5,8,12.265,0.0,0.0,0.0,0.03,ON,3.51
2026-03-26 19:04:42.943,PX4_0,False,0.0,0.0,0.0,0,0,0,1.1377,-3.3181,-3.5087,-0.0208,-0.0153,0.0145,0.026,3.509,8,12.278,0.0,0.0,0.0,0.03,ON,3.52
2026-03-26 19:04:43.945,PX4_0,False,0.244,-1.717,3.252,0.0073,0.051,0.0019,1.1228,-3.3069,-3.5169,-0.0137,-0.0221,0.0159,0.026,3.517,9,12.29,0.0,0.0,0.0,0.03,ON,3.53
2026-03-26 19:04:44.948,PX4_0,False,0.134,-1.502,2.248,-0.0412,-0.0154,-0.0208,1.1228,-3.2959,-3.5149,-0.0011,-0.0377,0.0206,0.038,3.515,9,12.289,0.0,0.0,0.0,0.03,ON,3.52
2026-03-26 19:04:45.949,PX4_0,False,0.509,-1.735,2.406,0.0121,0.0646,-0.0037,1.0894,-3.3173,-3.5132,-0.0008,-0.0449,0.0128,0.045,3.513,9,12.292,0.0,0.0,0.0,0.03,ON,3.51
2026-03-26 19:04:46.954,PX4_0,False,0.234,-1.746,2.125,0.0141,-0.0556,0.0369,1.0736,-3.3439,-3.5114,0.0474,-0.0186,0.0037,0.051,3.511,8,12.281,0.0,0.0,0.0,0.03,ON,3.52
2026-03-26 19:04:47.958,PX4_0,False,0.557,-1.297,3.136,0.0565,-0.0554,-0.0007,1.0954,-3.3556,-3.5154,0.0649,-0.038,0.0076,0.075,3.515,8,12.281,0.0,0.0,0.0,0.03,ON,3.52
2026-03-26 19:04:48.961,PX4_0,False,0.844,-1.665,2.699,0.0978,-0.0055,0.0106,1.1156,-3.3851,-3.5129,0.0446,-0.0213,0.0126,0.049,3.513,9,12.284,0.0,0.0,0.0,0.03,ON,3.5
2026-03-26 19:04:49.963,PX4_0,False,0.272,-1.16,2.676,-0.036,0.0975,0.0196,1.1351,-3.354,-3.5024,0.0353,-0.0098,0.0124,0.037,3.502,9,12.288,0.0,0.0,0.0,0.03,ON,3.5
2026-03-26 19:04:50.966,PX4_0,False,0.472,-1.704,2.658,0.0225,0.0948,0.0148,1.1381,-3.3442,-3.4868,0.0202,-0.0377,-0.0033,0.043,3.487,8,12.27,0.0,0.0,0.0,0.03,ON,3.47
2026-03-26 19:04:51.969,PX4_0,False,-0.143,-1.312,2.707,-0.0654,0.0779,0.037,1.1677,-3.3188,-3.4842,0.0099,-0.0352,-0.0159,0.037,3.484,8,12.269,0.0,0.0,0.0,0.03,ON,3.5
2026-03-26 19:04:52.971,PX4_0,False,0.216,-1.423,3.399,-0.0815,-0.0107,-0.0164,1.197,-3.3385,-3.5051,-0.0165,-0.06,-0.0031,0.062,3.505,8,12.268,0.0,0.0,0.0,0.03,ON,3.52
2026-03-26 19:04:53.976,PX4_0,False,0.709,-1.396,3.55,-0.0223,0.0189,-0.0231,1.2129,-3.4042,-3.519,-0.0344,-0.032,0.0255,0.047,3.519,8,12.275,0.0,0.0,0.0,0.03,ON,3.53
2026-03-26 19:04:54.979,PX4_0,False,0.655,-1.264,3.164,-0.0402,0.0587,0.0277,1.2067,-3.4178,-3.5171,-0.0277,-0.0227,0.0065,0.036,3.517,8,12.277,0.0,0.0,0.0,0.03,ON,3.51
2026-03-26 19:04:55.981,PX4_0,False,0.309,-1.641,2.731,-0.0868,0.0244,-0.0013,1.167,-3.4081,-3.506,-0.042,-0.0133,0.0171,0.044,3.506,8,12.265,0.0,0.0,0.0,0.03,ON,3.5
2026-03-26 19:04:56.983,PX4_0,False,0.093,-1.9,2.358,-0.0273,0.0543,-0.0203,1.0913,-3.3775,-3.4839,0.0321,-0.0471,-0.0007,0.057,3.484,8,12.263,0.0,0.0,0.0,0.03,ON,3.48
2026-03-26 19:04:57.987,OFFBOARD,True,0.072,-1.561,2.048,0.0865,-0.0504,0.0088,1.0919,-3.3746,-3.4833,0.0689,-0.05,-0.0054,0.085,3.483,8,12.25,0.0,0.0,0.0,0.03,ON,3.49
2026-03-26 19:04:58.989,PX4_0,False,0.795,-1.67,2.77,0.0636,-0.0447,0.0118,1.1036,-3.448,-3.4922,0.0765,-0.0719,0.0045,0.105,3.492,8,12.248,0.0,0.0,0.0,0.03,ON,3.5
2026-03-26 19:04:59.991,PX4_0,False,0.673,-1.3,3.29,0.0022,0.0233,0.0294,1.1461,-3.4742,-3.5072,0.0625,0.0087,-0.0074,0.063,3.507,8,12.249,0.0,0.0,0.0,0.03,ON,3.52
2026-03-26 19:05:00.994,PX4_0,False,0.505,-1.249,2.569,-0.0104,-0.039,-0.0186,1.1824,-3.463,-3.5282,0.0178,0.0005,0.0188,0.018,3.528,8,12.251,0.0,0.0,0.0,0.03,ON,3.54
2026-03-26 19:05:01.996,PX4_0,False,0.692,-1.345,3.233,-0.0552,-0.0082,-0.0175,1.1951,-3.4824,-3.5197,-0.0096,0.0029,0.0145,0.01,3.52,8,12.253,0.0,0.0,0.0,0.03,ON,3.51
2026-03-26 19:05:02.997,PX4_0,False,0.67,-1.26,2.765,-0.0499,0.0845,-0.0036,1.2075,-3.4999,-3.5056,-0.0134,0.0314,-0.0006,0.034,3.506,7,12.235,0.0,0.0,0.0,0.03,ON,3.5
2026-03-26 19:05:04.000,PX4_0,False,0.091,-1.504,2.581,-0.0306,0.0564,-0.0012,1.1829,-3.4546,-3.4969,-0.0254,0.0148,0.0014,0.029,3.497,7,12.226,0.0,0.0,0.0,0.03,ON,3.49
2026-03-26 19:05:05.004,PX4_0,False,0.344,-1.525,3.433,0.0001,0.0299,0.0087,1.1832,-3.4727,-3.4938,-0.005,-0.0285,-0.0027,0.029,3.494,7,12.219,0.0,0.0,0.0,0.03,ON,3.5
2026-03-26 19:05:06.007,PX4_0,False,0.378,-1.092,3.364,0.0378,-0.0902,-0.0093,1.2234,-3.4907,-3.5088,-0.0241,-0.0136,0.009,0.028,3.509,7,12.227,0.0,0.0,0.0,0.03,ON,3.52
2026-03-26 19:05:07.013,PX4_0,False,0.413,-1.166,2.857,0.1031,0.141,0.0439,1.2407,-3.4971,-3.5094,-0.0553,-0.0222,0.0124,0.06,3.509,7,12.216,0.0,0.0,0.0,0.03,ON,3.51
2026-03-26 19:05:08.014,PX4_0,False,0.339,-1.266,3.495,0.0463,0.0353,0.0429,1.2197,-3.5006,-3.5018,-0.0617,-0.0142,0.009,0.063,3.502,7,12.209,0.0,0.0,0.0,0.03,ON,3.49
2026-03-26 19:05:09.021,PX4_0,False,0.226,-1.392,3.07,0.0054,-0.0683,-0.0097,1.1958,-3.5005,-3.503,-0.0423,-0.0322,-0.0105,0.053,3.503,7,12.217,0.0,0.0,0.0,0.03,ON,3.5
2026-03-26 19:05:10.025,PX4_0,False,0.331,-1.25,3.016,-0.0301,-0.0922,-0.0185,1.1989,-3.5113,-3.5035,-0.0425,-0.0353,-0.0021,0.055,3.503,7,12.212,0.0,0.0,0.0,0.03,ON,3.5
2026-03-26 19:05:11.029,PX4_0,False,0.612,-1.227,3.079,-0.0494,0.13,0.0096,1.2132,-3.538,-3.5013,-0.0413,-0.0349,-0.0055,0.054,3.501,7,12.207,0.0,0.0,0.0,0.03,ON,3.5
2026-03-26 19:05:12.031,PX4_0,False,0.683,-1.692,2.763,0.0081,-0.0372,-0.008,1.1845,-3.5515,-3.5005,-0.0588,-0.0298,0.0021,0.066,3.501,7,12.202,0.0,0.0,0.0,0.03,ON,3.49
2026-03-26 19:05:13.032,PX4_0,False,0.43,-1.225,2.588,-0.0517,0.1417,0.0046,1.1923,-3.5466,-3.4944,-0.0108,-0.0057,-0.0126,0.012,3.494,7,12.195,0.0,0.0,0.0,0.03,ON,3.51
2026-03-26 19:05:14.034,PX4_0,False,0.196,-1.168,1.735,0.0225,0.0556,-0.0064,1.2157,-3.5288,-3.5156,-0.0501,-0.0158,0.0195,0.053,3.516,7,12.188,0.0,0.0,0.0,0.03,ON,3.52
2026-03-26 19:05:15.038,PX4_0,False,0.436,-1.476,3.229,0.0139,0.1025,0.0516,1.2139,-3.5419,-3.5141,-0.0542,-0.0378,0.0127,0.066,3.514,6,12.17,0.0,0.0,0.0,0.03,ON,3.5
2026-03-26 19:05:16.040,PX4_0,False,0.809,-1.589,3.19,0.0864,0.0521,0.0051,1.1904,-3.6019,-3.4956,-0.0172,-0.0207,-0.0015,0.027,3.496,6,12.171,0.0,0.0,0.0,0.03,ON,3.5
2026-03-26 19:05:17.041,PX4_0,False,0.622,-1.23,2.698,-0.0644,0.0719,-0.0018,1.2023,-3.6081,-3.5113,-0.0175,0.0343,0.0012,0.039,3.511,6,12.165,0.0,0.0,0.0,0.03,ON,3.52
2026-03-26 19:05:18.043,PX4_0,False,0.188,-1.651,3.109,-0.0425,-0.032,-0.0199,1.1848,-3.5874,-3.5115,-0.0249,0.0269,0.0283,0.037,3.511,6,12.158,0.0,0.0,0.0,0.03,ON,3.51
2026-03-26 19:05:19.046,PX4_0,False,-0.115,-1.733,3.176,-0.0227,-0.1008,-0.0377,1.1833,-3.5536,-3.5031,0.0078,-0.0237,-0.0071,0.025,3.503,6,12.16,0.0,0.0,0.0,0.03,ON,3.5
2026-03-26 19:05:20.053,PX4_0,False,0.149,-1.614,2.986,0.0305,-0.0513,0.0112,1.1965,-3.5731,-3.503,0.0101,-0.0536,-0.0044,0.055,3.503,6,12.164,0.0,0.0,0.0,0.03,ON,3.5
2026-03-26 19:05:21.055,PX4_0,False,0.756,-1.356,2.707,-0.0251,-0.0903,-0.001,1.2172,-3.6365,-3.5065,0.0029,-0.039,0.0091,0.039,3.506,6,12.16,0.0,0.0,0.0,0.03,ON,3.51
2026-03-26 19:05:22.057,PX4_0,False,0.654,-1.82,2.674,-0.0158,-0.0885,-0.0368,1.2085,-3.6449,-3.5129,0.0014,0.0083,0.0133,0.008,3.513,6,12.162,0.0,0.0,0.0,0.03,ON,3.51
2026-03-26 19:05:23.062,PX4_0,False,0.145,-1.766,2.463,0.0429,0.0578,0.0255,1.2052,-3.6319,-3.5133,0.003,0.0182,0.0032,0.018,3.513,6,12.152,0.0,0.0,0.0,0.03,ON,3.51
2026-03-26 19:05:24.063,PX4_0,False,0.245,-1.482,3.306,-0.0014,0.0865,0.0259,1.2162,-3.5995,-3.5023,0.0378,-0.0574,0.003,0.069,3.502,6,12.148,0.0,0.0,0.0,0.03,ON,3.5
2026-03-26 19:05:25.065,PX4_0,False,0.619,-1.405,2.627,-0.0626,-0.0698,-0.0137,1.2442,-3.6323,-3.5098,0.0201,-0.0682,-0.0077,0.071,3.51,6,12.153,0.0,0.0,0.0,0.03,ON,3.51
2026-03-26 19:05:26.068,PX4_0,False,0.707,-1.429,2.723,-0.0373,0.0843,0.0044,1.2551,-3.6645,-3.5075,0.0061,-0.026,-0.012,0.027,3.507,6,12.147,0.0,0.0,0.0,0.03,ON,3.5
2026-03-26 19:05:27.070,PX4_0,False,0.453,-1.399,3.192,-0.0178,0.0819,0.0032,1.2569,-3.6532,-3.4963,0.0023,-0.0042,0.0031,0.005,3.496,6,12.151,0.0,0.0,0.0,0.03,ON,3.49
2026-03-26 19:05:28.074,OFFBOARD,True,0.137,-1.447,2.755,0.031,0.024,0.0039,1.271,-3.6407,-3.494,0.0086,-0.0278,-0.0071,0.029,3.494,6,12.143,0.0,0.0,0.0,0.03,ON,3.48
2026-03-26 19:05:29.081,PX4_0,False,0.406,-1.028,2.82,-0.0091,-0.0533,0.01,1.2934,-3.6758,-3.4885,-0.0112,-0.0387,-0.0078,0.04,3.489,6,12.142,0.0,0.0,0.0,0.03,ON,3.49
2026-03-26 19:05:30.083,PX4_0,False,0.161,-1.35,2.688,-0.0696,-0.1137,-0.0254,1.2897,-3.6756,-3.5023,-0.0323,-0.0267,0.0063,0.042,3.502,6,12.142,0.0,0.0,0.0,0.03,ON,3.5
2026-03-26 19:05:31.087,PX4_0,False,0.329,-1.169,2.754,-0.0032,-0.0941,-0.0159,1.2842,-3.6775,-3.4949,-0.0086,-0.0523,-0.0025,0.053,3.495,5,12.13,0.0,0.0,0.0,0.03,ON,3.5
2026-03-26 19:05:32.089,PX4_0,False,0.323,-1.401,2.457,-0.0501,-0.0048,0.0041,1.2877,-3.7128,-3.502,-0.0219,-0.0264,0.0075,0.034,3.502,5,12.125,0.0,0.0,0.0,0.03,ON,3.51
2026-03-26 19:05:33.091,PX4_0,False,0.166,-1.215,2.453,-0.0404,0.0901,0.0138,1.3006,-3.7108,-3.5087,-0.0193,-0.0201,-0.0023,0.028,3.509,5,12.116,0.0,0.0,0.0,0.03,ON,3.52
2026-03-26 19:05:34.093,PX4_0,False,0.578,-1.15,3.376,0.0077,0.026,0.0012,1.3195,-3.7438,-3.5109,-0.0329,-0.0408,0.0022,0.052,3.511,5,12.125,0.0,0.0,0.0,0.03,ON,3.51
2026-03-26 19:05:35.097,PX4_0,False,0.67,-1.247,2.713,-0.0047,-0.0016,0.0315,1.3119,-3.7715,-3.5051,-0.0451,-0.0157,0.0051,0.048,3.505,5,12.12,0.0,0.0,0.0,0.03,ON,3.5
2026-03-26 19:05:36.100,PX4_0,False,0.579,-1.798,2.834,0.0641,-0.0568,-0.0118,1.2555,-3.7861,-3.49,-0.0159,0.014,0.005,0.021,3.49,5,12.12,0.0,0.0,0.0,0.03,ON,3.48
2026-03-26 19:05:37.105,PX4_0,False,-0.009,-1.463,2.881,0.0673,0.0204,0.01,1.2616,-3.7485,-3.4921,0.0176,0.0121,-0.0027,0.021,3.492,5,12.116,0.0,0.0,0.0,0.03,ON,3.49
2026-03-26 19:05:38.108,PX4_0,False,0.037,-1.511,2.258,0.0196,0.0506,0.0318,1.2766,-3.7261,-3.4953,0.006,-0.0141,0.0121,0.015,3.495,5,12.112,0.0,0.0,0.0,0.03,ON,3.48
2026-03-26 19:05:39.111,PX4_0,False,0.534,-1.455,2.626,-0.0052,-0.0853,-0.0269,1.2789,-3.7707,-3.4922,-0.0156,-0.056,-0.0063,0.058,3.492,5,12.102,0.0,0.0,0.0,0.03,ON,3.49
2026-03-26 19:05:40.112,PX4_0,False,0.751,-1.531,2.784,-0.0829,-0.0256,-0.0142,1.2935,-3.8249,-3.4672,-0.0048,-0.0137,0.0682,0.015,3.467,5,12.11,0.0,0.0,0.0,0.03,ON,3.49
2026-03-26 19:05:41.113,PX4_0,False,0.106,-1.14,2.631,-0.0513,-0.0095,-0.031,1.3355,-3.7772,-3.42,-0.0264,0.0187,0.0514,0.032,3.42,5,12.106,0.0,0.0,0.0,0.03,ON,3.42
2026-03-26 19:05:42.118,PX4_0,False,0.0,0.0,0.0,0,0,0,1.3417,-3.753,-3.3709,-0.0481,-0.0234,0.0529,0.053,3.371,5,12.098,0.0,0.0,0.0,0.03,ON,3.38
2026-03-26 19:05:43.121,PX4_0,False,0.349,-1.311,2.531,-0.0144,-0.0519,-0.0065,1.3162,-3.7576,-3.3185,-0.041,-0.031,0.0525,0.051,3.318,5,12.091,0.0,0.0,0.0,0.03,ON,3.31
2026-03-26 19:05:44.123,PX4_0,False,0.215,-1.494,2.425,0.0278,0.0457,0.0207,1.3106,-3.7455,-3.2667,-0.0372,-0.0256,0.0647,0.045,3.267,4,12.079,0.0,0.0,0.0,0.03,ON,3.23
2026-03-26 19:05:45.126,PX4_0,False,0.257,-1.222,2.115,0.0291,-0.0565,-0.001,1.3186,-3.74,-3.1976,-0.027,-0.0293,0.0503,0.04,3.198,4,12.075,0.0,0.0,0.0,0.03,ON,3.18
2026-03-26 19:05:46.127,PX4_0,False,0.388,-1.255,2.413,0.0421,-0.0147,0.0026,1.3311,-3.7586,-3.113,-0.0338,-0.0485,0.0536,0.059,3.113,4,12.075,0.0,0.0,0.0,0.03,ON,3.13
2026-03-26 19:05:47.129,PX4_0,False,0.282,-1.389,2.712,-0.0359,0.0152,0.0076,1.3287,-3.772,-3.0669,-0.0471,-0.0103,0.0631,0.048,3.067,4,12.08,0.0,0.0,0.0,0.03,ON,3.06
2026-03-26 19:05:48.131,PX4_0,False,0.297,-1.501,2.91,-0.027,-0.1158,-0.0172,1.3015,-3.7776,-2.9936,-0.0512,-0.0097,0.0559,0.052,2.994,4,12.072,0.0,0.0,0.0,0.03,ON,3.0
2026-03-26 19:05:49.133,PX4_0,False,0.176,-1.583,2.752,-0.0356,-0.0057,-0.0376,1.2819,-3.7683,-2.9407,-0.028,-0.0183,0.0602,0.033,2.941,4,12.069,0.0,0.0,0.0,0.03,ON,2.92
2026-03-26 19:05:50.136,PX4_0,False,0.386,-1.308,2.564,-0.0493,0.0842,-0.017,1.2571,-3.7725,-2.861,0.0037,-0.0274,0.049,0.028,2.861,4,12.057,0.0,0.0,0.0,0.03,ON,2.88
2026-03-26 19:05:51.141,PX4_0,False,0.485,-1.53,2.302,-0.0305,-0.0231,0.0105,1.2442,-3.7839,-2.8164,0.014,-0.0163,0.0524,0.021,2.816,4,12.057,0.0,0.0,0.0,0.03,ON,2.83
2026-03-26 19:05:52.145,PX4_0,False,0.411,-1.569,2.758,-0.0269,-0.0454,-0.0294,1.2383,-3.7889,-2.7763,0.03,-0.0154,0.0578,0.034,2.776,4,12.061,0.0,0.0,0.0,0.03,ON,2.79
2026-03-26 19:05:53.148,PX4_0,False,0.42,-1.535,2.545,-0.0309,-0.0529,-0.0196,1.2378,-3.782,-2.7432,0.0319,-0.0148,0.0466,0.035,2.743,4,12.052,0.0,0.0,0.0,0.03,ON,2.73
2026-03-26 19:05:54.153,PX4_0,False,0.192,-1.635,2.292,0.0642,0.0106,0.0278,1.2335,-3.7724,-2.6936,0.0269,0.0022,0.0612,0.027,2.694,4,12.056,0.0,0.0,0.0,0.03,ON,2.7
2026-03-26 19:05:55.156,PX4_0,False,0.558,-1.776,2.434,0.0614,0.0515,0.031,1.2362,-3.8018,-2.6356,0.0339,-0.0078,0.0466,0.035,2.636,4,12.048,0.0,0.0,0.0,0.03,ON,2.63
2026-03-26 19:05:56.161,PX4_0,False,0.372,-1.385,2.904,0.0057,0.0095,0.0043,1.2583,-3.8039,-2.5712,0.0283,0.0335,0.0535,0.044,2.571,4,12.048,0.0,0.0,0.0,0.03,ON,2.58
2026-03-26 19:05:57.163,PX4_0,False,0.255,-1.404,2.997,-0.0317,-0.059,-0.0238,1.2615,-3.8059,-2.5244,0.0156,0.0198,0.0541,0.025,2.524,4,12.048,0.0,0.0,0.0,0.03,ON,2.53
2026-03-26 19:05:58.165,PX4_0,False,-0.018,-1.525,2.996,-0.0462,0.0124,-0.0043,1.2625,-3.7879,-2.4861,0.0068,0.0154,0.0592,0.017,2.486,4,12.049,0.0,0.0,0.0,0.03,ON,2.49
2026-03-26 19:05:59.168,PX4_0,False,0.145,-1.565,2.449,-0.0456,-0.0662,-0.0233,1.2744,-3.7925,-2.4329,-0.0073,0.0208,0.0586,0.022,2.433,4,12.042,0.0,0.0,0.0,0.03,ON,2.44
2026-03-26 19:06:00.172,PX4_0,False,0.377,-0.858,2.345,-0.0383,0.051,-0.0159,1.3491,-3.8067,-2.3886,0.0001,0.0096,0.0587,0.01,2.389,4,12.042,0.0,0.0,0.0,0.03,ON,2.4
2026-03-26 19:06:01.175,PX4_0,False,0.254,-1.035,2.85,-0.0351,-0.0205,-0.025,1.3684,-3.7985,-2.3527,-0.0581,-0.0005,0.0611,0.058,2.353,4,12.044,0.0,0.0,0.0,0.03,ON,2.35
2026-03-26 19:06:02.180,PX4_0,False,0.303,-1.874,2.682,0.0448,-0.0216,-0.0039,1.2983,-3.7917,-2.2981,-0.0535,0.0015,0.0635,0.054,2.298,3,12.03,0.0,0.0,0.0,0.03,ON,2.3
2026-03-26 19:06:03.183,PX4_0,False,0.011,-1.53,2.716,-0.0008,0.0478,0.0295,1.2779,-3.8003,-2.2465,-0.0206,-0.0039,0.0423,0.021,2.247,3,12.012,0.0,0.0,0.0,0.03,ON,2.26
2026-03-26 19:06:04.191,PX4_0,False,-0.312,-1.687,3.079,-0.0131,-0.0879,0.001,1.2655,-3.8007,-2.2353,-0.0065,-0.0738,0.0423,0.074,2.235,3,12.023,0.0,0.0,0.0,0.03,ON,2.23
2026-03-26 19:06:05.192,OFFBOARD,True,0.916,-1.218,3.546,-0.0014,-0.0954,-0.0173,1.2984,-3.8719,-2.1844,0.0005,-0.0213,0.0593,0.021,2.184,3,12.011,0.0,0.0,0.0,0.03,ON,2.18
2026-03-26 19:06:06.195,PX4_0,False,0.523,-1.453,3.4,0.0085,-0.0765,-0.0165,1.2843,-3.8481,-2.126,-0.0274,-0.0017,0.0583,0.027,2.126,3,12.006,0.0,0.0,0.0,0.03,ON,2.12
2026-03-26 19:06:07.199,PX4_0,False,-0.597,-1.495,3.206,-0.0512,-0.039,-0.0538,1.2557,-3.801,-2.0746,-0.0121,-0.0135,0.0379,0.018,2.075,3,12.002,0.0,0.0,0.0,0.03,ON,2.08
2026-03-26 19:06:08.202,PX4_0,False,0.166,-1.49,3.91,0.01,0.0428,-0.0033,1.2842,-3.8607,-2.0613,-0.0175,-0.1401,0.0221,0.141,2.061,3,12.002,0.0,0.0,0.0,0.03,ON,2.04
2026-03-26 19:06:09.206,PX4_0,False,0.952,-1.511,3.05,-0.0384,0.0473,-0.0064,1.3322,-3.9209,-1.9992,-0.0021,0.0221,0.0604,0.022,1.999,3,12.001,0.0,0.0,0.0,0.03,ON,1.99
2026-03-26 19:06:10.209,PX4_0,False,0.229,-0.411,3.535,0.0142,0.0125,0.0216,1.3144,-3.8441,-1.9661,-0.1076,0.0958,0.0113,0.144,1.966,3,11.992,0.0,0.0,0.0,0.03,ON,1.97
2026-03-26 19:06:11.211,PX4_0,False,-0.227,-1.372,4.649,0.1008,-0.0967,0.0136,1.1796,-3.7719,-1.951,-0.1452,-0.0009,0.0082,0.145,1.951,2,11.991,0.0,0.0,0.0,0.03,ON,1.95
2026-03-26 19:06:12.213,PX4_0,False,0.321,-1.807,5.918,0.0449,0.0389,-0.0126,1.0793,-3.8019,-1.9489,-0.0865,-0.0107,0.0052,0.087,1.949,3,11.993,0.0,0.0,0.0,0.03,ON,1.95
2026-03-26 19:06:13.281,PX4_0,False,0.16,-1.644,4.384,-0.0218,-0.0555,-0.0769,0,0,0,0,0,0,0.0,0,2,11.984,0.0,0.0,0.0,0.03,ON,1.95
2026-03-26 19:06:14.283,PX4_0,False,0.372,-1.667,4.275,0.0172,0.0347,0.0093,1.0172,-3.8038,-1.9054,0.0076,-0.0101,0.0553,0.013,1.905,2,11.988,0.0,0.0,0.0,0.03,ON,1.91
