timestamp,mode,armed,roll_deg,pitch_deg,yaw_deg,rollspeed,pitchspeed,yawspeed,x,y,z,vx,vy,vz,speed_h,altitude_agl,battery_pct,battery_v,current_a0,current_a1,voltage_s1,voltage_s2,relay,distance_m
2026-03-23 14:46:16.162,OFFBOARD,True,0.71,-2.3,358.655,-0.047,0.0117,0.0304,0.7268,-0.1348,-3.5018,0.002,-0.075,0.007,0.075,3.502,58,14.661,0.0,0.12,0.0,0.0,ON,3.49
2026-03-23 14:46:17.169,OFFBOARD,True,0.134,-2.943,358.429,-0.0395,-0.0234,-0.0392,0.6643,-0.1226,-3.4974,0.0595,0.0073,-0.0088,0.06,3.497,58,14.668,0.0,0.12,0.0,0.0,ON,3.49
2026-03-23 14:46:18.175,OFFBOARD,True,-0.297,-1.574,358.191,0.0282,-0.0086,0.0365,0,0,0,0,0,0,0.0,0,58,14.672,0.0,0.12,0.0,0.0,ON,3.52
2026-03-23 14:46:19.180,PX4_0,False,-0.34,-1.739,358.594,0.0148,0.0179,-0.006,0.7936,-0.0656,-3.5098,0.0115,-0.0438,0.0242,0.045,3.51,58,14.679,0.0,0.12,0.0,0.0,ON,3.51
2026-03-23 14:46:20.185,OFFBOARD,True,-0.35,-2.448,359.382,-0.0224,-0.0479,-0.0141,0.7457,-0.0875,-3.4977,0.0062,-0.0642,0.0071,0.064,3.498,58,14.673,0.0,0.12,0.0,0.0,ON,3.49
2026-03-23 14:46:21.188,OFFBOARD,True,-0.314,-2.817,358.486,-0.0215,-0.0233,-0.038,0.7067,-0.1302,-3.4942,0.0508,-0.0234,-0.0013,0.056,3.494,58,14.672,0.0,0.12,0.0,0.0,ON,3.49
2026-03-23 14:46:22.192,OFFBOARD,True,0.588,-3.742,358.621,-0.0256,-0.0922,-0.0126,0.5697,-0.2298,-3.5029,0.1585,-0.008,-0.0124,0.159,3.503,58,14.673,0.0,0.12,0.0,0.0,ON,3.51
2026-03-23 14:46:23.194,PX4_0,False,0.136,-3.653,359.199,-0.0565,0.0828,-0.0096,0.5524,-0.1506,-3.5052,0.2743,0.0844,0.0148,0.287,3.505,58,14.663,0.0,0.12,0.0,0.0,ON,3.5
2026-03-23 14:46:24.200,OFFBOARD,True,-1.722,-2.796,359.24,0.0464,-0.0346,-0.0335,0.6548,-0.0265,-3.5007,0.3217,-0.0335,0.0008,0.323,3.501,57,14.651,0.0,0.12,0.0,0.0,ON,3.51
2026-03-23 14:46:25.202,PX4_0,False,-0.016,-2.095,359.853,0.0038,0.0689,0.042,0.7664,-0.1365,-3.5087,0.2144,-0.1712,0.0029,0.274,3.509,57,14.65,0.0,0.12,0.0,0.0,ON,3.52
2026-03-23 14:46:26.205,PX4_0,False,0.724,-2.231,0.942,0.0016,0.1001,0.0027,0.795,-0.2519,-3.5074,0.1477,-0.0274,0.0078,0.15,3.507,57,14.644,0.0,0.12,0.0,0.0,ON,3.5
2026-03-23 14:46:27.219,PX4_0,False,-0.719,-2.337,0.268,-0.1081,0.0016,-0.0585,0.8223,-0.1891,-3.5076,0.1079,0.0971,0.0029,0.145,3.508,57,14.644,0.0,0.12,0.0,0.0,ON,3.5
2026-03-23 14:46:28.223,PX4_0,False,-0.412,-2.317,359.903,-0.0282,-0.0501,0.0194,0.8272,-0.1631,-3.5007,0.0883,0.0225,0.0099,0.091,3.501,57,14.652,0.0,0.12,0.0,0.0,ON,3.5
2026-03-23 14:46:29.227,PX4_0,False,0.772,-1.757,1.432,0.0997,0.0429,0.0006,0.8913,-0.2434,-3.4964,0.0388,0.0006,0.0021,0.039,3.496,57,14.643,0.0,0.12,0.0,0.0,ON,3.5
2026-03-23 14:46:30.237,PX4_0,False,-0.099,-2.456,1.182,0.0418,-0.0025,-0.0376,0.8437,-0.2164,-3.4976,0.0174,0.0865,-0.0008,0.088,3.498,57,14.638,0.0,0.12,0.0,0.0,ON,3.49
2026-03-23 14:46:31.240,PX4_0,False,-0.981,-2.022,1.673,0.046,0.0312,0.0481,0.8518,-0.1132,-3.4914,0.0766,0.0186,-0.0105,0.079,3.491,57,14.629,0.0,0.12,0.0,0.0,ON,3.49
2026-03-23 14:46:32.242,PX4_0,False,-0.701,-1.067,1.786,0.0401,0.052,0.0379,0.9512,-0.0904,-3.4998,0.0032,-0.0769,-0.0043,0.077,3.5,57,14.64,0.0,0.12,0.0,0.0,ON,3.5
2026-03-23 14:46:33.247,PX4_0,False,0.132,-2.347,0.972,0.0625,-0.0548,-0.0028,0.8476,-0.1756,-3.5045,-0.0868,-0.0694,0.0013,0.111,3.505,57,14.641,0.0,0.12,0.0,0.0,ON,3.5
2026-03-23 14:46:34.253,PX4_0,False,-1.082,-3.773,359.847,-0.0566,0.024,-0.0219,0.689,-0.1367,-3.4915,0.0689,-0.0237,-0.0064,0.073,3.491,57,14.636,0.0,0.12,0.0,0.0,ON,3.49
2026-03-23 14:46:35.256,PX4_0,False,-1.194,-1.898,359.657,-0.0188,-0.0518,-0.0035,0.7631,-0.1011,-3.4872,0.1926,-0.0749,-0.0009,0.207,3.487,57,14.636,0.0,0.12,0.0,0.0,ON,3.5
2026-03-23 14:46:36.275,PX4_0,False,0.158,-1.329,0.758,-0.0013,-0.0131,0.0206,0.8799,-0.1816,-3.5065,0.087,-0.1176,0.0054,0.146,3.506,57,14.628,0.0,0.12,0.0,0.0,ON,3.49
2026-03-23 14:46:37.278,PX4_0,False,-0.295,-2.24,1.301,0.0185,0.0217,0.0235,0.8468,-0.2449,-3.5004,0.0168,-0.0013,0.0065,0.017,3.5,57,14.624,0.0,0.12,0.0,0.0,ON,3.48
2026-03-23 14:46:38.284,PX4_0,False,-0.634,-2.825,0.697,0.0063,-0.0101,-0.0129,0.7597,-0.2105,-3.4843,0.0667,-0.0167,-0.0073,0.069,3.484,57,14.615,0.0,0.12,0.0,0.0,ON,3.47
2026-03-23 14:46:39.287,PX4_0,False,-0.655,-2.723,359.412,-0.0217,0.0572,-0.0196,0.7253,-0.2073,-3.4886,0.1408,-0.0016,-0.0174,0.141,3.489,57,14.611,0.0,0.12,0.0,0.0,ON,3.49
2026-03-23 14:46:40.290,PX4_0,False,-0.47,-2.677,359.739,-0.0612,-0.0922,-0.0056,0.7579,-0.2019,-3.5107,0.1509,-0.0675,-0.004,0.165,3.511,57,14.625,0.0,0.12,0.0,0.0,ON,3.52
2026-03-23 14:46:41.295,PX4_0,False,-0.329,-2.819,0.366,-0.0072,-0.0661,0.0376,0.7664,-0.2313,-3.5141,0.179,-0.0316,0.0162,0.182,3.514,57,14.62,0.0,0.12,0.0,0.0,ON,3.52
2026-03-23 14:46:42.301,PX4_0,False,-0.212,-2.273,0.537,0.0758,-0.0157,0.0063,0.8286,-0.2636,-3.5052,0.1672,-0.0163,0.0122,0.168,3.505,57,14.618,0.0,0.12,0.0,0.0,ON,3.52
2026-03-23 14:46:43.304,PX4_0,False,0.226,-2.669,359.652,0.072,-0.0325,0.0164,0.8255,-0.2773,-3.4979,0.1161,-0.0154,0.0069,0.117,3.498,57,14.618,0.0,0.12,0.0,0.0,ON,3.49
2026-03-23 14:46:44.307,PX4_0,False,-0.699,-2.365,0.663,-0.0095,0.0323,0.0211,0.8384,-0.2205,-3.487,0.1508,0.0166,-0.0017,0.152,3.487,57,14.61,0.0,0.12,0.0,0.0,ON,3.48
2026-03-23 14:46:45.310,PX4_0,False,-0.575,-1.524,0.688,0.0012,0.021,-0.0058,0.9607,-0.1861,-3.4964,0.0887,-0.0528,-0.0084,0.103,3.496,56,14.605,0.0,0.12,0.0,0.0,ON,3.49
2026-03-23 14:46:46.318,PX4_0,False,-0.323,-1.072,0.925,0.0789,-0.066,-0.0122,1.0376,-0.1867,-3.5012,-0.0187,-0.0648,0.0084,0.067,3.501,57,14.617,0.0,0.12,0.0,0.0,ON,3.49
2026-03-23 14:46:47.323,PX4_0,False,0.0,0.0,0.0,0,0,0,1.0241,-0.2657,-3.4918,-0.0944,-0.057,0.0022,0.11,3.492,57,14.606,0.0,0.12,0.0,0.0,ON,3.48
2026-03-23 14:46:48.327,PX4_0,False,0.228,-2.224,0.607,-0.0817,0.0787,0.0141,0.969,-0.2714,-3.4863,-0.0947,-0.0035,-0.0076,0.095,3.486,56,14.592,0.0,0.12,0.0,0.0,ON,3.48
2026-03-23 14:46:49.341,PX4_0,False,-1.037,-2.399,359.789,-0.0375,0.0445,-0.0336,0.8989,-0.1722,-3.4892,-0.0329,-0.0005,-0.0153,0.033,3.489,56,14.59,0.0,0.12,0.0,0.0,ON,3.48
2026-03-23 14:46:50.347,PX4_0,False,-0.489,-1.469,0.01,0.0114,-0.0584,0.0272,0.9637,-0.1419,-3.4986,-0.0065,-0.0913,-0.0183,0.092,3.499,56,14.587,0.0,0.12,0.0,0.0,ON,3.49
2026-03-23 14:46:51.352,PX4_0,False,0.03,-1.464,1.859,0.0365,-0.0094,-0.0168,0.9944,-0.2252,-3.5163,-0.0866,-0.0587,0.0016,0.105,3.516,56,14.587,0.0,0.12,0.0,0.0,ON,3.52
2026-03-23 14:46:52.357,PX4_0,False,0.599,-1.417,359.804,-0.0238,-0.0578,-0.0321,0.9962,-0.3076,-3.508,-0.1084,0.0146,0.0116,0.109,3.508,56,14.585,0.0,0.12,0.0,0.0,ON,3.51
2026-03-23 14:46:53.361,PX4_0,False,-0.377,-1.51,0.108,0.0403,0.0154,0.0477,1.0121,-0.2282,-3.4965,-0.1228,0.081,0.0011,0.147,3.497,56,14.587,0.0,0.12,0.0,0.0,ON,3.5
2026-03-23 14:46:54.372,PX4_0,False,0.257,-0.857,0.643,0.017,-0.1052,-0.0118,1.0331,-0.2322,-3.4968,-0.1724,-0.03,0.0009,0.175,3.497,56,14.595,0.0,0.12,0.0,0.0,ON,3.49
2026-03-23 14:46:55.376,PX4_0,False,0.921,-1.386,0.623,0.0159,0.0288,0.0038,1.0121,-0.3151,-3.4924,-0.2082,0.017,0.0149,0.209,3.492,56,14.592,0.0,0.12,0.0,0.0,ON,3.49
2026-03-23 14:46:56.385,PX4_0,False,0.303,-1.522,0.098,0.0298,0.0666,0.0373,0.9892,-0.2875,-3.4878,-0.2109,0.0567,-0.0056,0.218,3.488,56,14.576,0.0,0.12,0.0,0.0,ON,3.48
2026-03-23 14:46:57.391,PX4_0,False,-0.176,-1.177,0.028,-0.0128,0.0282,-0.0292,0.9726,-0.2092,-3.4945,-0.2051,0.024,-0.0136,0.206,3.494,56,14.558,0.0,0.12,0.0,0.0,ON,3.49
2026-03-23 14:46:58.396,PX4_0,False,0.601,-1.148,359.6,-0.0429,0.0288,-0.0295,0.974,-0.2494,-3.4982,-0.2003,-0.045,-0.0001,0.205,3.498,56,14.571,0.0,0.12,0.0,0.0,ON,3.5
2026-03-23 14:46:59.401,PX4_0,False,0.752,-0.75,359.384,0.0247,0.0603,0.0207,1.0031,-0.2879,-3.5067,-0.2207,0.0437,-0.0015,0.225,3.507,56,14.568,0.0,0.12,0.0,0.0,ON,3.51
2026-03-23 14:47:00.405,PX4_0,False,0.323,-1.305,358.405,0.041,0.0126,-0.0144,0.9604,-0.2511,-3.5102,-0.2557,0.0273,0.0031,0.257,3.51,55,14.557,0.0,0.12,0.0,0.0,ON,3.51
2026-03-23 14:47:01.441,PX4_0,False,0.278,-1.313,0.603,0.0259,-0.0229,0.0385,0.8809,-0.2098,-3.5096,-0.2104,0.0461,0.0005,0.215,3.51,56,14.563,0.0,0.12,0.0,0.0,ON,3.5
2026-03-23 14:47:02.447,PX4_0,False,-0.355,-1.813,0.742,-0.0669,0.1097,-0.0228,0.8368,-0.1976,-3.4938,-0.1743,0.0187,0.0138,0.175,3.494,56,14.568,0.0,0.12,0.0,0.0,ON,3.49
2026-03-23 14:47:03.455,PX4_0,False,0.0,0.0,0.0,0,0,0,0.817,-0.2519,-3.4879,-0.1167,0.0217,-0.0163,0.119,3.488,56,14.559,0.0,0.12,0.0,0.0,ON,3.49
2026-03-23 14:47:04.465,PX4_0,False,0.0,0.0,0.0,0,0,0,0.7608,-0.2859,-3.5087,-0.1138,0.0794,-0.0136,0.139,3.509,56,14.572,0.0,0.12,0.0,0.0,ON,3.51
2026-03-23 14:47:05.477,PX4_0,False,-0.252,-2.299,0.195,0.0495,0.0076,-0.0064,0.6616,-0.2176,-3.5031,-0.0235,0.0644,0.0091,0.069,3.503,56,14.566,0.0,0.12,0.0,0.0,ON,3.5
2026-03-23 14:47:06.484,PX4_0,False,-0.319,-2.842,358.447,0.0277,0.0577,0.0128,0.6205,-0.1759,-3.4981,0.0877,-0.0074,0.0029,0.088,3.498,56,14.558,0.0,0.12,0.0,0.0,ON,3.51
2026-03-23 14:47:07.488,PX4_0,False,0.156,-1.479,359.72,-0.0835,-0.0426,0.0089,0.7264,-0.1878,-3.5082,0.1192,-0.0677,0.0095,0.137,3.508,56,14.56,0.0,0.12,0.0,0.0,ON,3.53
2026-03-23 14:47:08.492,PX4_0,False,0.278,-1.741,359.832,-0.0788,-0.0155,-0.033,0.7941,-0.2296,-3.5123,0.0109,-0.0138,0.0179,0.018,3.512,55,14.552,0.0,0.12,0.0,0.0,ON,3.51
2026-03-23 14:47:09.497,PX4_0,False,0.105,-1.575,359.005,0.0486,0.0985,-0.0056,0.8295,-0.2171,-3.5031,-0.0109,-0.0069,0.0048,0.013,3.503,56,14.558,0.0,0.12,0.0,0.0,ON,3.49
2026-03-23 14:47:10.501,PX4_0,False,0.57,-0.957,359.136,-0.0536,0.0599,-0.0143,0.9091,-0.2691,-3.5001,-0.0857,-0.0154,-0.0019,0.087,3.5,55,14.556,0.0,0.12,0.0,0.0,ON,3.5
2026-03-23 14:47:11.531,PX4_0,False,0.57,-1.388,358.66,0.0821,-0.0637,0.0121,0.9026,-0.2876,-3.5082,-0.1457,0.0293,-0.0008,0.149,3.508,55,14.547,0.0,0.12,0.0,0.0,ON,3.5
2026-03-23 14:47:12.537,PX4_0,False,0.472,-2.185,358.095,0.0298,0.0287,0.0317,0.8135,-0.282,-3.5006,-0.1033,0.0536,-0.0027,0.116,3.501,55,14.55,0.0,0.12,0.0,0.0,ON,3.5
2026-03-23 14:47:13.540,PX4_0,False,-0.607,-1.306,358.71,-0.0423,-0.0442,-0.0237,0.8267,-0.2483,-3.4972,-0.0675,0.073,0.0102,0.099,3.497,55,14.551,0.0,0.12,0.0,0.0,ON,3.5
2026-03-23 14:47:14.545,PX4_0,False,-1.049,-1.331,358.281,-0.0343,-0.0033,-0.0121,0.8609,-0.1236,-3.4894,-0.0853,-0.0373,0.0018,0.093,3.489,55,14.542,0.0,0.12,0.0,0.0,ON,3.49
2026-03-23 14:47:15.551,PX4_0,False,0.597,-0.819,357.944,0.083,0.095,0.0351,0.8943,-0.262,-3.4981,-0.0982,-0.0851,-0.0084,0.13,3.498,55,14.544,0.0,0.12,0.0,0.0,ON,3.51
2026-03-23 14:47:16.565,PX4_0,False,0.896,-1.187,359.425,0.0507,0.0365,0.0448,0.8783,-0.3649,-3.5131,-0.1624,0.0677,0.003,0.176,3.513,55,14.543,0.0,0.12,0.0,0.0,ON,3.51
2026-03-23 14:47:17.586,PX4_0,False,-0.294,-2.391,359.851,-0.0676,-0.0873,-0.0298,0.7334,-0.2898,-3.5026,-0.1078,0.117,0.0055,0.159,3.503,55,14.549,0.0,0.12,0.0,0.0,ON,3.49
2026-03-23 14:47:18.591,PX4_0,False,-0.54,-1.048,359.622,0.0653,-0.0052,-0.0072,0.7594,-0.2033,-3.5026,-0.0199,-0.0238,-0.0077,0.031,3.503,55,14.549,0.0,0.12,0.0,0.0,ON,3.5
2026-03-23 14:47:19.595,PX4_0,False,0.468,-0.765,358.62,0.0369,-0.0176,-0.0053,0.8184,-0.2697,-3.5038,-0.1071,-0.0093,0.0104,0.108,3.504,55,14.543,0.0,0.12,0.0,0.0,ON,3.5
2026-03-23 14:47:20.600,PX4_0,False,-0.017,-2.525,358.979,0.0054,-0.0098,0.0106,0.7134,-0.2694,-3.4936,-0.0948,0.0249,0.0026,0.098,3.494,55,14.526,0.0,0.12,0.0,0.0,ON,3.49
2026-03-23 14:47:21.606,PX4_0,False,-0.702,-1.32,358.875,0.0264,-0.0199,-0.0202,0.7535,-0.211,-3.4913,-0.0191,0.0016,-0.005,0.019,3.491,55,14.525,0.0,0.12,0.0,0.0,ON,3.5
2026-03-23 14:47:22.609,PX4_0,False,-0.132,-0.518,358.294,0.0644,0.0873,-0.0144,0.8746,-0.2538,-3.5022,-0.0868,-0.0464,-0.0046,0.098,3.502,55,14.52,0.0,0.12,0.0,0.0,ON,3.51
2026-03-23 14:47:23.620,PX4_0,False,0.325,-2.156,359.357,-0.0125,-0.0229,-0.0122,0.7739,-0.3221,-3.5117,-0.1691,-0.0139,0.0005,0.17,3.512,55,14.521,0.0,0.12,0.0,0.0,ON,3.51
2026-03-23 14:47:24.625,PX4_0,False,-0.048,-2.497,358.811,0.0582,-0.0526,0.0638,0.6224,-0.2906,-3.4986,0.0028,0.0172,-0.0032,0.017,3.499,55,14.522,0.0,0.12,0.0,0.0,ON,3.49
2026-03-23 14:47:25.628,PX4_0,False,-0.698,-1.813,0.231,0.0057,-0.0128,0.0141,0.6545,-0.2451,-3.5039,0.0526,-0.0202,-0.0129,0.056,3.504,55,14.524,0.0,0.12,0.0,0.0,ON,3.52
2026-03-23 14:47:26.635,PX4_0,False,0.0,0.0,0.0,0,0,0,0.6716,-0.298,-3.5192,0.0449,-0.0434,0.0028,0.062,3.519,55,14.537,0.0,0.12,0.0,0.0,ON,3.52
2026-03-23 14:47:27.649,PX4_0,False,0.527,-2.113,359.492,0.0005,0.0012,-0.0126,0.646,-0.3601,-3.5112,0.0591,-0.0002,0.0154,0.059,3.511,55,14.532,0.0,0.12,0.0,0.0,ON,3.51
2026-03-23 14:47:28.655,PX4_0,False,-0.806,-1.632,359.107,0.0103,-0.0134,-0.0089,0.7025,-0.2834,-3.5011,0.0777,0.0769,0.0109,0.109,3.501,55,14.526,0.0,0.12,0.0,0.0,ON,3.51
2026-03-23 14:47:29.662,PX4_0,False,0.065,-1.203,358.29,0.024,-0.0467,0.0096,0.7644,-0.2784,-3.4964,0.0323,-0.0587,0.0071,0.067,3.496,55,14.513,0.0,0.12,0.0,0.0,ON,3.49
2026-03-23 14:47:30.673,PX4_0,False,1.544,-1.65,359.232,-0.0148,0.0,-0.0106,0.7638,-0.4412,-3.4996,-0.0225,-0.0038,0.0012,0.023,3.5,55,14.515,0.0,0.12,0.0,0.0,ON,3.5
2026-03-23 14:47:31.682,PX4_0,False,-0.413,-1.561,358.797,-0.0745,0.1258,-0.0261,0.7703,-0.3482,-3.4963,-0.013,0.102,-0.0028,0.103,3.496,55,14.518,0.0,0.12,0.0,0.0,ON,3.49
2026-03-23 14:47:32.687,PX4_0,False,-0.127,-0.875,357.843,-0.0445,0.0235,-0.0759,0.8318,-0.3004,-3.4997,-0.0672,-0.0225,-0.0018,0.071,3.5,55,14.517,0.0,0.12,0.0,0.0,ON,3.5
2026-03-23 14:47:33.691,PX4_0,False,0.927,-0.925,358.402,-0.0705,0.0239,0.0852,0.852,-0.3801,-3.5041,-0.1255,-0.0023,0.0092,0.126,3.504,55,14.515,0.0,0.12,0.0,0.0,ON,3.51
2026-03-23 14:47:34.694,PX4_0,False,-0.725,-1.643,359.594,0.0135,-0.0021,0.0079,0.8025,-0.3113,-3.4979,-0.1392,0.0795,0.0116,0.16,3.498,55,14.512,0.0,0.12,0.0,0.0,ON,3.49
2026-03-23 14:47:35.703,PX4_0,False,-0.871,-1.148,359.619,0.0122,-0.0776,0.004,0.8141,-0.2634,-3.4988,-0.1327,-0.0339,-0.0103,0.137,3.499,55,14.509,0.0,0.12,0.0,0.0,ON,3.5
2026-03-23 14:47:36.721,PX4_0,False,0.383,-0.915,357.111,-0.052,0.03,-0.0127,0.8413,-0.4034,-3.5041,-0.1672,-0.0324,0.0042,0.17,3.504,55,14.512,0.0,0.12,0.0,0.0,ON,3.5
2026-03-23 14:47:37.726,PX4_0,False,0.855,-1.507,358.932,-0.0178,0.0828,0.0041,0.7843,-0.4702,-3.5005,-0.1669,0.0298,0.0035,0.17,3.501,55,14.509,0.0,0.12,0.0,0.0,ON,3.49
2026-03-23 14:47:38.729,OFFBOARD,True,-0.024,-1.278,0.417,-0.0298,-0.0755,0.0134,0.7347,-0.4163,-3.5083,-0.1305,0.0673,0.0001,0.147,3.508,55,14.516,0.0,0.12,0.0,0.0,ON,3.51
2026-03-23 14:47:39.734,OFFBOARD,True,-1.556,-1.425,0.015,-0.0043,0.0394,-0.0104,0.7042,-0.2923,-3.5037,-0.109,0.0544,-0.0053,0.122,3.504,54,14.508,0.0,0.12,0.0,0.0,ON,3.51
2026-03-23 14:47:40.740,OFFBOARD,True,0.216,-1.72,0.138,-0.0507,-0.0649,-0.0506,0.6587,-0.3299,-3.5077,-0.0996,-0.1421,0.0039,0.174,3.508,55,14.51,0.0,0.12,0.0,0.0,ON,3.51
2026-03-23 14:47:41.746,OFFBOARD,True,1.142,-2.331,359.846,0.0321,-0.1415,-0.0078,0.6008,-0.4731,-3.5079,-0.0506,0.0258,0.0087,0.057,3.508,55,14.513,0.0,0.12,0.0,0.0,ON,3.51
2026-03-23 14:47:42.758,OFFBOARD,True,-0.207,-2.871,359.118,0.0153,-0.0632,-0.0183,0.4944,-0.4164,-3.4977,0.0774,0.101,0.0041,0.127,3.498,55,14.515,0.0,0.12,0.0,0.0,ON,3.49
2026-03-23 14:47:43.766,OFFBOARD,True,-0.74,-1.788,358.992,-0.0146,0.0178,0.0356,0.5371,-0.3369,-3.5054,0.1783,0.0259,0.0026,0.18,3.505,54,14.499,0.0,0.12,0.0,0.0,ON,3.51
2026-03-23 14:47:44.773,OFFBOARD,True,-0.68,-1.721,359.646,-0.0131,0.0318,-0.0217,0.5912,-0.3036,-3.5073,0.1443,-0.0396,0.0139,0.15,3.507,0,0.0,0.0,0.12,0.0,0.0,ON,3.51
2026-03-23 14:47:45.777,PX4_0,False,-0.003,-1.289,359.771,-0.0402,-0.0266,0.0077,0.6593,-0.381,-3.5041,0.109,-0.0278,0.0117,0.112,3.504,55,14.52,0.0,0.12,0.0,0.0,ON,3.51
2026-03-23 14:47:46.807,OFFBOARD,True,-0.634,-1.666,358.751,-0.0347,-0.069,-0.0125,0.668,-0.374,-3.5016,0.0514,-0.0437,0.0007,0.067,3.502,55,14.518,0.0,0.12,0.0,0.0,ON,3.49
2026-03-23 14:47:47.812,OFFBOARD,True,0.133,-1.95,358.348,0.0825,0.0142,0.0381,0.6265,-0.4112,-3.4944,0.0827,-0.077,-0.0049,0.113,3.494,55,14.511,0.0,0.12,0.0,0.0,ON,3.49
2026-03-23 14:47:48.838,OFFBOARD,True,-0.12,-1.56,359.38,0.0022,-0.031,-0.0091,0.6573,-0.4254,-3.4946,0.0879,-0.013,-0.0105,0.089,3.495,54,14.504,0.0,0.12,0.0,0.0,ON,3.5
2026-03-23 14:47:49.840,OFFBOARD,True,-0.852,-1.754,358.474,-0.1142,0.0188,-0.0099,0.6787,-0.3783,-3.5075,0.0659,-0.0121,0.0029,0.067,3.507,54,14.503,0.0,0.12,0.0,0.0,ON,3.51
2026-03-23 14:47:50.844,OFFBOARD,True,0.153,-1.986,358.328,0.0431,0.0864,0.0069,0.6725,-0.4216,-3.4951,0.0525,-0.087,0.0052,0.102,3.495,54,14.491,0.0,0.12,0.0,0.0,ON,3.49
2026-03-23 14:47:51.852,OFFBOARD,True,0.256,-1.704,358.311,0.0449,-0.1033,-0.0037,0.6827,-0.4601,-3.4977,0.0609,-0.0365,-0.0075,0.071,3.498,54,14.486,0.0,0.12,0.0,0.0,ON,3.49
2026-03-23 14:47:52.857,OFFBOARD,True,-0.171,-1.511,358.482,0.0239,-0.0125,-0.0064,0.7063,-0.4392,-3.5026,0.0578,-0.0092,-0.0027,0.059,3.503,54,14.492,0.0,0.12,0.0,0.0,ON,3.5
2026-03-23 14:47:53.861,OFFBOARD,True,-1.057,-1.706,359.339,-0.0167,-0.0517,0.01,0.7016,-0.3679,-3.5023,0.049,-0.0794,0.006,0.093,3.502,54,14.485,0.0,0.12,0.0,0.0,ON,3.51
2026-03-23 14:47:54.867,OFFBOARD,True,1.129,-1.627,358.787,0.0063,-0.0177,-0.009,0.7029,-0.5216,-3.5051,0.0435,-0.106,0.0046,0.115,3.505,54,14.482,0.0,0.12,0.0,0.0,ON,3.51
2026-03-23 14:47:55.873,OFFBOARD,True,0.209,-1.785,358.742,-0.0911,-0.1116,0.0117,0.7008,-0.5482,-3.5082,0.0363,0.0828,0.009,0.09,3.508,54,14.479,0.0,0.12,0.0,0.0,ON,3.5
2026-03-23 14:47:56.878,OFFBOARD,True,-1.181,-2.236,358.33,0.0073,-0.0777,0.0115,0.6661,-0.3996,-3.5005,0.0551,0.0365,0.0003,0.066,3.501,54,14.48,0.0,0.12,0.0,0.0,ON,3.51
2026-03-23 14:47:57.885,OFFBOARD,True,-0.557,-0.932,357.886,0.0174,-0.0233,-0.0356,0.7586,-0.3903,-3.4981,0.0757,-0.1075,0.0107,0.131,3.498,54,14.473,0.0,0.12,0.0,0.0,ON,3.49
2026-03-23 14:47:58.888,OFFBOARD,True,0.759,-1.444,358.53,-0.111,-0.0524,0.0204,0.7846,-0.5189,-3.4976,-0.0418,-0.1042,-0.0034,0.112,3.498,54,14.472,0.0,0.12,0.0,0.0,ON,3.51
2026-03-23 14:47:59.891,OFFBOARD,True,0.486,-2.937,358.906,-0.0655,0.0625,-0.011,0.637,-0.5435,-3.5029,-0.0088,0.0313,0.0055,0.033,3.503,54,14.482,0.0,0.12,0.0,0.0,ON,3.49
2026-03-23 14:48:00.895,OFFBOARD,True,-0.697,-1.627,358.648,0.0229,-0.0524,0.0165,0.6602,-0.4106,-3.495,0.1118,0.003,-0.0106,0.112,3.495,54,14.486,0.0,0.12,0.0,0.0,ON,3.51
2026-03-23 14:48:01.903,OFFBOARD,True,0.13,-1.531,358.583,0.0737,-0.0701,-0.0203,0.7193,-0.4436,-3.5034,0.0698,-0.0613,0.0169,0.093,3.503,54,14.479,0.0,0.12,0.0,0.0,ON,3.5
2026-03-23 14:48:02.908,OFFBOARD,True,0.662,-2.231,357.835,-0.0523,-0.0094,-0.0166,0.6904,-0.5008,-3.4952,0.0116,-0.0212,0.0037,0.024,3.495,54,14.467,0.0,0.12,0.0,0.0,ON,3.48
2026-03-23 14:48:03.923,OFFBOARD,True,-0.458,-2.951,358.161,0.0167,0.002,0.0095,0.5966,-0.4347,-3.494,0.0744,0.0163,-0.0123,0.076,3.494,54,14.474,0.0,0.12,0.0,0.0,ON,3.48
2026-03-23 14:48:04.930,OFFBOARD,True,-1.079,-2.282,358.632,-0.0399,0.1084,-0.0201,0.6319,-0.3443,-3.4891,0.1539,-0.0838,-0.0141,0.175,3.489,54,14.467,0.0,0.12,0.0,0.0,ON,3.51
2026-03-23 14:48:05.933,OFFBOARD,True,0.161,-1.353,358.688,0.016,0.0187,0.0161,0.751,-0.4125,-3.5029,0.0891,-0.1639,0.0185,0.187,3.503,54,14.462,0.0,0.12,0.0,0.0,ON,3.5
2026-03-23 14:48:06.937,OFFBOARD,True,-0.189,-1.726,359.091,0.0586,-0.0113,0.0038,0.7672,-0.4565,-3.4914,-0.0037,-0.0617,0.0064,0.062,3.491,54,14.464,0.0,0.12,0.0,0.0,ON,3.48
2026-03-23 14:48:07.940,OFFBOARD,True,-0.415,-2.713,358.775,0.0131,0.027,-0.0023,0.7082,-0.4628,-3.4982,-0.0023,-0.0445,-0.0091,0.045,3.498,54,14.466,0.0,0.12,0.0,0.0,ON,3.5
2026-03-23 14:48:08.944,OFFBOARD,True,-0.226,-1.91,358.467,0.0275,0.0296,-0.0219,0.7064,-0.4634,-3.5012,0.0513,-0.0732,-0.006,0.089,3.501,53,14.459,0.0,0.12,0.0,0.0,ON,3.5
2026-03-23 14:48:09.948,OFFBOARD,True,0.306,-1.263,357.972,0.0309,-0.0092,-0.0073,0.7908,-0.5191,-3.5045,-0.0055,-0.0456,0.0035,0.046,3.505,53,14.451,0.0,0.12,0.0,0.0,ON,3.51
2026-03-23 14:48:10.958,OFFBOARD,True,1.297,-1.312,358.932,0.0179,-0.044,-0.0068,0.8349,-0.6068,-3.506,-0.0739,-0.0296,0.0052,0.08,3.506,53,14.447,0.0,0.12,0.0,0.0,ON,3.5
2026-03-23 14:48:11.961,OFFBOARD,True,-0.725,-1.264,357.556,-0.0231,-0.0391,-0.0178,0.8,-0.5075,-3.5015,-0.0789,0.1247,0.0092,0.148,3.502,53,14.46,0.0,0.12,0.0,0.0,ON,3.49
2026-03-23 14:48:12.963,OFFBOARD,True,-0.453,-1.322,358.7,0.0002,0.0246,0.017,0.7862,-0.4045,-3.4912,-0.0888,-0.0521,-0.0111,0.103,3.491,54,14.46,0.0,0.12,0.0,0.0,ON,3.48
2026-03-23 14:48:13.966,OFFBOARD,True,0.64,-1.998,358.967,-0.0216,-0.0697,-0.0716,0.7261,-0.5126,-3.4969,-0.1197,-0.0652,-0.0038,0.136,3.497,53,14.45,0.0,0.12,0.0,0.0,ON,3.5
2026-03-23 14:48:14.973,OFFBOARD,True,0.379,-1.839,358.485,0.0245,-0.045,0.0012,0.6799,-0.5548,-3.4999,-0.0352,0.0405,0.0029,0.054,3.5,53,14.445,0.0,0.12,0.0,0.0,ON,3.49
2026-03-23 14:48:15.977,OFFBOARD,True,-0.887,-2.064,357.745,-0.0788,-0.014,0.0273,0.6729,-0.3998,-3.4971,0.0057,0.026,-0.0058,0.027,3.497,53,14.445,0.0,0.12,0.0,0.0,ON,3.5
2026-03-23 14:48:16.980,OFFBOARD,True,-0.084,-2.694,359.257,0.0593,-0.0222,-0.0574,0.6099,-0.4052,-3.4997,0.0396,-0.0836,0.0177,0.093,3.5,53,14.433,0.0,0.12,0.0,0.0,ON,3.49
2026-03-23 14:48:17.986,OFFBOARD,True,0.994,-1.841,357.16,-0.0225,0.0718,-0.0548,0.6418,-0.5346,-3.4945,0.0988,-0.0584,-0.0128,0.115,3.494,53,14.434,0.0,0.12,0.0,0.0,ON,3.51
2026-03-23 14:48:18.989,OFFBOARD,True,0.152,-1.786,357.243,0.0117,0.0019,0.0125,0.7073,-0.5044,-3.5108,0.0196,0.0092,0.0134,0.022,3.511,53,14.443,0.0,0.12,0.0,0.0,ON,3.51
2026-03-23 14:48:20.006,OFFBOARD,True,-0.261,-2.086,357.108,0.0783,-0.0199,0.0396,0.694,-0.4356,-3.5038,0.0281,-0.0126,0.0045,0.031,3.504,53,14.434,0.0,0.12,0.0,0.0,ON,3.49
2026-03-23 14:48:21.016,OFFBOARD,True,-0.362,-2.546,358.774,0.0964,0.1009,0.0041,0.6666,-0.4073,-3.4936,0.0688,-0.1023,-0.0091,0.123,3.494,53,14.433,0.0,0.12,0.0,0.0,ON,3.5
2026-03-23 14:48:22.030,OFFBOARD,True,0.101,-1.047,358.728,0.0837,-0.0679,-0.007,0.797,-0.4851,-3.4969,0.0663,-0.1346,0.0095,0.15,3.497,53,14.436,0.0,0.12,0.0,0.0,ON,3.5
2026-03-23 14:48:23.049,OFFBOARD,True,0.232,-1.291,358.095,-0.0341,0.073,0.0042,0.8359,-0.5065,-3.4946,-0.0808,-0.0648,0.0036,0.104,3.495,53,14.429,0.0,0.12,0.0,0.0,ON,3.49
2026-03-23 14:48:24.052,OFFBOARD,True,0.13,-1.983,358.768,0.0592,0.0608,0.0058,0.765,-0.5163,-3.4906,-0.0946,-0.0408,-0.0089,0.103,3.491,53,14.417,0.0,0.12,0.0,0.0,ON,3.49
2026-03-23 14:48:25.054,OFFBOARD,True,1.364,-1.676,358.862,0.0085,0.1076,-0.0016,0.7476,-0.6223,-3.4969,-0.0371,0.0085,-0.0,0.038,3.497,53,14.419,0.0,0.12,0.0,0.0,ON,3.5
2026-03-23 14:48:26.060,OFFBOARD,True,-0.604,-1.764,357.827,-0.0623,0.0576,-0.0165,0.7518,-0.5229,-3.4989,-0.0444,0.0961,0.0014,0.106,3.499,53,14.413,0.0,0.12,0.0,0.0,ON,3.5
2026-03-23 14:48:27.070,OFFBOARD,True,-0.513,-2.16,357.204,-0.048,0.0341,-0.0328,0.6934,-0.474,-3.4973,-0.0322,-0.0297,-0.0049,0.044,3.497,53,14.421,0.0,0.12,0.0,0.0,ON,3.5
2026-03-23 14:48:28.075,OFFBOARD,True,0.29,-1.425,357.734,0.0896,0.029,0.0269,0.7234,-0.521,-3.5073,0.0372,-0.0376,0.0078,0.053,3.507,53,14.423,0.0,0.12,0.0,0.0,ON,3.51
2026-03-23 14:48:29.079,OFFBOARD,True,0.538,-1.078,358.647,0.0966,0.0642,0.0251,0.806,-0.5912,-3.5037,-0.0339,-0.0079,0.0064,0.035,3.504,53,14.423,0.0,0.12,0.0,0.0,ON,3.5
2026-03-23 14:48:30.084,OFFBOARD,True,0.342,-1.592,358.299,-0.016,0.0103,-0.0125,0.7628,-0.6031,-3.5019,-0.1058,0.0391,-0.0042,0.113,3.502,52,14.411,0.0,0.12,0.0,0.0,ON,3.49
2026-03-23 14:48:31.088,OFFBOARD,True,-0.674,-1.952,357.657,-0.0489,0.006,-0.0077,0.6783,-0.5116,-3.4876,-0.0349,0.0605,0.0029,0.07,3.488,52,14.405,0.0,0.12,0.0,0.0,ON,3.48
2026-03-23 14:48:32.091,OFFBOARD,True,-0.718,-1.493,357.094,-0.022,0.0094,-0.0139,0.726,-0.46,-3.4893,-0.0165,-0.073,-0.0033,0.075,3.489,52,14.398,0.0,0.12,0.0,0.0,ON,3.49
2026-03-23 14:48:33.098,OFFBOARD,True,0.371,-1.342,358.368,-0.0151,0.05,0.042,0.7505,-0.5572,-3.5025,-0.0279,-0.0557,-0.0064,0.062,3.502,52,14.392,0.0,0.12,0.0,0.0,ON,3.51
2026-03-23 14:48:34.101,OFFBOARD,True,0.384,-1.204,358.958,0.0638,-0.0492,-0.0078,0.7247,-0.6125,-3.5177,-0.048,0.0438,0.0215,0.065,3.518,52,14.403,0.0,0.12,0.0,0.0,ON,3.53
2026-03-23 14:48:35.103,OFFBOARD,True,-0.143,-2.756,358.719,-0.0369,0.0252,0.0047,0.6118,-0.6046,-3.5051,-0.0642,0.1023,0.0036,0.121,3.505,52,14.405,0.0,0.12,0.0,0.0,ON,3.49
2026-03-23 14:48:36.116,OFFBOARD,True,-0.815,-2.933,358.633,0.0491,0.0497,0.0301,0.5558,-0.5246,-3.4873,0.084,0.0099,-0.0196,0.085,3.487,52,14.392,0.0,0.12,0.0,0.0,ON,3.48
2026-03-23 14:48:37.120,PX4_0,False,-0.125,-2.074,358.856,0.0042,0.0507,0.0353,0.6139,-0.5172,-3.4976,0.1083,-0.037,-0.0167,0.114,3.498,52,14.391,0.0,0.12,0.0,0.0,ON,3.51
2026-03-23 14:48:38.123,OFFBOARD,True,0.027,-2.362,358.394,-0.0191,-0.0735,-0.0304,0.6474,-0.5473,-3.5071,0.0652,-0.0479,0.0297,0.081,3.507,52,14.392,0.0,0.12,0.0,0.0,ON,3.5
2026-03-23 14:48:39.127,OFFBOARD,True,0.363,-2.078,357.508,0.0054,0.0408,-0.004,0.6606,-0.5383,-3.496,0.0967,-0.0559,-0.0119,0.112,3.496,52,14.388,0.0,0.12,0.0,0.0,ON,3.48
2026-03-23 14:48:40.131,OFFBOARD,True,0.082,-0.279,358.464,-0.016,-0.0566,-0.0182,0.8048,-0.5303,-3.5005,0.0689,-0.0312,-0.0028,0.076,3.501,52,14.389,0.0,0.12,0.0,0.0,ON,3.49
2026-03-23 14:48:41.134,OFFBOARD,True,-0.32,-0.978,358.305,-0.0634,0.0318,-0.0084,0.8764,-0.5376,-3.4983,-0.1031,-0.0112,-0.0051,0.104,3.498,52,14.383,0.0,0.12,0.0,0.0,ON,3.48
2026-03-23 14:48:42.137,PX4_0,False,0.139,-2.293,358.337,-0.0154,-0.0134,0.0044,0.7376,-0.5653,-3.4888,-0.1328,-0.0181,-0.0149,0.134,3.489,52,14.371,0.0,0.12,0.0,0.0,ON,3.48
2026-03-23 14:48:43.146,OFFBOARD,True,0.015,-1.499,358.137,0.06,-0.0351,0.0178,0.7577,-0.5794,-3.4889,-0.0483,-0.0082,0.0048,0.049,3.489,52,14.369,0.0,0.12,0.0,0.0,ON,3.49
2026-03-23 14:48:44.150,OFFBOARD,True,0.211,-0.624,358.747,0.0827,-0.0053,0.0154,0.8553,-0.6062,-3.5058,-0.0855,0.0137,-0.0062,0.087,3.506,52,14.384,0.0,0.12,0.0,0.0,ON,3.51
2026-03-23 14:48:45.156,OFFBOARD,True,1.364,-1.715,358.693,0.0424,-0.0005,-0.0008,0.811,-0.6867,-3.5124,-0.1821,0.0476,0.0075,0.188,3.512,52,14.401,0.0,0.12,0.0,0.0,ON,0.0
2026-03-23 14:48:46.161,OFFBOARD,True,-0.478,-2.017,358.719,0.0146,-0.0218,0.0317,0.7032,-0.629,-3.502,-0.0672,0.1235,-0.0072,0.141,3.502,52,14.395,0.0,0.12,0.0,0.0,ON,3.49
2026-03-23 14:48:47.171,OFFBOARD,True,-0.304,-1.366,359.424,0.0862,0.0558,0.0275,0.7317,-0.5407,-3.5048,-0.0349,0.0153,0.0028,0.038,3.505,52,14.391,0.0,0.12,0.0,0.0,ON,3.5
2026-03-23 14:48:48.175,OFFBOARD,True,1.041,-1.311,358.255,-0.0441,-0.0875,-0.0358,0.7648,-0.5942,-3.5032,-0.0759,-0.0776,-0.0002,0.109,3.503,52,14.393,0.0,0.12,0.0,0.0,ON,3.5
2026-03-23 14:48:49.179,OFFBOARD,True,0.499,-2.152,358.557,-0.0179,-0.0383,-0.0048,0.7188,-0.5895,-3.5034,-0.0802,0.0157,-0.002,0.082,3.503,52,14.395,0.0,0.12,0.0,0.0,ON,3.5
2026-03-23 14:48:50.183,OFFBOARD,True,0.403,-2.952,358.801,-0.0587,0.0476,-0.0045,0.6129,-0.5668,-3.4933,-0.0117,0.0109,0.0046,0.016,3.493,52,14.394,0.0,0.12,0.0,0.0,ON,3.48
2026-03-23 14:48:51.189,OFFBOARD,True,-0.327,-2.647,358.414,0.0909,0.1041,-0.006,0.5892,-0.4912,-3.4924,0.1214,-0.0153,-0.0134,0.122,3.492,52,14.385,0.0,0.12,0.0,0.0,ON,3.51
2026-03-23 14:48:52.190,OFFBOARD,True,-0.538,-2.377,357.883,0.0288,0.0704,0.0039,0.5829,-0.497,-3.5026,0.1603,-0.0363,0.0011,0.164,3.503,52,14.387,0.0,0.12,0.0,0.0,ON,3.51
2026-03-23 14:48:53.194,OFFBOARD,True,0.462,-2.663,357.7,-0.002,-0.0769,0.0103,0.5402,-0.581,-3.4991,0.21,-0.0563,0.0033,0.217,3.499,52,14.392,0.0,0.12,0.0,0.0,ON,3.49
2026-03-23 14:48:54.196,OFFBOARD,True,-0.382,-2.448,357.834,-0.0648,-0.0915,-0.0249,0.551,-0.5706,-3.4949,0.2671,-0.0017,0.0012,0.267,3.495,52,14.381,0.0,0.12,0.0,0.0,ON,3.49
2026-03-23 14:48:55.199,OFFBOARD,True,-1.099,-1.547,357.445,-0.0002,0.077,0.0115,0.6481,-0.5054,-3.4942,0.2613,-0.0587,-0.0029,0.268,3.494,52,14.367,0.0,0.12,0.0,0.0,ON,3.49
2026-03-23 14:48:56.202,PX4_0,False,0.283,-1.463,358.19,0.0862,0.02,0.0636,0.7506,-0.5975,-3.5112,0.1051,-0.1645,0.0202,0.195,3.511,52,14.376,0.0,0.12,0.0,0.0,ON,3.51
2026-03-23 14:48:57.205,OFFBOARD,True,0.994,-2.04,357.887,0.001,-0.1005,-0.0348,0.758,-0.6825,-3.4967,0.0619,-0.0683,0.0156,0.092,3.497,52,14.381,0.0,0.12,0.0,0.0,ON,3.48
2026-03-23 14:48:58.207,PX4_0,False,-0.247,-1.97,357.55,-0.0445,-0.021,0.031,0.7566,-0.614,-3.4785,0.0555,-0.0013,-0.0171,0.056,3.478,51,14.362,0.0,0.12,0.0,0.0,ON,3.47
2026-03-23 14:48:59.210,OFFBOARD,True,-0.464,-1.743,357.909,-0.0167,0.1151,-0.0189,0.7819,-0.5907,-3.4903,0.0735,-0.0783,-0.0254,0.107,3.49,51,14.355,0.0,0.12,0.0,0.0,ON,3.49
2026-03-23 14:49:00.214,PX4_0,False,0.948,-1.554,357.939,0.0729,0.0791,0.0374,0.802,-0.7019,-3.5091,0.0381,-0.0975,-0.0015,0.105,3.509,51,14.365,0.0,0.12,0.0,0.0,ON,3.5
2026-03-23 14:49:01.219,PX4_0,False,0.132,-1.481,358.677,0.0039,-0.103,0.0073,0.8234,-0.6825,-3.5042,-0.0102,0.0042,0.0094,0.011,3.504,51,14.358,0.0,0.12,0.0,0.0,ON,3.5
2026-03-23 14:49:02.222,PX4_0,False,0.064,-1.818,358.16,-0.0036,0.021,0.0167,0.8455,-0.6498,-3.4951,-0.032,-0.0375,0.0129,0.049,3.495,51,14.349,0.0,0.12,0.0,0.0,ON,3.49
2026-03-23 14:49:03.225,PX4_0,False,0.207,-0.883,357.579,-0.033,0.1097,-0.0022,0.9464,-0.683,-3.4902,-0.083,0.0139,0.0037,0.084,3.49,51,14.346,0.0,0.12,0.0,0.0,ON,3.5
2026-03-23 14:49:04.228,PX4_0,False,0.447,-0.573,357.239,0.0193,0.0079,0.0069,0.9948,-0.7159,-3.493,-0.1915,-0.0106,-0.0061,0.192,3.493,51,14.344,0.0,0.12,0.0,0.0,ON,3.49
2026-03-23 14:49:05.234,PX4_0,False,0.9,-1.481,357.252,-0.0373,-0.0575,-0.0143,0.897,-0.7902,-3.5084,-0.2471,0.0726,-0.0092,0.258,3.508,51,14.352,0.0,0.12,0.0,0.0,ON,3.5
2026-03-23 14:49:06.238,PX4_0,False,0.325,-2.18,357.355,0.0335,-0.0522,0.0558,0.7756,-0.7645,-3.5085,-0.1206,0.1146,0.0053,0.166,3.509,51,14.348,0.0,0.12,0.0,0.0,ON,3.5
2026-03-23 14:49:07.240,PX4_0,False,-0.411,-0.207,358.59,-0.0305,-0.0764,-0.0228,0.8878,-0.6808,-3.4968,-0.0898,0.0635,-0.0035,0.11,3.497,51,14.343,0.0,0.12,0.0,0.0,ON,3.49
2026-03-23 14:49:08.244,PX4_0,False,0.0,0.0,0.0,0,0,0,0.848,-0.6336,-3.5027,-0.1846,-0.044,-0.0073,0.19,3.503,51,14.35,0.0,0.12,0.0,0.0,ON,3.5
2026-03-23 14:49:09.253,PX4_0,False,0.551,-1.557,357.633,-0.0613,0.0268,0.0224,0.7775,-0.7196,-3.501,-0.1379,-0.028,0.0093,0.141,3.501,51,14.341,0.0,0.12,0.0,0.0,ON,3.51
2026-03-23 14:49:10.256,PX4_0,False,-0.416,-1.294,358.18,-0.0565,-0.014,-0.0303,0.7488,-0.7001,-3.4919,-0.1064,0.0194,0.0016,0.108,3.492,51,14.339,0.0,0.12,0.0,0.0,ON,3.49
2026-03-23 14:49:11.261,PX4_0,False,-0.576,-1.964,357.543,0.1196,0.0239,0.0382,0.6947,-0.6696,-3.4878,-0.0894,-0.0797,0.0043,0.12,3.488,51,14.331,0.0,0.12,0.0,0.0,ON,3.49
2026-03-23 14:49:12.267,PX4_0,False,0.956,-1.205,358.734,0.0322,0.0167,-0.0107,0.7318,-0.7966,-3.4996,-0.0367,-0.0885,-0.0111,0.096,3.5,51,14.325,0.0,0.12,0.0,0.0,ON,3.5
2026-03-23 14:49:13.278,PX4_0,False,0.457,-1.215,358.344,-0.0629,0.0879,-0.0072,0.7744,-0.8283,-3.5118,-0.0951,0.0221,-0.0034,0.098,3.512,51,14.333,0.0,0.12,0.0,0.0,ON,3.5
2026-03-23 14:49:14.295,PX4_0,False,0.058,-2.069,357.619,-0.0669,-0.0895,0.0071,0.663,-0.7657,-3.5127,-0.078,-0.0032,0.0006,0.078,3.513,51,14.337,0.0,0.12,0.0,0.0,ON,3.5
2026-03-23 14:49:15.300,PX4_0,False,-0.541,-1.82,358.22,-0.0083,-0.0392,0.0467,0.6553,-0.6854,-3.4982,-0.0105,-0.079,0.0049,0.08,3.498,51,14.324,0.0,0.12,0.0,0.0,ON,3.49
2026-03-23 14:49:16.304,PX4_0,False,0.435,-1.62,358.664,0.0253,-0.0862,-0.0262,0.7001,-0.7613,-3.493,-0.0179,-0.1056,-0.0074,0.107,3.493,51,14.334,0.0,0.12,0.0,0.0,ON,3.49
2026-03-23 14:49:17.309,PX4_0,False,0.524,-1.637,358.513,-0.063,0.0532,-0.0294,0.7012,-0.8304,-3.4996,-0.0343,-0.012,-0.0004,0.036,3.5,51,14.339,0.0,0.12,0.0,0.0,ON,3.5
2026-03-23 14:49:18.318,PX4_0,False,-0.18,-1.672,358.312,-0.0886,-0.063,-0.0151,0.6928,-0.8029,-3.4942,-0.0362,0.0142,-0.0031,0.039,3.494,51,14.329,0.0,0.12,0.0,0.0,ON,3.49
2026-03-23 14:49:19.321,PX4_0,False,-0.33,-1.6,358.199,-0.0274,-0.018,0.0016,0.6894,-0.7894,-3.4862,-0.0029,0.0088,0.0055,0.009,3.486,51,14.325,0.0,0.12,0.0,0.0,ON,3.48
2026-03-23 14:49:20.327,PX4_0,False,0.086,-1.683,358.161,-0.0203,0.0463,-0.0255,0.6819,-0.8377,-3.4922,-0.0124,-0.0229,-0.0025,0.026,3.492,50,14.312,0.0,0.12,0.0,0.0,ON,3.48
2026-03-23 14:49:21.329,PX4_0,False,0.273,-2.245,358.58,0.0179,0.0925,0.0282,0.6114,-0.8554,-3.4879,0.0227,-0.0079,-0.0021,0.024,3.488,50,14.301,0.0,0.12,0.0,0.0,ON,3.48
2026-03-23 14:49:22.331,PX4_0,False,0.346,-1.82,358.995,-0.0697,-0.0301,-0.0394,0.6215,-0.8789,-3.485,0.0871,0.0409,-0.0048,0.096,3.485,50,14.308,0.0,0.12,0.0,0.0,ON,3.49
2026-03-23 14:49:23.343,PX4_0,False,-0.365,-1.34,358.629,-0.0137,0.0568,0.012,0.7058,-0.8355,-3.4978,0.0565,0.0511,0.003,0.076,3.498,50,14.303,0.0,0.12,0.0,0.0,ON,3.5
2026-03-23 14:49:24.353,PX4_0,False,-0.489,-2.379,359.353,0.0527,-0.0319,0.009,0.6559,-0.8002,-3.5,0.0096,-0.0342,-0.0052,0.036,3.5,50,14.301,0.0,0.12,0.0,0.0,ON,3.49
2026-03-23 14:49:25.358,PX4_0,False,-0.327,-2.029,358.216,0.0245,0.0822,-0.0328,0.6223,-0.8447,-3.4919,0.1056,-0.01,-0.0016,0.106,3.492,50,14.29,0.0,0.12,0.0,0.0,ON,3.5
2026-03-23 14:49:26.366,PX4_0,False,0.565,-1.445,357.43,0.0534,-0.0747,0.0172,0.6771,-0.9146,-3.5075,0.0879,-0.0601,-0.0025,0.106,3.507,50,14.292,0.0,0.12,0.0,0.0,ON,3.51
2026-03-23 14:49:27.402,PX4_0,False,0.339,-2.325,358.89,0.0038,0.0144,-0.0021,0.6345,-0.9433,-3.5071,0.057,0.0383,0.0102,0.069,3.507,50,14.292,0.0,0.12,0.0,0.0,ON,3.5
2026-03-23 14:49:28.415,PX4_0,False,-0.082,-2.424,359.05,-0.0118,0.0068,-0.0396,0.5665,-0.9153,-3.4934,0.1488,0.0394,-0.0058,0.154,3.493,50,14.281,0.0,0.12,0.0,0.0,ON,3.49
2026-03-23 14:49:29.475,PX4_0,False,-0.014,-2.082,357.871,0.05,0.0103,-0.0094,0.623,-0.898,-3.5077,0.1557,-0.013,-0.0041,0.156,3.508,50,14.282,0.0,0.12,0.0,0.0,ON,3.52
2026-03-23 14:49:30.512,PX4_0,False,0.511,-2.069,357.836,-0.0725,0.0575,0.0287,0.6635,-0.9267,-3.5097,0.0976,-0.0309,0.0128,0.102,3.51,50,14.282,0.0,0.12,0.0,0.0,ON,3.5
2026-03-23 14:49:31.607,OFFBOARD,True,0.343,-2.277,358.728,-0.0903,-0.035,0.0082,0,0,0,0,0,0,0.0,0,50,14.278,0.0,0.12,0.0,0.0,ON,3.48
2026-03-23 14:49:32.656,OFFBOARD,True,-0.211,-2.744,359.079,-0.1164,-0.0402,-0.026,0.6412,-0.9168,-3.4976,0.0665,0.0261,0.0089,0.071,3.498,50,14.275,0.0,0.12,0.0,0.0,ON,3.48
2026-03-23 14:49:33.777,OFFBOARD,True,0.0,0.0,0.0,0,0,0,0.594,-0.8737,-3.4842,0.0839,0.0245,-0.0064,0.087,3.484,50,14.282,0.0,0.12,0.0,0.0,ON,3.48
2026-03-23 14:49:34.821,OFFBOARD,True,0.208,-2.417,358.217,-0.0293,0.0607,-0.0021,0,0,0,0,0,0,0.0,0,50,14.291,0.0,0.12,0.0,0.0,ON,3.48
2026-03-23 14:49:35.830,PX4_0,False,0.605,-1.791,357.687,0.0346,0.0453,-0.0139,0.663,-0.9486,-3.4963,0.1763,-0.0419,-0.002,0.181,3.496,50,14.271,0.0,0.12,0.0,0.0,ON,3.51
2026-03-23 14:49:36.853,OFFBOARD,True,0.51,-1.785,357.615,0.0132,-0.0412,0.0117,0.6779,-0.9528,-3.5001,0.1449,-0.0046,0.0031,0.145,3.5,50,14.271,0.0,0.12,0.0,0.0,ON,3.51
2026-03-23 14:49:37.879,OFFBOARD,True,0.02,-2.537,356.991,0.0496,0.0093,-0.0072,0.6459,-0.9169,-3.5,0.106,-0.0148,0.0102,0.107,3.5,50,14.27,0.0,0.12,0.0,0.0,ON,3.49
2026-03-23 14:49:38.893,PX4_0,False,-0.441,-2.419,356.621,0.0378,0.0833,0.013,0.6098,-0.8791,-3.4893,0.1426,-0.0451,-0.0034,0.15,3.489,49,14.26,0.0,0.12,0.0,0.0,ON,3.49
2026-03-23 14:49:39.900,OFFBOARD,True,-0.584,-2.918,357.777,0.0617,0.0422,-0.0122,0.593,-0.9383,-3.4906,0.1429,0.0119,-0.017,0.143,3.491,49,14.242,0.0,0.12,0.0,0.0,ON,3.49
2026-03-23 14:49:40.909,OFFBOARD,True,-0.566,-1.793,356.342,-0.0118,0.067,-0.01,0.6785,-0.919,-3.5035,0.181,-0.0784,0.0001,0.197,3.503,49,14.245,0.0,0.12,0.0,0.0,ON,3.51
2026-03-23 14:49:41.912,OFFBOARD,True,0.666,-1.802,356.765,-0.027,0.037,0.0165,0.7378,-1.0093,-3.5098,0.0768,-0.0988,0.0042,0.125,3.51,49,14.243,0.0,0.12,0.0,0.0,ON,3.51
2026-03-23 14:49:42.916,OFFBOARD,True,0.191,-2.527,358.81,-0.0112,0.0333,-0.0085,0.7156,-1.0489,-3.5066,0.0272,0.0231,0.0005,0.036,3.507,49,14.246,0.0,0.12,0.0,0.0,ON,3.5
2026-03-23 14:49:43.922,OFFBOARD,True,-1.358,-2.792,358.015,-0.0127,0.0569,0.0118,0.6636,-0.9585,-3.5003,0.0605,0.0417,-0.0066,0.073,3.5,49,14.239,0.0,0.12,0.0,0.0,ON,3.5
2026-03-23 14:49:44.928,OFFBOARD,True,-0.526,-2.629,358.358,0.0432,-0.0501,0.0192,0.6635,-0.9399,-3.5037,0.0772,-0.083,-0.0088,0.113,3.504,49,14.244,0.0,0.12,0.0,0.0,ON,3.5
2026-03-23 14:49:45.931,OFFBOARD,True,0.354,-2.047,357.963,-0.0129,-0.0842,0.0111,0.693,-1.0536,-3.5028,0.0997,-0.0519,0.0074,0.112,3.503,49,14.246,0.0,0.12,0.0,0.0,ON,3.5
2026-03-23 14:49:46.952,OFFBOARD,True,-0.488,-2.132,357.276,-0.0232,-0.0679,-0.0374,0.7326,-1.0358,-3.5019,0.0648,0.0272,0.0036,0.07,3.502,49,14.243,0.0,0.12,0.0,0.0,ON,3.5
2026-03-23 14:49:47.956,PX4_0,False,-0.763,-2.11,356.662,-0.0066,0.0109,-0.0035,0.7437,-0.9973,-3.4978,0.0338,-0.0267,-0.0041,0.043,3.498,49,14.246,0.0,0.12,0.0,0.0,ON,3.49
2026-03-23 14:49:49.079,PX4_0,False,-0.477,-2.067,356.828,0.1063,-0.0004,0.0237,0.7437,-0.9973,-3.4978,0.0338,-0.0267,-0.0041,0.043,3.498,49,14.246,0.0,0.12,0.0,0.0,ON,3.49
2026-03-23 14:49:50.082,OFFBOARD,True,-0.203,-1.899,357.619,-0.0706,0.0766,-0.0141,0.7877,-1.0983,-3.5022,-0.0475,-0.0003,0.0049,0.048,3.502,49,14.242,0.0,0.12,0.0,0.0,ON,3.5
2026-03-23 14:49:51.087,PX4_0,False,0.032,-2.021,357.524,0.0659,0.0069,-0.0125,0.7878,-1.1014,-3.5004,-0.0516,-0.0044,0.0083,0.052,3.5,49,14.233,0.0,0.12,0.0,0.0,ON,3.49
2026-03-23 14:49:52.097,OFFBOARD,True,-0.128,-1.738,358.348,0.0465,-0.0386,0.0193,0.7992,-1.1071,-3.4861,-0.0831,0.013,0.0036,0.084,3.486,48,14.217,0.0,0.12,0.0,0.0,ON,3.48
2026-03-23 14:49:53.104,OFFBOARD,True,-0.358,-2.086,358.434,0.0541,-0.0158,0.0003,0.7772,-1.1044,-3.4875,-0.0908,0.0225,-0.0139,0.094,3.487,48,14.207,0.0,0.12,0.0,0.0,ON,3.47
2026-03-23 14:49:54.111,OFFBOARD,True,-0.609,-1.845,357.971,-0.0016,0.0185,-0.0406,0.7587,-1.0701,-3.4967,-0.0619,0.0069,-0.004,0.062,3.497,48,14.217,0.0,0.12,0.0,0.0,ON,3.49
2026-03-23 14:49:55.118,OFFBOARD,True,0.319,-1.508,357.771,-0.0148,-0.0091,-0.0136,0.7748,-1.1213,-3.5024,-0.099,-0.0612,-0.0107,0.116,3.502,48,14.218,0.0,0.12,0.0,0.0,ON,3.5
2026-03-23 14:49:56.127,OFFBOARD,True,0.331,-1.982,357.271,-0.0202,-0.0532,0.0043,0.7372,-1.1819,-3.5066,-0.0967,0.0156,0.013,0.098,3.507,48,14.214,0.0,0.12,0.0,0.0,ON,3.5
2026-03-23 14:49:57.141,OFFBOARD,True,-1.109,-1.653,357.359,0.0014,-0.0515,0.0306,0.7344,-1.091,-3.4937,-0.0461,0.0868,-0.0096,0.098,3.494,48,14.205,0.0,0.12,0.0,0.0,ON,3.48
2026-03-23 14:49:58.144,OFFBOARD,True,-0.067,-1.214,358.437,0.045,0.0106,0.0185,0.7841,-1.0643,-3.4948,-0.0762,-0.0473,-0.0029,0.09,3.495,48,14.208,0.0,0.12,0.0,0.0,ON,3.5
2026-03-23 14:49:59.148,OFFBOARD,True,1.077,-1.92,357.951,-0.1014,0.0029,-0.0229,0.7198,-1.2374,-3.5016,-0.1267,0.0287,0.0057,0.13,3.502,48,14.203,0.0,0.12,0.0,0.0,ON,3.5
2026-03-23 14:50:00.183,PX4_0,False,-0.799,-2.729,357.974,-0.0709,0.0919,0.0035,0.6207,-1.0949,-3.4927,-0.0581,0.1355,0.0044,0.147,3.493,48,14.198,0.0,0.12,0.0,0.0,ON,3.47
2026-03-23 14:50:01.211,PX4_0,False,-0.393,-2.214,359.822,0.0025,-0.0747,0.0224,0.6094,-1.0684,-3.4849,0.0411,0.0039,-0.0083,0.041,3.485,48,14.186,0.0,0.12,0.0,0.0,ON,3.49
2026-03-23 14:50:02.224,PX4_0,False,0.091,-1.306,359.398,0.0091,0.0853,-0.0482,0.7009,-1.1444,-3.5143,0.0433,-0.035,0.0021,0.056,3.514,48,14.199,0.0,0.12,0.0,0.0,ON,3.52
2026-03-23 14:50:03.227,PX4_0,False,0.345,-1.561,357.893,-0.0275,-0.0299,-0.0148,0.7142,-1.1593,-3.5141,-0.0211,0.0012,0.0205,0.021,3.514,48,14.195,0.0,0.12,0.0,0.0,ON,3.52
2026-03-23 14:50:04.229,PX4_0,False,0.479,-1.612,356.956,-0.0434,-0.1067,-0.0279,0.6999,-1.1519,-3.5009,-0.0394,0.026,0.0003,0.047,3.501,48,14.203,0.0,0.12,0.0,0.0,ON,3.48
2026-03-23 14:50:05.236,PX4_0,False,-0.169,-1.608,357.609,-0.0289,0.0877,0.0242,0.7147,-1.1367,-3.4931,-0.0338,0.0993,0.0008,0.105,3.493,48,14.199,0.0,0.12,0.0,0.0,ON,3.48
2026-03-23 14:50:06.243,PX4_0,False,-1.021,-1.369,357.761,0.0663,0.03,0.0358,0.7272,-1.0379,-3.4903,-0.0684,0.0079,-0.0021,0.069,3.49,48,14.192,0.0,0.12,0.0,0.0,ON,3.48
2026-03-23 14:50:07.257,OFFBOARD,True,-0.169,-1.45,358.688,0.0908,-0.0105,0.0107,0.7149,-1.086,-3.4928,-0.0839,-0.0999,-0.0153,0.13,3.493,48,14.192,0.0,0.12,0.0,0.0,ON,3.49
2026-03-23 14:50:08.263,PX4_0,False,1.007,-1.53,358.849,-0.0671,0.0002,0.0028,0.7118,-1.2172,-3.5074,-0.0772,0.0551,0.0005,0.095,3.507,48,14.204,0.0,0.12,0.0,0.0,ON,3.5
2026-03-23 14:50:09.268,PX4_0,False,-1.239,-1.642,357.967,-0.011,-0.0503,-0.0366,0.6933,-1.08,-3.4966,-0.0676,0.0777,0.01,0.103,3.497,48,14.196,0.0,0.12,0.0,0.0,ON,3.49
2026-03-23 14:50:10.271,PX4_0,False,-0.864,-1.456,358.06,-0.0098,-0.022,0.0388,0.7124,-1.0398,-3.493,-0.0607,-0.0551,-0.0104,0.082,3.493,48,14.193,0.0,0.12,0.0,0.0,ON,3.49
2026-03-23 14:50:11.278,PX4_0,False,0.821,-1.522,359.199,-0.0057,0.0287,-0.0346,0.7256,-1.2019,-3.4971,-0.1219,-0.0432,-0.0162,0.129,3.497,48,14.183,0.0,0.12,0.0,0.0,ON,3.51
2026-03-23 14:50:12.309,PX4_0,False,1.182,-2.517,357.552,-0.0782,0.0503,-0.0232,0.6289,-1.2569,-3.5076,-0.0808,0.0751,0.0139,0.11,3.508,48,14.182,0.0,0.12,0.0,0.0,ON,3.49
2026-03-23 14:50:13.324,PX4_0,False,-0.219,-2.429,357.128,0.0232,-0.0823,0.0337,0.5784,-1.1128,-3.4862,0.017,0.0693,0.0001,0.071,3.486,48,14.182,0.0,0.12,0.0,0.0,ON,3.48
2026-03-23 14:50:14.341,PX4_0,False,-0.462,-1.972,359.217,0.0617,0.0526,0.0187,0.612,-1.0317,-3.4866,0.0779,-0.0416,-0.0184,0.088,3.487,48,14.183,0.0,0.12,0.0,0.0,ON,3.5
2026-03-23 14:50:15.345,PX4_0,False,0.013,-0.942,358.387,-0.0427,-0.043,-0.0319,0.7537,-1.0514,-3.508,-0.0009,-0.1005,0.0096,0.101,3.508,48,14.189,0.0,0.12,0.0,0.0,ON,3.5
2026-03-23 14:50:16.355,PX4_0,False,0.532,-1.439,359.178,-0.015,-0.0072,0.0227,0.7888,-1.1404,-3.5003,-0.1162,-0.0805,0.0069,0.141,3.5,48,14.181,0.0,0.12,0.0,0.0,ON,3.5
2026-03-23 14:50:17.371,PX4_0,False,-0.498,-2.083,358.939,0.0287,-0.0694,-0.029,0.7212,-1.1293,-3.4944,-0.1229,0.0217,-0.0067,0.125,3.494,47,14.17,0.0,0.12,0.0,0.0,ON,3.48
2026-03-23 14:50:18.378,PX4_0,False,-0.042,-2.741,358.52,0.0901,0.0368,0.0261,0.6197,-1.1234,-3.5,-0.0487,-0.028,-0.0078,0.056,3.5,47,14.169,0.0,0.12,0.0,0.0,ON,3.5
2026-03-23 14:50:19.381,PX4_0,False,0.541,-2.466,358.397,-0.0126,0.0725,0.0009,0.5787,-1.2058,-3.499,0.0627,-0.0341,-0.0039,0.071,3.499,48,14.174,0.0,0.12,0.0,0.0,ON,3.5
2026-03-23 14:50:20.385,PX4_0,False,0.065,-1.767,358.605,-0.029,-0.0301,-0.0198,0.642,-1.179,-3.5031,0.0776,0.0252,-0.003,0.082,3.503,48,14.178,0.0,0.12,0.0,0.0,ON,3.5
2026-03-23 14:50:21.392,PX4_0,False,-0.736,-2.158,358.526,0.0056,0.0641,-0.0064,0.6686,-1.0938,-3.5026,0.0327,0.0104,0.0073,0.034,3.503,48,14.173,0.0,0.12,0.0,0.0,ON,0.0
2026-03-23 14:50:22.396,PX4_0,False,0.401,-1.686,357.799,0.0423,0.0901,0.0177,0.7023,-1.1741,-3.4902,0.0117,-0.0706,-0.0062,0.072,3.49,47,14.156,0.0,0.12,0.0,0.0,ON,3.48
2026-03-23 14:50:23.416,PX4_0,False,0.534,-1.642,358.748,0.0392,-0.1118,-0.0,0,0,0,0,0,0,0.0,0,47,14.163,0.0,0.12,0.0,0.0,ON,3.48
2026-03-23 14:50:24.425,PX4_0,False,-0.843,-2.195,358.631,-0.0497,0.0443,-0.0058,0.6612,-1.1325,-3.4889,0.0009,0.0462,0.0078,0.046,3.489,47,14.156,0.0,0.12,0.0,0.0,ON,3.48
2026-03-23 14:50:25.435,PX4_0,False,0.0,0.0,0.0,0,0,0,0.684,-1.1768,-3.4921,0.0216,-0.0406,-0.003,0.046,3.492,47,14.153,0.0,0.12,0.0,0.0,ON,3.5
2026-03-23 14:50:26.445,PX4_0,False,1.075,-1.526,358.984,-0.0499,-0.0744,-0.0018,0.689,-1.2491,-3.4818,0.0181,-0.0241,0.0513,0.03,3.482,47,14.157,0.0,0.12,0.0,0.0,ON,3.49
2026-03-23 14:50:27.456,PX4_0,False,0.318,-1.367,359.294,0.0721,0.0309,0.0042,0.7573,-1.2768,-3.4142,-0.0512,0.1116,0.0508,0.123,3.414,47,14.166,0.0,0.12,0.0,0.0,ON,3.4
2026-03-23 14:50:28.459,PX4_0,False,0.11,-2.508,358.881,-0.0301,0.0285,-0.0175,0.6445,-1.2168,-3.3511,-0.0422,0.0772,0.0675,0.088,3.351,47,14.147,0.0,0.12,0.0,0.0,ON,3.33
2026-03-23 14:50:29.476,PX4_0,False,-0.394,-1.997,359.63,-0.0445,-0.0111,0.0019,0.6336,-1.1085,-3.2769,0.0463,0.031,0.0641,0.056,3.277,47,14.15,0.0,0.12,0.0,0.0,ON,3.29
2026-03-23 14:50:30.483,PX4_0,False,-0.186,-1.709,359.601,-0.0406,-0.0731,-0.0227,0.6681,-1.1002,-3.2385,0.0426,-0.0199,0.0624,0.047,3.239,47,14.156,0.0,0.12,0.0,0.0,ON,3.26
2026-03-23 14:50:31.489,PX4_0,False,-0.04,-2.587,358.65,0.0666,-0.0507,0.0049,0.5905,-1.0972,-3.168,0.0216,-0.0131,0.06,0.025,3.168,47,14.135,0.0,0.12,0.0,0.0,ON,3.16
2026-03-23 14:50:32.493,PX4_0,False,0.239,-2.624,358.164,0.0176,-0.0506,-0.0087,0.5381,-1.1165,-3.1047,0.0804,-0.0228,0.0506,0.084,3.105,47,14.13,0.0,0.12,0.0,0.0,ON,3.11
2026-03-23 14:50:33.503,OFFBOARD,True,-0.121,-1.793,357.682,-0.0004,0.0206,0.0008,0.6096,-1.097,-3.0621,0.1063,-0.0148,0.0432,0.107,3.062,47,14.139,0.0,0.12,0.0,0.0,ON,3.07
2026-03-23 14:50:34.509,PX4_0,False,-0.134,-1.342,358.887,-0.0092,0.0398,0.0039,0.734,-1.0775,-3.0265,0.027,-0.0288,0.0443,0.039,3.026,47,14.139,0.0,0.12,0.0,0.0,ON,3.02
2026-03-23 14:50:35.512,PX4_0,False,0.207,-1.984,359.289,-0.0148,-0.0566,-0.0142,0.7588,-1.1203,-2.9689,-0.0161,-0.0016,0.0619,0.016,2.969,47,14.143,0.0,0.12,0.0,0.0,ON,2.96
2026-03-23 14:50:36.526,PX4_0,False,0.605,-1.478,358.698,-0.0052,-0.0696,0.0141,0.8111,-1.1623,-2.9021,-0.03,0.0377,0.0658,0.048,2.902,47,14.14,0.0,0.12,0.0,0.0,ON,2.9
2026-03-23 14:50:37.530,PX4_0,False,-1.322,-1.295,359.092,-0.0209,-0.0464,-0.0315,0.8248,-1.0457,-2.8382,-0.0957,0.0369,0.0482,0.103,2.838,47,14.127,0.0,0.12,0.0,0.0,ON,2.83
2026-03-23 14:50:38.534,PX4_0,False,-0.69,-1.788,358.566,0.0373,0.0368,0.0066,0.8,-1.0646,-2.8077,-0.1316,-0.0926,0.0117,0.161,2.808,46,14.12,0.0,0.12,0.0,0.0,ON,2.8
2026-03-23 14:50:39.539,PX4_0,False,1.028,-1.4,359.814,-0.0106,0.1047,0.0217,0.8356,-1.2261,-2.7631,-0.0451,0.004,0.0611,0.045,2.763,47,14.132,0.0,0.12,0.0,0.0,ON,2.76
2026-03-23 14:50:40.543,PX4_0,False,-0.531,-0.816,0.007,-0.0184,0.0785,0.0203,0.9002,-1.1589,-2.7286,-0.1313,0.0872,0.0073,0.158,2.729,47,14.128,0.0,0.12,0.0,0.0,ON,2.73
2026-03-23 14:50:41.548,PX4_0,False,-1.304,-1.621,359.181,0.047,-0.0609,-0.0322,0.8299,-1.0873,-2.7259,-0.1703,-0.0104,-0.0058,0.171,2.726,47,14.131,0.0,0.12,0.0,0.0,ON,2.72
2026-03-23 14:50:42.559,PX4_0,False,0.622,-2.64,359.233,0.05,0.0144,0.0009,0.7724,-1.1733,-2.7175,-0.0999,-0.0774,0.0376,0.126,2.717,47,14.132,0.0,0.12,0.0,0.0,ON,2.71
2026-03-23 14:50:43.565,PX4_0,False,-0.194,-2.277,359.859,-0.0009,0.003,0.013,0.7027,-1.1846,-2.6328,0.0281,0.0642,0.063,0.07,2.633,46,14.109,0.0,0.12,0.0,0.0,ON,2.63
2026-03-23 14:50:44.575,PX4_0,False,-1.155,-2.101,0.56,-0.0062,-0.0856,-0.0078,0.6923,-1.1107,-2.5812,0.0621,-0.0099,0.0481,0.063,2.581,46,14.098,0.0,0.12,0.0,0.0,ON,2.58
2026-03-23 14:50:45.581,PX4_0,False,0.732,-1.528,359.519,0.052,0.0545,0.0132,0.7068,-1.1807,-2.564,0.0567,-0.0663,0.0408,0.087,2.564,46,14.089,0.0,0.12,0.0,0.0,ON,2.57
2026-03-23 14:50:46.584,PX4_0,False,0.162,-2.033,0.252,-0.0442,-0.0754,-0.0011,0.6845,-1.2176,-2.5096,0.0094,0.0454,0.0469,0.046,2.51,46,14.094,0.0,0.12,0.0,0.0,ON,2.52
2026-03-23 14:50:47.592,PX4_0,False,-0.003,-2.019,0.638,-0.0045,0.0064,0.0067,0.6679,-1.2031,-2.4838,0.0123,0.0556,0.0481,0.057,2.484,0,0.0,0.0,0.12,0.0,0.0,ON,2.49
2026-03-23 14:50:48.596,PX4_0,False,-0.049,-1.708,0.812,-0.0428,0.0947,0.001,0.7037,-1.1743,-2.4354,0.0166,0.0301,0.0579,0.034,2.435,46,14.112,0.0,0.12,0.0,0.0,ON,2.43
2026-03-23 14:50:49.603,PX4_0,False,-0.465,-1.32,0.4,0.0058,-0.0481,0.0398,0.7338,-1.1625,-2.3742,-0.0596,-0.0112,0.0213,0.061,2.374,46,14.108,0.0,0.12,0.0,0.0,ON,2.37
2026-03-23 14:50:50.610,PX4_0,False,0.691,-2.059,1.115,0.0812,-0.0293,-0.0135,0.7243,-1.2194,-2.3553,-0.061,-0.0338,0.0463,0.07,2.355,46,14.106,0.0,0.12,0.0,0.0,ON,2.35
2026-03-23 14:50:51.614,PX4_0,False,-0.347,-0.667,1.262,-0.0189,-0.0297,-0.04,0.8077,-1.227,-2.292,-0.066,0.0064,0.036,0.066,2.292,46,14.104,0.0,0.12,0.0,0.0,ON,2.3
2026-03-23 14:50:52.619,PX4_0,False,0.019,-1.338,359.858,-0.0698,0.039,-0.0318,0.7865,-1.2478,-2.27,-0.1511,-0.0398,0.0168,0.156,2.27,46,14.092,0.0,0.12,0.0,0.0,ON,2.25
2026-03-23 14:50:53.626,PX4_0,False,0.87,-2.333,0.666,0.0153,0.0564,0.0623,0.7285,-1.3124,-2.2406,-0.0441,-0.0639,0.0477,0.078,2.241,46,14.1,0.0,0.12,0.0,0.0,ON,2.23
2026-03-23 14:50:54.645,PX4_0,False,0.087,-1.269,1.625,0.0013,0.0225,0.0165,0.7786,-1.2595,-2.1859,-0.0259,0.0139,0.0503,0.029,2.186,46,14.094,0.0,0.12,0.0,0.0,ON,2.18
2026-03-23 14:50:55.649,PX4_0,False,-0.44,-0.657,1.972,0.0283,-0.0797,0.0003,0.8362,-1.2302,-2.1516,-0.1115,-0.0573,0.0096,0.125,2.152,46,14.083,0.0,0.12,0.0,0.0,ON,2.15
2026-03-23 14:50:56.667,PX4_0,False,0.879,-0.492,1.309,0.034,0.0258,-0.0103,0.862,-1.3327,-2.1507,-0.1947,-0.0987,-0.0088,0.218,2.151,46,14.086,0.0,0.12,0.0,0.0,ON,2.14
2026-03-23 14:50:57.671,PX4_0,False,0.712,-1.441,1.365,-0.072,-0.0214,-0.0183,0.7483,-1.3787,-2.1517,-0.2056,0.0474,-0.0006,0.211,2.152,46,14.093,0.0,0.12,0.0,0.0,ON,2.15
2026-03-23 14:50:58.677,PX4_0,False,-0.149,-1.882,2.204,0.0524,0.0696,0.0431,0.7152,-1.3532,-2.1179,-0.0097,0.0086,0.0505,0.013,2.118,46,14.087,0.0,0.12,0.0,0.0,ON,2.12
2026-03-23 14:50:59.681,PX4_0,False,0.352,-1.469,2.896,-0.0188,0.0864,-0.0278,0.7334,-1.367,-2.0708,0.0235,-0.0262,0.0525,0.035,2.071,45,14.075,0.0,0.12,0.0,0.0,ON,2.07
2026-03-23 14:51:00.685,PX4_0,False,0.443,-2.029,2.056,-0.0711,0.0283,0.0162,0.6919,-1.399,-2.023,0.0043,-0.02,0.057,0.02,2.023,45,14.067,0.0,0.12,0.0,0.0,ON,2.02
2026-03-23 14:51:01.692,OFFBOARD,True,-0.176,-2.196,3.078,0.0127,0.1051,0.0251,0.6475,-1.36,-1.9646,0.0435,0.0236,0.0484,0.049,1.965,45,14.058,0.0,0.12,0.0,0.0,ON,1.96
2026-03-23 14:51:02.695,OFFBOARD,True,-0.583,-1.41,2.857,0.0448,-0.0418,0.0116,0.7115,-1.2935,-1.9044,0.0582,-0.0132,0.0581,0.06,1.904,45,14.053,0.0,0.12,0.0,0.0,ON,1.9
2026-03-23 14:51:03.698,PX4_0,False,0.056,-1.765,3.069,-0.0059,-0.0272,-0.0206,0.731,-1.3275,-1.846,0.0051,-0.0782,0.0671,0.078,1.846,45,14.058,0.0,0.12,0.0,0.0,ON,1.84
2026-03-23 14:51:04.704,PX4_0,False,0.621,-1.763,2.14,-0.0201,-0.0293,-0.0135,0.7328,-1.4069,-1.7749,0.0091,-0.0555,0.0591,0.056,1.775,45,14.049,0.0,0.12,0.0,0.0,ON,1.78
2026-03-23 14:51:05.708,OFFBOARD,True,0.28,-1.503,1.568,-0.051,0.0429,-0.0011,0.7703,-1.4009,-1.7155,0.0208,0.0193,0.055,0.028,1.716,45,14.047,0.0,0.12,0.0,0.0,ON,1.71
2026-03-23 14:51:06.714,OFFBOARD,True,-0.006,-1.319,2.761,-0.0021,0.0407,0.0608,0.7941,-1.3625,-1.6591,-0.0131,0.0199,0.0541,0.024,1.659,45,14.042,0.0,0.12,0.0,0.0,ON,1.66
2026-03-23 14:51:07.718,OFFBOARD,True,0.019,-1.783,3.894,0.0163,-0.123,0.0163,0.7524,-1.3624,-1.6038,-0.0366,0.0014,0.0503,0.037,1.604,45,14.03,0.0,0.12,0.0,0.0,ON,1.61
2026-03-23 14:51:08.724,OFFBOARD,True,-0.105,-2.004,4.103,-0.0233,0.056,-0.0436,0.7173,-1.3751,-1.5517,-0.0016,-0.0128,0.0589,0.013,1.552,45,14.042,0.0,0.12,0.0,0.0,ON,1.55
2026-03-23 14:51:09.731,OFFBOARD,True,-0.108,-1.545,2.851,-0.0256,0.0609,-0.0141,0.7336,-1.3788,-1.489,0.0362,0.0156,0.0583,0.039,1.489,45,14.028,0.0,0.12,0.0,0.0,ON,1.48
2026-03-23 14:51:10.738,OFFBOARD,True,-0.547,-1.44,3.328,0.0212,-0.0303,0.0264,0.7552,-1.3505,-1.4407,0.0028,0.0156,0.0557,0.016,1.441,44,14.02,0.0,0.12,0.0,0.0,ON,1.44
2026-03-23 14:51:11.748,OFFBOARD,True,0.157,-1.423,4.898,0.0066,-0.0993,-0.0156,0.7768,-1.3392,-1.3983,0.0013,-0.0239,0.033,0.024,1.398,44,14.025,0.0,0.12,0.0,0.0,ON,1.39
2026-03-23 14:51:12.782,OFFBOARD,True,-0.878,-0.738,3.403,0.0074,0.0403,0.0127,0.7955,-1.3398,-1.3485,-0.0782,-0.0235,0.0327,0.082,1.349,45,14.03,0.0,0.12,0.0,0.0,ON,1.34
2026-03-23 14:51:13.788,OFFBOARD,True,-0.193,-1.683,4.017,-0.0353,-0.0094,-0.0043,0.7404,-1.3878,-1.3175,-0.0144,-0.0056,0.0128,0.015,1.317,45,14.033,0.0,0.12,0.0,0.0,ON,1.31
2026-03-23 14:51:14.797,OFFBOARD,True,-0.423,-1.33,3.705,0.0063,-0.0742,0.0018,0.7657,-1.3797,-1.289,-0.0062,-0.005,0.0389,0.008,1.289,45,14.032,0.0,0.12,0.0,0.0,ON,1.29
2026-03-23 14:51:15.814,OFFBOARD,True,-0.168,-0.842,3.674,-0.0257,0.1605,0.0114,0.7955,-1.3878,-1.2342,-0.0118,-0.0269,0.0675,0.029,1.234,45,14.027,0.0,0.12,0.0,0.0,ON,1.23
2026-03-23 14:51:16.819,OFFBOARD,True,-0.005,-0.87,4.553,0.0212,0.0579,0.009,0.8042,-1.4221,-1.2111,-0.0897,-0.0402,-0.0074,0.098,1.211,44,14.019,0.0,0.12,0.0,0.0,ON,1.21
2026-03-23 14:51:17.826,OFFBOARD,True,0.129,-2.287,4.899,-0.0452,0.0881,-0.0052,0.7598,-1.491,-1.1867,-0.0318,-0.0027,0.0521,0.032,1.187,45,14.035,0.0,0.12,0.0,0.0,ON,1.18
2026-03-23 14:51:18.829,OFFBOARD,True,0.686,-1.904,4.085,-0.0107,-0.0002,-0.0348,0.7658,-1.5226,-1.1216,-0.0032,0.044,0.0534,0.044,1.122,44,14.02,0.0,0.12,0.0,0.0,ON,1.12
2026-03-23 14:51:19.835,OFFBOARD,True,-0.114,-1.783,4.395,0.0219,-0.0643,0.0128,0.7578,-1.4747,-1.0684,-0.0024,0.0864,0.0476,0.086,1.068,44,14.013,0.0,0.12,0.0,0.0,ON,1.06
2026-03-23 14:51:20.841,OFFBOARD,True,-0.415,-2.162,5.156,-0.0011,-0.0592,-0.0039,0.7478,-1.4316,-1.0063,-0.0077,0.0239,0.0493,0.025,1.006,44,14.011,0.0,0.12,0.0,0.0,ON,1.0
2026-03-23 14:51:21.844,OFFBOARD,True,0.336,-2.29,5.525,-0.0318,0.0609,-0.0361,0.7725,-1.4623,-0.9349,0.0133,0.0045,0.138,0.014,0.935,44,14.016,0.0,0.12,0.0,0.0,ON,0.94
2026-03-23 14:51:22.847,OFFBOARD,True,0.519,-2.025,4.961,0.0807,-0.0375,-0.0324,0.8038,-1.5121,-0.755,-0.0084,0.0263,0.2237,0.028,0.755,44,14.025,0.0,0.12,0.0,0.0,ON,0.76
2026-03-23 14:51:23.851,OFFBOARD,True,0.228,-2.151,3.869,0.0323,0.0114,0.0359,0.7555,-1.5425,-0.5941,-0.0203,0.0066,0.0079,0.021,0.594,44,13.999,0.0,0.12,0.0,0.0,ON,0.58
2026-03-23 14:51:24.858,OFFBOARD,True,-0.137,-2.231,4.964,-0.0582,0.0073,0.0492,0.7224,-1.535,-0.5408,-0.0179,0.0275,0.066,0.033,0.541,44,14.0,0.0,0.12,0.0,0.0,ON,0.53
2026-03-23 14:51:25.864,OFFBOARD,True,-0.477,-2.259,6.565,0.0357,0.0463,-0.043,0.6952,-1.4998,-0.4252,0.0075,0.007,0.0862,0.01,0.425,44,14.01,0.0,0.12,0.0,0.0,ON,0.42
2026-03-23 14:51:26.870,OFFBOARD,True,-0.655,-1.472,6.532,0.0231,0.0267,0.0373,0.7105,-1.4934,-0.3961,0.0453,-0.0111,-0.0272,0.047,0.396,44,14.005,0.0,0.12,0.0,0.0,ON,0.4
2026-03-23 14:51:27.875,OFFBOARD,True,-0.468,-1.536,6.806,-0.0001,-0.0761,0.0082,0.7331,-1.4862,-0.4107,0.0098,0.0263,-0.006,0.028,0.411,44,14.015,0.0,0.12,0.0,0.0,ON,0.4
2026-03-23 14:51:28.880,OFFBOARD,True,-0.712,-1.609,7.111,-0.0011,0.0463,-0.0297,0.7282,-1.456,-0.4041,0.0037,-0.0035,-0.0101,0.005,0.404,44,14.02,0.0,0.12,0.0,0.0,ON,0.4
2026-03-23 14:51:29.885,OFFBOARD,True,0.394,-1.784,6.081,-0.037,0.0358,-0.0133,0.7271,-1.516,-0.4077,-0.011,-0.0734,-0.0058,0.074,0.408,44,14.024,0.0,0.12,0.0,0.0,ON,0.4
2026-03-23 14:51:30.890,OFFBOARD,True,0.454,-2.011,5.291,0.0082,-0.0987,-0.003,0.7189,-1.5422,-0.4058,0.0032,0.0152,0.0067,0.016,0.406,45,14.03,0.0,0.12,0.0,0.0,ON,0.4
2026-03-23 14:51:31.898,OFFBOARD,True,0.235,-2.182,6.422,0.0012,-0.0597,0.0253,0.7142,-1.5483,-0.3968,-0.0104,0.0491,-0.0139,0.05,0.397,44,14.016,0.0,0.12,0.0,0.0,ON,0.39
2026-03-23 14:51:32.902,OFFBOARD,True,0.262,-1.335,6.486,0.0429,0.0092,0.011,0.7273,-1.5456,-0.371,0.0059,-0.0324,-0.0385,0.033,0.371,44,14.008,0.0,0.12,0.0,0.0,ON,0.37
2026-03-23 14:51:33.911,OFFBOARD,True,-0.058,-1.651,5.443,-0.017,0.0129,-0.0363,0.704,-1.5303,-0.3807,0.0,0.0096,0.1788,0.01,0.381,45,14.044,0.0,0.12,0.0,0.0,ON,0.37
2026-03-23 14:51:34.916,OFFBOARD,True,-0.844,-1.693,4.462,-0.0163,0.0307,0.061,0.6731,-1.4585,-0.3419,0.0232,0.0188,-0.0739,0.03,0.342,44,14.013,0.0,0.12,0.0,0.0,ON,0.33
2026-03-23 14:51:35.921,OFFBOARD,True,-0.541,-1.466,5.567,0.0014,0.0417,0.018,0.7045,-1.4545,-0.365,0.0308,-0.0539,-0.0108,0.062,0.365,44,14.019,0.0,0.12,0.0,0.0,ON,0.37
2026-03-23 14:51:36.925,OFFBOARD,True,-0.311,-1.423,6.704,-0.0635,-0.0628,0.0021,0.7298,-1.4789,-0.3788,-0.0056,-0.0583,-0.0072,0.059,0.379,44,14.012,0.0,0.12,0.0,0.0,ON,0.37
2026-03-23 14:51:37.931,OFFBOARD,True,0.121,-1.765,5.974,-0.0573,-0.0306,-0.0144,0.7236,-1.526,-0.3758,-0.014,-0.0378,-0.0156,0.04,0.376,44,14.008,0.0,0.12,0.0,0.0,ON,0.37
2026-03-23 14:51:38.935,OFFBOARD,True,0.176,-1.847,5.741,0.0685,-0.0498,-0.0368,0.6989,-1.5588,-0.3795,-0.0034,-0.0346,0.0001,0.035,0.38,44,14.007,0.0,0.12,0.0,0.0,ON,0.39
2026-03-23 14:51:39.939,OFFBOARD,True,0.441,-1.755,5.413,-0.0177,0.0241,0.0654,0.6813,-1.5984,-0.3894,0.0098,0.0322,-0.0099,0.034,0.389,44,14.016,0.0,0.12,0.0,0.0,ON,0.38
2026-03-23 14:51:40.952,OFFBOARD,True,0.0,0.0,0.0,0,0,0,0.6568,-1.5655,-0.2683,-0.0013,-0.0034,0.0783,0.004,0.268,44,14.006,0.0,0.12,0.0,0.0,ON,0.27
2026-03-23 14:51:41.957,OFFBOARD,True,-0.158,-2.069,6.654,-0.0121,-0.0733,0.0171,0.6338,-1.5329,-0.3236,-0.0061,-0.0107,-0.0469,0.012,0.324,44,14.0,0.0,0.12,0.0,0.0,ON,0.32
2026-03-23 14:51:42.962,OFFBOARD,True,-0.487,-1.346,5.994,0.0431,-0.0421,0.0174,0.6489,-1.5082,-0.3383,0.0285,-0.0153,-0.0115,0.032,0.338,44,14.0,0.0,0.12,0.0,0.0,ON,0.33
2026-03-23 14:51:43.968,OFFBOARD,True,-0.419,-1.435,6.517,0.0001,0.0961,-0.0132,0.6759,-1.537,-0.3483,0.0137,-0.0162,-0.0154,0.021,0.348,44,13.998,0.0,0.12,0.0,0.0,ON,0.34
2026-03-23 14:51:44.975,OFFBOARD,True,0.051,-1.375,5.928,0.0109,0.03,-0.007,0.692,-1.586,-0.3592,-0.0115,-0.0001,-0.0037,0.012,0.359,44,13.999,0.0,0.12,0.0,0.0,ON,0.35
2026-03-23 14:51:45.978,OFFBOARD,True,-0.949,-1.686,6.895,-0.0005,0.0121,0.0323,0.6504,-1.5761,-0.3487,-0.0128,0.0593,0.1357,0.061,0.349,44,14.026,0.0,0.12,0.0,0.0,ON,0.35
2026-03-23 14:51:46.986,OFFBOARD,True,-0.593,-2.59,5.504,0.1254,-0.0596,0.006,0.5975,-1.5739,-0.155,-0.0706,0.004,-0.1729,0.071,0.155,44,14.006,0.0,0.12,0.0,0.0,ON,0.19
2026-03-23 14:51:47.989,OFFBOARD,True,-1.036,-2.739,7.266,0.0746,0.0581,0.0733,0.5286,-1.521,-0.2456,0.0457,0.0127,-0.0168,0.047,0.246,44,14.028,0.0,0.12,0.0,0.0,ON,0.24
2026-03-23 14:51:48.994,OFFBOARD,True,-0.448,-1.951,6.35,-0.078,-0.0583,-0.0418,0.5525,-1.5208,-0.2491,0.0492,-0.0341,-0.0024,0.06,0.249,44,14.02,0.0,0.12,0.0,0.0,ON,0.25
2026-03-23 14:51:49.999,OFFBOARD,True,-0.488,-1.881,5.974,0.0925,0.1532,0.0081,0.598,-1.5364,-0.2499,0.0691,-0.0474,0.0075,0.084,0.25,44,14.011,0.0,0.12,0.0,0.0,ON,0.24
2026-03-23 14:51:51.005,OFFBOARD,True,-0.53,-1.533,7.507,0.1157,-0.0251,0.018,0.6578,-1.5577,-0.2542,0.0236,-0.0193,-0.0093,0.03,0.254,44,14.01,0.0,0.12,0.0,0.0,ON,0.26
2026-03-23 14:51:52.011,OFFBOARD,True,0.004,-1.323,7.133,-0.1492,-0.1178,0.0021,0.6986,-1.5883,-0.2593,-0.0029,-0.0036,0.0167,0.005,0.259,44,14.007,0.0,0.12,0.0,0.0,ON,0.25
2026-03-23 14:51:53.016,OFFBOARD,True,-0.175,-1.202,6.16,-0.0284,-0.0223,-0.0327,0.7186,-1.581,-0.2474,-0.0341,0.0016,-0.0052,0.034,0.247,44,14.005,0.0,0.12,0.0,0.0,ON,0.23
2026-03-23 14:51:54.024,OFFBOARD,True,-0.201,-1.308,6.719,-0.0002,0.0633,0.0121,0.6912,-1.5778,-0.2435,-0.0342,-0.0067,-0.0252,0.035,0.243,44,13.989,0.0,0.12,0.0,0.0,ON,0.23
2026-03-23 14:51:55.027,OFFBOARD,True,-0.766,-2.049,7.223,0.0331,0.0467,-0.0008,0.6621,-1.5728,-0.2515,-0.0354,0.0022,-0.0147,0.035,0.252,44,14.0,0.0,0.12,0.0,0.0,ON,0.25
2026-03-23 14:51:56.039,OFFBOARD,True,-0.224,-2.02,6.965,-0.0146,-0.0679,0.0342,0.6465,-1.5944,-0.2611,-0.0258,-0.0182,0.0012,0.032,0.261,44,14.007,0.0,0.12,0.0,0.0,ON,0.26
2026-03-23 14:51:57.047,OFFBOARD,True,0.154,-1.816,6.892,-0.0312,0.0341,-0.0303,0.6216,-1.6095,-0.2594,-0.0241,0.0033,0.0032,0.024,0.259,44,14.002,0.0,0.12,0.0,0.0,ON,0.26
2026-03-23 14:51:58.055,OFFBOARD,True,-0.201,-2.469,6.688,-0.0004,0.0886,-0.028,0.5921,-1.6236,-0.2603,-0.0097,0.0186,-0.0003,0.021,0.26,44,13.991,0.0,0.12,0.0,0.0,ON,0.25
2026-03-23 14:51:59.064,OFFBOARD,True,0.166,-2.173,7.761,0.0123,-0.0331,0.0535,0.5676,-1.6233,-0.2431,0.004,0.043,-0.005,0.043,0.243,43,13.979,0.0,0.12,0.0,0.0,ON,0.23
2026-03-23 14:52:00.068,OFFBOARD,True,-0.081,-2.144,7.456,-0.0338,0.0383,0.0011,0.5705,-1.5907,-0.2481,0.0554,0.0298,-0.0023,0.063,0.248,44,13.985,0.0,0.12,0.0,0.0,ON,0.24
2026-03-23 14:52:01.088,OFFBOARD,True,-0.144,-1.582,6.331,-0.0376,-0.0254,-0.0143,0.6213,-1.5512,-0.267,0.0569,0.0206,-0.0148,0.061,0.267,43,13.969,0.0,0.12,0.0,0.0,ON,0.27
2026-03-23 14:52:02.103,OFFBOARD,True,-0.906,-1.034,5.972,0.0075,0.0213,0.0456,0.6904,-1.514,-0.2607,0.0333,0.0306,0.0168,0.045,0.261,44,13.982,0.0,0.12,0.0,0.0,ON,0.25
2026-03-23 14:52:03.111,OFFBOARD,True,-0.551,-0.737,6.409,-0.0692,-0.0451,0.0013,0.7432,-1.5181,-0.2477,-0.0203,-0.0294,-0.0135,0.036,0.248,44,13.989,0.0,0.12,0.0,0.0,ON,0.24
2026-03-23 14:52:04.113,OFFBOARD,True,-0.075,-1.161,6.52,-0.0203,0.0342,-0.0175,0.7523,-1.5479,-0.2487,-0.0586,-0.0428,-0.0039,0.073,0.249,43,13.98,0.0,0.12,0.0,0.0,ON,0.24
2026-03-23 14:52:05.121,OFFBOARD,True,0.015,-1.339,6.918,-0.0166,-0.0309,-0.0066,0.7061,-1.58,-0.2523,-0.0649,-0.031,0.0079,0.072,0.252,43,13.972,0.0,0.12,0.0,0.0,ON,0.25
2026-03-23 14:52:06.124,OFFBOARD,True,-0.337,-2.43,7.385,-0.04,-0.0212,-0.0079,0.63,-1.5988,-0.2601,-0.066,-0.0151,-0.0082,0.068,0.26,43,13.978,0.0,0.12,0.0,0.0,ON,0.25
2026-03-23 14:52:07.145,OFFBOARD,True,0.091,-2.127,5.492,0.0204,-0.0382,0.0012,0.5757,-1.6042,-0.2497,-0.0123,0.0154,-0.001,0.02,0.25,43,13.963,0.0,0.12,0.0,0.0,ON,0.24
2026-03-23 14:52:08.148,OFFBOARD,True,-0.455,-1.883,6.909,-0.1023,0.0445,0.0168,0.5614,-1.581,-0.2516,0.0396,0.0351,-0.0001,0.053,0.252,43,13.945,0.0,0.12,0.0,0.0,ON,0.27
2026-03-23 14:52:09.158,OFFBOARD,True,-0.647,-2.217,7.296,-0.0312,0.0923,-0.0197,0.5834,-1.5517,-0.2538,0.0433,0.015,-0.0096,0.046,0.254,43,13.941,0.0,0.12,0.0,0.0,ON,0.2
